[{"referralId": "v-1505910033", "specials": {"items": [], "count": 0}, "categories": [{"name": "Radio Station", "pluralName": "Radio Stations", "id": "5032856091d4c4b30a586d63", "icon": {"prefix": "https://ss3.4sqi.net/img/categories_v2/building/default_", "suffix": ".png"}, "primary": true, "shortName": "Radio Station"}], "hasPerk": false, "contact": {}, "beenHere": {"lastCheckinExpiredAt": 0}, "verified": false, "stats": {"checkinsCount": 1, "usersCount": 1, "tipCount": 0}, "name": "زیرساخت دزفول", "id": "59aa44dd6e46504a067c0649", "venueChains": [], "venueRatingBlacklisted": true, "location": {"cc": "IR", "address": "ValiAsr Communication Center", "lat": 32.366044, "labeledLatLngs": [{"label": "display", "lng": 48.387248, "lat": 32.366044}], "lng": 48.387248, "country": "ایران", "city": "Dezful", "formattedAddress": ["ValiAsr Communication Center", "Dezful, Khūzestān", "ایران"], "state": "Khūzestān"}}, {"referralId": "v-1505910034", "specials": {"items": [], "count": 0}, "categories": [{"name": "Road", "pluralName": "Roads", "id": "4bf58dd8d48988d1f9931735", "icon": {"prefix": "https://ss3.4sqi.net/img/categories_v2/travel/highway_", "suffix": ".png"}, "primary": true, "shortName": "Road"}], "hasPerk": false, "contact": {}, "beenHere": {"lastCheckinExpiredAt": 0}, "verified": false, "stats": {"checkinsCount": 8, "usersCount": 6, "tipCount": 0}, "name": "Dezful - Safi Abad Road | جاده دزفول - صفی آباد (جاده دزفول - صفی آباد)", "id": "56460818498ec975efdcfdc7", "venueChains": [], "venueRatingBlacklisted": true, "location": {"cc": "IR", "lat": 32.35431671278148, "lng": 48.41409220929369, "labeledLatLngs": [{"label": "display", "lng": 48.41409220929369, "lat": 32.35431671278148}], "state": "خوزستان", "country": "ایران", "city": "دزفول", "formattedAddress": ["دزفول, خوزستان", "ایران"]}}, {"referralId": "v-1505910034", "specials": {"items": [], "count": 0}, "categories": [{"name": "Park", "pluralName": "Parks", "id": "4bf58dd8d48988d163941735", "icon": {"prefix": "https://ss3.4sqi.net/img/categories_v2/parks_outdoors/park_", "suffix": ".png"}, "primary": true, "shortName": "Park"}], "hasPerk": false, "contact": {}, "beenHere": {"lastCheckinExpiredAt": 0}, "verified": false, "stats": {"checkinsCount": 1, "usersCount": 1, "tipCount": 0}, "name": "Shahed Park | پارک شاهد", "id": "5202db87498eda49c60a54d9", "venueChains": [], "location": {"cc": "IR", "lat": 32.36524951210228, "lng": 48.412936855660504, "labeledLatLngs": [{"label": "display", "lng": 48.412936855660504, "lat": 32.36524951210228}], "state": "Khouzestan", "country": "ایران", "city": "Dezful", "formattedAddress": ["Dezful, Khouzestan", "ایران"]}}, {"referralId": "v-1505910034", "specials": {"items": [], "count": 0}, "categories": [{"name": "Department Store", "pluralName": "Department Stores", "id": "4bf58dd8d48988d1f6941735", "icon": {"prefix": "https://ss3.4sqi.net/img/categories_v2/shops/departmentstore_", "suffix": ".png"}, "primary": true, "shortName": "Department Store"}], "hasPerk": false, "contact": {}, "beenHere": {"lastCheckinExpiredAt": 0}, "verified": false, "stats": {"checkinsCount": 7, "usersCount": 2, "tipCount": 0}, "name": "Hyper Amiran | هایپر امیران (هایپر امیران)", "id": "56ebc60b498ef04873aaf10d", "allowMenuUrlEdit": true, "venueChains": [], "location": {"state": "خوزستان", "lng": 48.409194946289055, "address": "Moqavemat Sq.", "lat": 32.36317955301296, "labeledLatLngs": [{"label": "display", "lng": 48.409194946289055, "lat": 32.36317955301296}], "cc": "IR", "country": "ایران", "city": "دزفول", "formattedAddress": ["Moqavemat Sq. (Jomhori Eslami Blvd.)", "دزفول, خوزستان", "ایران"], "crossStreet": "Jomhori Eslami Blvd."}}, {"referralId": "v-1505910034", "specials": {"items": [], "count": 0}, "categories": [{"name": "Road", "pluralName": "Roads", "id": "4bf58dd8d48988d1f9931735", "icon": {"prefix": "https://ss3.4sqi.net/img/categories_v2/travel/highway_", "suffix": ".png"}, "primary": true, "shortName": "Road"}], "hasPerk": false, "contact": {}, "beenHere": {"lastCheckinExpiredAt": 0}, "verified": false, "stats": {"checkinsCount": 1, "usersCount": 1, "tipCount": 0}, "name": "Tabatabaei Street | خیابان طباطبایی (خیابان طباطبایی)", "id": "58a70d9e076be13f604ab3b4", "venueChains": [], "venueRatingBlacklisted": true, "location": {"cc": "IR", "lat": 32.370337, "lng": 48.392265, "labeledLatLngs": [{"label": "display", "lng": 48.392265, "lat": 32.370337}], "state": "خوزستان", "country": "ایران", "city": "دزفول", "formattedAddress": ["دزفول, خوزستان", "ایران"]}}, {"referralId": "v-1505910034", "specials": {"items": [], "count": 0}, "categories": [{"name": "Bus Line", "pluralName": "Bus Lines", "id": "4bf58dd8d48988d12b951735", "icon": {"prefix": "https://ss3.4sqi.net/img/categories_v2/travel/busstation_", "suffix": ".png"}, "primary": true, "shortName": "Bus"}], "hasPerk": false, "contact": {"formattedPhone": "+98 61 4228 4030", "phone": "+986142284030"}, "beenHere": {"lastCheckinExpiredAt": 0}, "verified": false, "stats": {"checkinsCount": 2, "usersCount": 1, "tipCount": 0}, "name": "Peyk-e Saba Dezful | شرکت مسافربری پیک‌صبا دزفول (شرکت مسافربری پیک‌صبا دزفول)", "id": "57d2be1ecd1076ef23adffca", "venueChains": [], "venueRatingBlacklisted": true, "location": {"cc": "IR", "lat": 32.35496, "lng": 48.415287, "labeledLatLngs": [{"label": "display", "lng": 48.415287, "lat": 32.35496}], "state": "خوزستان", "country": "ایران", "city": "دزفول", "formattedAddress": ["دزفول, خوزستان", "ایران"]}}, {"referralId": "v-1505910034", "specials": {"items": [], "count": 0}, "categories": [{"name": "Furniture / Home Store", "pluralName": "Furniture / Home Stores", "id": "4bf58dd8d48988d1f8941735", "icon": {"prefix": "https://ss3.4sqi.net/img/categories_v2/shops/furniture_", "suffix": ".png"}, "primary": true, "shortName": "Furniture / Home"}], "hasPerk": false, "contact": {"formattedPhone": "+98 61 4224 1431", "phone": "+986142241431"}, "beenHere": {"lastCheckinExpiredAt": 0}, "verified": false, "stats": {"checkinsCount": 4, "usersCount": 3, "tipCount": 0}, "name": "صنایع چوب شوهی زاده", "id": "58e65b67ea1c0d267620a402", "allowMenuUrlEdit": true, "venueChains": [], "location": {"state": "خوزستان", "lng": 48.405205, "address": "Montazeri St.", "lat": 32.374126, "labeledLatLngs": [{"label": "display", "lng": 48.405205, "lat": 32.374126}], "cc": "IR", "country": "ایران", "city": "دزفول", "formattedAddress": ["Montazeri St. (Btwn. Beheshti St. & Hazrat Rasoul St.)", "دزفول, خوزستان IR", "ایران"], "crossStreet": "Btwn. Beheshti St. & Hazrat Rasoul St.", "postalCode": "IR"}}, {"referralId": "v-1505910034", "specials": {"items": [], "count": 0}, "categories": [{"name": "Language School", "pluralName": "Language Schools", "id": "52e81612bcbc57f1066b7a48", "icon": {"prefix": "https://ss3.4sqi.net/img/categories_v2/education/default_", "suffix": ".png"}, "primary": true, "shortName": "Language School"}], "hasPerk": false, "contact": {}, "beenHere": {"lastCheckinExpiredAt": 0}, "verified": false, "stats": {"checkinsCount": 11, "usersCount": 2, "tipCount": 0}, "name": "Taak Language Institute (موسسه آموزش زبان تاک)", "id": "58a447d4739d8513103f27c0", "venueChains": [], "venueRatingBlacklisted": true, "location": {"state": "خوزستان", "lng": 48.41549277305603, "address": "18th. Moghavemat St.", "lat": 32.36997605884281, "labeledLatLngs": [{"label": "display", "lng": 48.41549277305603, "lat": 32.36997605884281}], "cc": "IR", "country": "ایران", "city": "دزفول", "formattedAddress": ["18th. Moghavemat St. (Moalem Blvd.)", "دزفول, خوزستان", "ایران"], "crossStreet": "Moalem Blvd."}}, {"referralId": "v-1505910034", "specials": {"items": [], "count": 0}, "categories": [{"name": "Plaza", "pluralName": "Plazas", "id": "4bf58dd8d48988d164941735", "icon": {"prefix": "https://ss3.4sqi.net/img/categories_v2/parks_outdoors/plaza_", "suffix": ".png"}, "primary": true, "shortName": "Plaza"}], "hasPerk": false, "contact": {}, "beenHere": {"lastCheckinExpiredAt": 0}, "verified": false, "stats": {"checkinsCount": 34, "usersCount": 15, "tipCount": 0}, "name": "Yaghoub-e Leyth Square | میدان یعقوب لیث (میدان یعقوب لیث)", "id": "56460a58498e304c8931db6a", "venueChains": [], "location": {"cc": "IR", "lat": 32.372495167195794, "lng": 48.41546058654785, "labeledLatLngs": [{"label": "display", "lng": 48.41546058654785, "lat": 32.372495167195794}], "state": "خوزستان", "country": "ایران", "city": "دزفول", "formattedAddress": ["دزفول, خوزستان", "ایران"]}}, {"referralId": "v-1505910034", "specials": {"items": [], "count": 0}, "categories": [{"name": "Road", "pluralName": "Roads", "id": "4bf58dd8d48988d1f9931735", "icon": {"prefix": "https://ss3.4sqi.net/img/categories_v2/travel/highway_", "suffix": ".png"}, "primary": true, "shortName": "Road"}], "hasPerk": false, "contact": {}, "beenHere": {"lastCheckinExpiredAt": 0}, "verified": false, "stats": {"checkinsCount": 8, "usersCount": 1, "tipCount": 0}, "name": "Mo'alem Boulevard (بلوار معلم)", "id": "58ada66346563a73f0fc6408", "venueChains": [], "venueRatingBlacklisted": true, "location": {"cc": "IR", "lat": 32.371258, "lng": 48.415936, "labeledLatLngs": [{"label": "display", "lng": 48.415936, "lat": 32.371258}], "state": "خوزستان", "country": "ایران", "city": "دزفول", "formattedAddress": ["دزفول, خوزستان", "ایران"]}}, {"referralId": "v-1505910034", "specials": {"items": [], "count": 0}, "categories": [{"name": "Gift Shop", "pluralName": "Gift Shops", "id": "4bf58dd8d48988d128951735", "icon": {"prefix": "https://ss3.4sqi.net/img/categories_v2/shops/giftshop_", "suffix": ".png"}, "primary": true, "shortName": "Gift Shop"}], "hasPerk": false, "contact": {}, "beenHere": {"lastCheckinExpiredAt": 0}, "verified": false, "stats": {"checkinsCount": 5, "usersCount": 5, "tipCount": 0}, "name": "Golbaran Store | فروشگاه گلباران", "id": "533afe07498e2a68365f0caf", "allowMenuUrlEdit": true, "venueChains": [], "location": {"cc": "IR", "lat": 32.371126, "lng": 48.414451, "labeledLatLngs": [{"label": "display", "lng": 48.414451, "lat": 32.371126}], "state": "Ostān-e Khūzestān", "country": "ایران", "city": "Dezfūl", "formattedAddress": ["Dezfūl, Ostān-e Khūzestān", "ایران"]}}, {"referralId": "v-1505910034", "specials": {"items": [], "count": 0}, "categories": [{"name": "Plaza", "pluralName": "Plazas", "id": "4bf58dd8d48988d164941735", "icon": {"prefix": "https://ss3.4sqi.net/img/categories_v2/parks_outdoors/plaza_", "suffix": ".png"}, "primary": true, "shortName": "Plaza"}], "hasPerk": false, "contact": {}, "beenHere": {"lastCheckinExpiredAt": 0}, "verified": false, "stats": {"checkinsCount": 18, "usersCount": 12, "tipCount": 0}, "name": "Moqavemat Square | میدان مقاومت (میدان مقاومت)", "id": "564606cb498e1dffc69bcbad", "venueChains": [], "location": {"cc": "IR", "lat": 32.36212831448504, "lng": 48.40970993041992, "labeledLatLngs": [{"label": "display", "lng": 48.40970993041992, "lat": 32.36212831448504}], "state": "خوزستان", "country": "ایران", "city": "دزفول", "formattedAddress": ["دزفول, خوزستان", "ایران"]}}, {"referralId": "v-1505910034", "specials": {"items": [], "count": 0}, "categories": [{"name": "Road", "pluralName": "Roads", "id": "4bf58dd8d48988d1f9931735", "icon": {"prefix": "https://ss3.4sqi.net/img/categories_v2/travel/highway_", "suffix": ".png"}, "primary": true, "shortName": "Road"}], "hasPerk": false, "contact": {}, "beenHere": {"lastCheckinExpiredAt": 0}, "verified": false, "stats": {"checkinsCount": 5, "usersCount": 1, "tipCount": 0}, "name": "Shahid Montazeri Street | خیابان شهید محمد منتظری (خیابان شهید محمد منتظری)", "id": "562f2d2a498e63cc56363fc1", "venueChains": [], "venueRatingBlacklisted": true, "location": {"cc": "IR", "lat": 32.3726692199707, "lng": 48.40949630737305, "labeledLatLngs": [{"label": "display", "lng": 48.40949630737305, "lat": 32.3726692199707}], "state": "خوزستان", "country": "ایران", "city": "دزفول", "formattedAddress": ["دزفول, خوزستان", "ایران"]}}, {"referralId": "v-1505910034", "specials": {"items": [], "count": 0}, "categories": [{"name": "Ice Cream Shop", "pluralName": "Ice Cream Shops", "id": "4bf58dd8d48988d1c9941735", "icon": {"prefix": "https://ss3.4sqi.net/img/categories_v2/food/icecream_", "suffix": ".png"}, "primary": true, "shortName": "Ice Cream"}], "hasPerk": false, "contact": {}, "beenHere": {"lastCheckinExpiredAt": 0}, "verified": false, "stats": {"checkinsCount": 39, "usersCount": 28, "tipCount": 4}, "name": "Fath Al-Mobin Ice Cream | بستنی فتح المبین (بستنی فتح المبین)", "id": "532dbea8498ee09ba1714784", "allowMenuUrlEdit": true, "venueChains": [], "location": {"cc": "IR", "address": "Taleghani St", "lat": 32.37313464172433, "labeledLatLngs": [{"label": "display", "lng": 48.41434570785529, "lat": 32.37313464172433}], "lng": 48.41434570785529, "country": "ایران", "city": "دزفول", "formattedAddress": ["Taleghani St", "دزفول, خوزستان", "ایران"], "state": "خوزستان"}}, {"referralId": "v-1505910034", "specials": {"items": [], "count": 0}, "categories": [{"name": "Bus Station", "pluralName": "Bus Stations", "id": "4bf58dd8d48988d1fe931735", "icon": {"prefix": "https://ss3.4sqi.net/img/categories_v2/travel/busstation_", "suffix": ".png"}, "primary": true, "shortName": "Bus Station"}], "hasPerk": false, "contact": {}, "beenHere": {"lastCheckinExpiredAt": 0}, "verified": false, "stats": {"checkinsCount": 105, "usersCount": 22, "tipCount": 1}, "name": "Dezful Bus Terminal | ترمينال بزرگ مسافربری دزفول (ترمینال بزرگ مسافربری دزفول)", "id": "4ff443dde4b054fba92c7297", "venueChains": [], "location": {"cc": "IR", "address": "Shams Abad Road", "lat": 32.35506227793426, "labeledLatLngs": [{"label": "display", "lng": 48.41549394106527, "lat": 32.35506227793426}], "lng": 48.41549394106527, "country": "ایران", "city": "دزفول", "formattedAddress": ["Shams Abad Road", "دزفول, خوزستان", "ایران"], "state": "خوزستان"}}, {"referralId": "v-1505910034", "specials": {"items": [], "count": 0}, "categories": [{"name": "Beach", "pluralName": "Beaches", "id": "4bf58dd8d48988d1e2941735", "icon": {"prefix": "https://ss3.4sqi.net/img/categories_v2/parks_outdoors/beach_", "suffix": ".png"}, "primary": true, "shortName": "Beach"}], "hasPerk": false, "contact": {}, "beenHere": {"lastCheckinExpiredAt": 0}, "verified": false, "stats": {"checkinsCount": 80, "usersCount": 73, "tipCount": 7}, "name": "Ali Kaleh Beach | تفريح‌گاه ساحلى على کله (تفريح‌گاه ساحلى على کله)", "id": "505dcbd6e4b0fae5e913cdf0", "venueChains": [], "location": {"cc": "IR", "lat": 32.40380598948743, "lng": 48.40949535369873, "labeledLatLngs": [{"label": "display", "lng": 48.40949535369873, "lat": 32.40380598948743}], "state": "Ostān-e Khūzestān", "country": "ایران", "city": "Dezfūl", "formattedAddress": ["Dezfūl, Ostān-e Khūzestān", "ایران"]}}, {"referralId": "v-1505910035", "specials": {"items": [], "count": 0}, "categories": [{"name": "Plaza", "pluralName": "Plazas", "id": "4bf58dd8d48988d164941735", "icon": {"prefix": "https://ss3.4sqi.net/img/categories_v2/parks_outdoors/plaza_", "suffix": ".png"}, "primary": true, "shortName": "Plaza"}], "hasPerk": false, "contact": {}, "beenHere": {"lastCheckinExpiredAt": 0}, "verified": false, "stats": {"checkinsCount": 2, "usersCount": 2, "tipCount": 0}, "name": "Qeysar AminPour Square | میدان قیصر امین‌پور (میدان قیصر امین‌پور)", "id": "58d134eb0b7e937dfc58e72c", "venueChains": [], "location": {"cc": "IR", "lat": 32.35739, "lng": 48.43525, "labeledLatLngs": [{"label": "display", "lng": 48.43525, "lat": 32.35739}], "state": "خوزستان", "country": "ایران", "city": "دزفول", "formattedAddress": ["دزفول, خوزستان", "ایران"]}}, {"referralId": "v-1505910037", "specials": {"items": [], "count": 0}, "categories": [{"name": "Historic Site", "pluralName": "Historic Sites", "id": "4deefb944765f83613cdba6e", "icon": {"prefix": "https://ss3.4sqi.net/img/categories_v2/arts_entertainment/historicsite_", "suffix": ".png"}, "primary": true, "shortName": "Historic Site"}], "hasPerk": false, "contact": {}, "beenHere": {"lastCheckinExpiredAt": 0}, "verified": false, "stats": {"checkinsCount": 3, "usersCount": 3, "tipCount": 0}, "name": "Yaghoub-e Leis Tomb | آرامگاه یعقوب لیث صفاری", "id": "526f5636498ef24d09bd50c2", "venueChains": [], "location": {"cc": "IR", "lat": 32.396603, "lng": 48.3857, "labeledLatLngs": [{"label": "display", "lng": 48.3857, "lat": 32.396603}], "state": "Khouzestan", "country": "ایران", "city": "Dezful", "formattedAddress": ["Dezful, Khouzestan", "ایران"]}}, {"referralId": "v-1505910037", "specials": {"items": [], "count": 0}, "categories": [{"name": "Bus Stop", "pluralName": "Bus Stops", "id": "52f2ab2ebcbc57f1066b8b4f", "icon": {"prefix": "https://ss3.4sqi.net/img/categories_v2/travel/busstation_", "suffix": ".png"}, "primary": true, "shortName": "Bus Stop"}], "hasPerk": false, "contact": {}, "beenHere": {"lastCheckinExpiredAt": 0}, "verified": false, "stats": {"checkinsCount": 2, "usersCount": 2, "tipCount": 0}, "name": "اتوبوس شماره١١", "id": "58c567eb02b60e05ce4de386", "venueChains": [], "location": {"cc": "IR", "lat": 32.401537, "lng": 48.380274, "labeledLatLngs": [{"label": "display", "lng": 48.380274, "lat": 32.401537}], "country": "ایران", "formattedAddress": ["ایران"]}}, {"referralId": "v-1505910037", "specials": {"items": [], "count": 0}, "categories": [{"name": "Cemetery", "pluralName": "Cemeteries", "id": "4bf58dd8d48988d15c941735", "icon": {"prefix": "https://ss3.4sqi.net/img/categories_v2/parks_outdoors/cemetery_", "suffix": ".png"}, "primary": true, "shortName": "Cemetery"}], "hasPerk": false, "contact": {}, "beenHere": {"lastCheckinExpiredAt": 0}, "verified": false, "stats": {"checkinsCount": 5, "usersCount": 3, "tipCount": 0}, "name": "Behesht-e Ali Cemetery | آرامگاه بهشت على (آرامگاه بهشت علی)", "id": "550aefd7498e7db27d83ee60", "venueChains": [], "venueRatingBlacklisted": true, "location": {"cc": "IR", "address": "Behesht-e Ali St.", "lat": 32.386325970752964, "labeledLatLngs": [{"label": "display", "lng": 48.38741802555945, "lat": 32.386325970752964}], "lng": 48.38741802555945, "country": "ایران", "city": "Dezfūl", "formattedAddress": ["Behesht-e Ali St.", "Dezfūl, Ostān-e Khūzestān", "ایران"], "state": "Ostān-e Khūzestān"}}, {"referralId": "v-1505910037", "specials": {"items": [], "count": 0}, "categories": [{"name": "Hospital", "pluralName": "Hospitals", "id": "4bf58dd8d48988d196941735", "icon": {"prefix": "https://ss3.4sqi.net/img/categories_v2/building/medical_", "suffix": ".png"}, "primary": true, "shortName": "Hospital"}], "hasPerk": false, "contact": {}, "beenHere": {"lastCheckinExpiredAt": 0}, "verified": false, "stats": {"checkinsCount": 9, "usersCount": 6, "tipCount": 0}, "name": "Dr. Ganjavian Hospital | بیمارستان دکتر گنجویان", "id": "562f2ea0498e30b2083e6fd2", "venueChains": [], "venueRatingBlacklisted": true, "location": {"cc": "IR", "lat": 32.39812088012695, "lng": 48.38100814819336, "labeledLatLngs": [{"label": "display", "lng": 48.38100814819336, "lat": 32.39812088012695}], "country": "ایران", "formattedAddress": ["ایران"]}}, {"referralId": "v-1505910037", "specials": {"items": [], "count": 0}, "categories": [{"name": "Hospital", "pluralName": "Hospitals", "id": "4bf58dd8d48988d196941735", "icon": {"prefix": "https://ss3.4sqi.net/img/categories_v2/building/medical_", "suffix": ".png"}, "primary": true, "shortName": "Hospital"}], "hasPerk": false, "contact": {}, "beenHere": {"lastCheckinExpiredAt": 0}, "verified": false, "stats": {"checkinsCount": 1, "usersCount": 1, "tipCount": 0}, "name": "Ayat-ol-lah Nabavi Hospital (بیمارستان آیت الله نبوی)", "id": "562f310c498e8e4c97f7b637", "venueChains": [], "venueRatingBlacklisted": true, "location": {"cc": "IR", "lat": 32.37523651123047, "lng": 48.38648986816406, "labeledLatLngs": [{"label": "display", "lng": 48.38648986816406, "lat": 32.37523651123047}], "state": "خوزستان", "country": "ایران", "city": "دزفول", "formattedAddress": ["دزفول, خوزستان", "ایران"]}}, {"referralId": "v-1505910037", "specials": {"items": [], "count": 0}, "categories": [{"name": "Persian Restaurant", "pluralName": "Persian Restaurants", "id": "52e81612bcbc57f1066b79f7", "icon": {"prefix": "https://ss3.4sqi.net/img/categories_v2/food/middleeastern_", "suffix": ".png"}, "primary": true, "shortName": "Persian"}], "hasPerk": false, "contact": {}, "beenHere": {"lastCheckinExpiredAt": 0}, "verified": false, "stats": {"checkinsCount": 3, "usersCount": 3, "tipCount": 0}, "name": "Mehr Hall & Restaurant | تالار و رستوران مهر (تالار و رستوران مهر)", "id": "590c338351950e7aa0caa7a8", "allowMenuUrlEdit": true, "venueChains": [], "location": {"cc": "IR", "lat": 32.390697, "lng": 48.382896, "labeledLatLngs": [{"label": "display", "lng": 48.382896, "lat": 32.390697}], "state": "خوزستان", "country": "ایران", "city": "دزفول", "formattedAddress": ["دزفول, خوزستان IR", "ایران"], "postalCode": "IR"}}, {"referralId": "v-1505910037", "specials": {"items": [], "count": 0}, "categories": [{"name": "Park", "pluralName": "Parks", "id": "4bf58dd8d48988d163941735", "icon": {"prefix": "https://ss3.4sqi.net/img/categories_v2/parks_outdoors/park_", "suffix": ".png"}, "primary": true, "shortName": "Park"}], "hasPerk": false, "contact": {}, "beenHere": {"lastCheckinExpiredAt": 0}, "verified": false, "stats": {"checkinsCount": 13, "usersCount": 12, "tipCount": 2}, "name": "Besat Park | پارک بعثت (پارک بعثت)", "id": "51816843498ed559a70a82c2", "venueChains": [], "location": {"cc": "IR", "lat": 32.393189068131335, "lng": 48.3788537979126, "labeledLatLngs": [{"label": "display", "lng": 48.3788537979126, "lat": 32.393189068131335}], "state": "خوزستان", "country": "ایران", "city": "دزفول", "formattedAddress": ["دزفول, خوزستان", "ایران"]}}, {"referralId": "v-1505910037", "specials": {"items": [], "count": 0}, "categories": [{"name": "Persian Restaurant", "pluralName": "Persian Restaurants", "id": "52e81612bcbc57f1066b79f7", "icon": {"prefix": "https://ss3.4sqi.net/img/categories_v2/food/middleeastern_", "suffix": ".png"}, "primary": true, "shortName": "Persian"}], "hasPerk": false, "contact": {}, "beenHere": {"lastCheckinExpiredAt": 0}, "verified": false, "stats": {"checkinsCount": 9, "usersCount": 7, "tipCount": 1}, "name": "Shavadoun Traditional Restaurant | سفره خانه سنتی شوادون (سفره‌خانه سنتی شوادون)", "id": "552f7ae8498ef5666f4ea2d2", "allowMenuUrlEdit": true, "venueChains": [], "location": {"state": "خوزستان", "lng": 48.387393951416016, "address": "Imam Hossein Sq.", "lat": 32.39155837235158, "labeledLatLngs": [{"label": "display", "lng": 48.387393951416016, "lat": 32.39155837235158}], "cc": "IR", "country": "ایران", "city": "دزفول", "formattedAddress": ["Imam Hossein Sq. (15 Khordad Blvd.)", "دزفول, خوزستان", "ایران"], "crossStreet": "15 Khordad Blvd."}}, {"referralId": "v-1505910037", "specials": {"items": [], "count": 0}, "categories": [{"name": "College Engineering Building", "pluralName": "College Engineering Buildings", "id": "4bf58dd8d48988d19e941735", "icon": {"prefix": "https://ss3.4sqi.net/img/categories_v2/education/collegeacademicbuildings_engineering_", "suffix": ".png"}, "primary": true, "shortName": "Engineering"}], "hasPerk": false, "contact": {}, "beenHere": {"lastCheckinExpiredAt": 0}, "verified": false, "stats": {"checkinsCount": 87, "usersCount": 14, "tipCount": 1}, "name": "Engineering Faculty | دانشکده فنی مهندسی (دانشکده‌ی فنی مهندسی)", "id": "516fc3a1e4b002aad515d838", "venueChains": [], "venueRatingBlacklisted": true, "location": {"cc": "IR", "address": "Azad University of Dezful", "lat": 32.39886991637782, "labeledLatLngs": [{"label": "display", "lng": 48.37144798905751, "lat": 32.39886991637782}], "lng": 48.37144798905751, "country": "ایران", "city": "Dezful", "formattedAddress": ["Azad University of Dezful", "Dezful, Khouzestan", "ایران"], "state": "Khouzestan"}}, {"referralId": "v-1505910037", "specials": {"items": [], "count": 0}, "categories": [{"name": "Hotel", "pluralName": "Hotels", "id": "4bf58dd8d48988d1fa931735", "icon": {"prefix": "https://ss3.4sqi.net/img/categories_v2/travel/hotel_", "suffix": ".png"}, "primary": true, "shortName": "Hotel"}], "hasPerk": false, "contact": {}, "beenHere": {"lastCheckinExpiredAt": 0}, "verified": false, "stats": {"checkinsCount": 57, "usersCount": 48, "tipCount": 5}, "name": "Dezful Tourism Hotel | هتل جهانگردی دزفول (هتل جهانگردی دزفول)", "id": "519395eb498e50a4c51921e1", "allowMenuUrlEdit": true, "venueChains": [], "location": {"cc": "IR", "lat": 32.3910179117594, "lng": 48.3832374996049, "labeledLatLngs": [{"label": "display", "lng": 48.3832374996049, "lat": 32.3910179117594}], "state": "خوزستان", "country": "ایران", "city": "دزفول", "formattedAddress": ["دزفول, خوزستان", "ایران"]}}, {"referralId": "v-1505910037", "specials": {"items": [], "count": 0}, "categories": [{"name": "Multiplex", "pluralName": "Multiplexes", "id": "4bf58dd8d48988d180941735", "icon": {"prefix": "https://ss3.4sqi.net/img/categories_v2/arts_entertainment/movietheater_", "suffix": ".png"}, "primary": true, "shortName": "Cineplex"}], "hasPerk": false, "contact": {}, "beenHere": {"lastCheckinExpiredAt": 0}, "verified": false, "stats": {"checkinsCount": 15, "usersCount": 12, "tipCount": 1}, "name": "Dezful Cinema & Cultural Complex | مجتمع‌ سینمایی و فرهنگی دزفول (مجتمع فرهنگی و سینمایی دزفول)", "id": "513b565ce4b0fdf0d7b64c37", "allowMenuUrlEdit": true, "venueChains": [], "location": {"cc": "IR", "lat": 32.394076879009546, "lng": 48.38104248046875, "labeledLatLngs": [{"label": "display", "lng": 48.38104248046875, "lat": 32.394076879009546}], "state": "Khouzestan", "country": "ایران", "city": "Dezful", "formattedAddress": ["Dezful, Khouzestan", "ایران"]}}, {"referralId": "v-1505910037", "specials": {"items": [], "count": 0}, "categories": [{"name": "Neighborhood", "pluralName": "Neighborhoods", "id": "4f2a25ac4b909258e854f55f", "icon": {"prefix": "https://ss3.4sqi.net/img/categories_v2/parks_outdoors/neighborhood_", "suffix": ".png"}, "primary": true, "shortName": "Neighborhood"}], "hasPerk": false, "contact": {}, "beenHere": {"lastCheckinExpiredAt": 0}, "verified": false, "stats": {"checkinsCount": 59, "usersCount": 22, "tipCount": 0}, "name": "Azadegan | آزادگان (آزادگان)", "id": "51adc6fa498e7fdd2ff9b888", "venueChains": [], "venueRatingBlacklisted": true, "location": {"cc": "IR", "lat": 32.39886991637782, "lng": 48.37153567027538, "labeledLatLngs": [{"label": "display", "lng": 48.37153567027538, "lat": 32.39886991637782}], "state": "Ostān-e Khūzestān", "country": "ایران", "city": "Dezfūl", "formattedAddress": ["Dezfūl, Ostān-e Khūzestān", "ایران"]}}, {"referralId": "v-1505910037", "specials": {"items": [], "count": 0}, "categories": [{"name": "Bridge", "pluralName": "Bridges", "id": "4bf58dd8d48988d1df941735", "icon": {"prefix": "https://ss3.4sqi.net/img/categories_v2/parks_outdoors/bridge_", "suffix": ".png"}, "primary": true, "shortName": "Bridge"}], "hasPerk": false, "contact": {}, "beenHere": {"lastCheckinExpiredAt": 0}, "verified": false, "stats": {"checkinsCount": 7, "usersCount": 3, "tipCount": 0}, "name": "Qadir Bridge | پل غدیر (پل غدیر)", "id": "58a6d9b73ef0f6646c9017bf", "venueChains": [], "venueRatingBlacklisted": true, "location": {"cc": "IR", "lat": 32.376332, "lng": 48.380668, "labeledLatLngs": [{"label": "display", "lng": 48.380668, "lat": 32.376332}], "state": "خوزستان", "country": "ایران", "city": "دزفول", "formattedAddress": ["دزفول, خوزستان", "ایران"]}}, {"referralId": "v-1505910037", "specials": {"items": [], "count": 0}, "categories": [{"name": "Market", "pluralName": "Markets", "id": "50be8ee891d4fa8dcc7199a7", "icon": {"prefix": "https://ss3.4sqi.net/img/categories_v2/shops/market_", "suffix": ".png"}, "primary": true, "shortName": "Market"}], "hasPerk": false, "contact": {}, "beenHere": {"lastCheckinExpiredAt": 0}, "verified": false, "stats": {"checkinsCount": 4, "usersCount": 1, "tipCount": 0}, "name": "هايپر ترنج", "id": "5995e3a17564f71bbbf9d300", "allowMenuUrlEdit": true, "venueChains": [], "location": {"state": "Khūzestān", "lng": 48.372062, "address": "Azadegan", "lat": 32.398206, "labeledLatLngs": [{"label": "display", "lng": 48.372062, "lat": 32.398206}], "cc": "IR", "country": "ایران", "city": "Dezful", "formattedAddress": ["Azadegan (Mobarez Blvd)", "Dezful, Khūzestān", "ایران"], "crossStreet": "Mobarez Blvd"}}, {"referralId": "v-1505910037", "specials": {"items": [], "count": 0}, "categories": [{"name": "Mobile Phone Shop", "pluralName": "Mobile Phone Shops", "id": "4f04afc02fb6e1c99f3db0bc", "icon": {"prefix": "https://ss3.4sqi.net/img/categories_v2/shops/mobilephoneshop_", "suffix": ".png"}, "primary": true, "shortName": "Mobile Phones"}], "hasPerk": false, "contact": {}, "beenHere": {"lastCheckinExpiredAt": 0}, "verified": false, "stats": {"checkinsCount": 3, "usersCount": 3, "tipCount": 0}, "name": "Mehregan Mobile | موبایل مهرگان (موبایل مهرگان)", "id": "590d78d09de23b76e29c99c1", "allowMenuUrlEdit": true, "venueChains": [], "location": {"cc": "IR", "lat": 32.382526, "lng": 48.40168, "labeledLatLngs": [{"label": "display", "lng": 48.40168, "lat": 32.382526}], "state": "خوزستان", "country": "ایران", "city": "دزفول", "formattedAddress": ["دزفول, خوزستان", "ایران"]}}, {"referralId": "v-1505910037", "specials": {"items": [], "count": 0}, "categories": [{"name": "Mosque", "pluralName": "Mosques", "id": "4bf58dd8d48988d138941735", "icon": {"prefix": "https://ss3.4sqi.net/img/categories_v2/building/religious_mosque_", "suffix": ".png"}, "primary": true, "shortName": "Mosque"}], "hasPerk": false, "contact": {}, "beenHere": {"lastCheckinExpiredAt": 0}, "verified": false, "stats": {"checkinsCount": 2, "usersCount": 1, "tipCount": 0}, "name": "Hojat-e Ben Alhasan Mosque (مسجد حجت بن الحسن)", "id": "56ceb4f8cd105eff2c5349c1", "venueChains": [], "venueRatingBlacklisted": true, "location": {"state": "خوزستان", "lng": 48.41580390930176, "address": "Naser Khosrow St.", "lat": 32.39003636305837, "labeledLatLngs": [{"label": "display", "lng": 48.41580390930176, "lat": 32.39003636305837}], "cc": "IR", "country": "ایران", "city": "دزفول", "formattedAddress": ["Naser Khosrow St. (Bo'ali St.)", "دزفول, خوزستان", "ایران"], "crossStreet": "Bo'ali St."}}, {"referralId": "v-1505910037", "specials": {"items": [], "count": 0}, "categories": [{"name": "Coffee Shop", "pluralName": "Coffee Shops", "id": "4bf58dd8d48988d1e0931735", "icon": {"prefix": "https://ss3.4sqi.net/img/categories_v2/food/coffeeshop_", "suffix": ".png"}, "primary": true, "shortName": "Coffee Shop"}], "hasPerk": false, "contact": {}, "beenHere": {"lastCheckinExpiredAt": 0}, "verified": false, "stats": {"checkinsCount": 5, "usersCount": 4, "tipCount": 0}, "name": "Kook Café | کافه کوک (کافه کوک)", "id": "5804dfa5d67c836e957b494b", "allowMenuUrlEdit": true, "venueChains": [], "location": {"state": "خوزستان", "lng": 48.403934, "address": "Zargaran Alley.", "lat": 32.385357, "labeledLatLngs": [{"label": "display", "lng": 48.403934, "lat": 32.385357}], "cc": "IR", "country": "ایران", "city": "دزفول", "formattedAddress": ["Zargaran Alley. (Shariati Blvd.)", "دزفول, خوزستان", "ایران"], "crossStreet": "Shariati Blvd."}}, {"referralId": "v-1505910037", "specials": {"items": [], "count": 0}, "categories": [{"name": "History Museum", "pluralName": "History Museums", "id": "4bf58dd8d48988d190941735", "icon": {"prefix": "https://ss3.4sqi.net/img/categories_v2/arts_entertainment/museum_history_", "suffix": ".png"}, "primary": true, "shortName": "History Museum"}], "hasPerk": false, "contact": {}, "beenHere": {"lastCheckinExpiredAt": 0}, "verified": false, "stats": {"checkinsCount": 6, "usersCount": 5, "tipCount": 1}, "name": "Kornasioun Historical Bath & Anthropology Museum (حمام تاریخی و موزه مردم‌شناسی کرناسیون)", "id": "55101f90498ed5a918070be0", "allowMenuUrlEdit": true, "venueChains": [], "location": {"cc": "IR", "address": "Saheli St.", "lat": 32.39202946526795, "labeledLatLngs": [{"label": "display", "lng": 48.39777946472168, "lat": 32.39202946526795}], "lng": 48.39777946472168, "country": "ایران", "city": "دزفول", "formattedAddress": ["Saheli St.", "دزفول, خوزستان", "ایران"], "state": "خوزستان"}}, {"referralId": "v-1505910037", "specials": {"items": [], "count": 0}, "categories": [{"name": "Baby Store", "pluralName": "Baby Stores", "id": "52f2ab2ebcbc57f1066b8b32", "icon": {"prefix": "https://ss3.4sqi.net/img/categories_v2/shops/apparel_kids_", "suffix": ".png"}, "primary": true, "shortName": "Baby Store"}], "hasPerk": false, "contact": {}, "beenHere": {"lastCheckinExpiredAt": 0}, "verified": false, "stats": {"checkinsCount": 2, "usersCount": 2, "tipCount": 0}, "name": "Rolan Kid's clothing Store | پوشاک کودک رولان (پوشاک کودک رولان)", "id": "58a5b74591936a7934b9f247", "allowMenuUrlEdit": true, "venueChains": [], "location": {"cc": "IR", "lat": 32.381104, "lng": 48.405255, "labeledLatLngs": [{"label": "display", "lng": 48.405255, "lat": 32.381104}], "state": "خوزستان", "country": "ایران", "city": "دزفول", "formattedAddress": ["دزفول, خوزستان", "ایران"]}}, {"referralId": "v-1505910037", "specials": {"items": [], "count": 0}, "categories": [{"name": "Shoe Repair", "pluralName": "Shoe Repair Shops", "id": "52f2ab2ebcbc57f1066b8b39", "icon": {"prefix": "https://ss3.4sqi.net/img/categories_v2/shops/apparel_shoestore_", "suffix": ".png"}, "primary": true, "shortName": "Shoe Repair"}], "hasPerk": false, "contact": {}, "beenHere": {"lastCheckinExpiredAt": 0}, "verified": false, "stats": {"checkinsCount": 3, "usersCount": 2, "tipCount": 0}, "name": "کفاشی ذبیح الله | Zabihollah Shoe Repair (کفاشی ذبیح‌الله)", "id": "58fcaf77610f044e3d920291", "allowMenuUrlEdit": true, "venueChains": [], "location": {"cc": "IR", "lat": 32.383412, "lng": 48.398406, "labeledLatLngs": [{"label": "display", "lng": 48.398406, "lat": 32.383412}], "state": "Khūzestān", "country": "ایران", "city": "Dezful", "formattedAddress": ["Dezful, Khūzestān", "ایران"]}}, {"referralId": "v-1505910037", "specials": {"items": [], "count": 0}, "categories": [{"name": "Ice Cream Shop", "pluralName": "Ice Cream Shops", "id": "4bf58dd8d48988d1c9941735", "icon": {"prefix": "https://ss3.4sqi.net/img/categories_v2/food/icecream_", "suffix": ".png"}, "primary": true, "shortName": "Ice Cream"}], "hasPerk": false, "contact": {}, "beenHere": {"lastCheckinExpiredAt": 0}, "verified": false, "stats": {"checkinsCount": 3, "usersCount": 3, "tipCount": 0}, "name": "Paeizan Café & Ice Cream | کافه بستنی پاییزان (کافه بستنی پاییزان)", "id": "5901f6c0646e387f2be6763f", "allowMenuUrlEdit": true, "venueChains": [], "location": {"state": "خوزستان", "lng": 48.41252, "address": "Fath-ol Mobin Blvd.", "lat": 32.385563, "labeledLatLngs": [{"label": "display", "lng": 48.41252, "lat": 32.385563}], "cc": "IR", "country": "ایران", "city": "دزفول", "formattedAddress": ["Fath-ol Mobin Blvd. (Btwn. Aref St. & Vesal St.)", "دزفول, خوزستان IR", "ایران"], "crossStreet": "Btwn. Aref St. & Vesal St.", "postalCode": "IR"}}, {"referralId": "v-1505910037", "specials": {"items": [], "count": 0}, "categories": [{"name": "Mosque", "pluralName": "Mosques", "id": "4bf58dd8d48988d138941735", "icon": {"prefix": "https://ss3.4sqi.net/img/categories_v2/building/religious_mosque_", "suffix": ".png"}, "primary": true, "shortName": "Mosque"}], "hasPerk": false, "contact": {}, "beenHere": {"lastCheckinExpiredAt": 0}, "verified": false, "stats": {"checkinsCount": 2, "usersCount": 2, "tipCount": 0}, "name": "Abbasiyeh | عباسیه (عباسیه)", "id": "590caf621bc704026ff74236", "venueChains": [], "venueRatingBlacklisted": true, "location": {"state": "خوزستان", "lng": 48.414646, "address": "Hakim Sanaei St.", "lat": 32.388, "labeledLatLngs": [{"label": "display", "lng": 48.414646, "lat": 32.388}], "cc": "IR", "country": "ایران", "city": "دزفول", "formattedAddress": ["Hakim Sanaei St. (Ferdowsi St.)", "دزفول, خوزستان", "ایران"], "crossStreet": "Ferdowsi St."}}, {"referralId": "v-1505910037", "specials": {"items": [], "count": 0}, "categories": [{"name": "Post Office", "pluralName": "Post Offices", "id": "4bf58dd8d48988d172941735", "icon": {"prefix": "https://ss3.4sqi.net/img/categories_v2/building/postoffice_", "suffix": ".png"}, "primary": true, "shortName": "Post Office"}], "hasPerk": false, "contact": {}, "beenHere": {"lastCheckinExpiredAt": 0}, "verified": false, "stats": {"checkinsCount": 1, "usersCount": 1, "tipCount": 0}, "name": "Government Services Office 72-21-1189 | دفتر پیشخوان خدمات دولت کد ۱۱۸۹-۲۱-۷۲ (دفتر پیشخوان خدمات دولت کد ۱۱۸۹-۲۱-۷۲ - زمانی‌راد)", "id": "58fd851b916bc145792bc18e", "venueChains": [], "venueRatingBlacklisted": true, "location": {"state": "خوزستان", "lng": 48.415817, "address": "Ferdowsi St.", "lat": 32.38881, "labeledLatLngs": [{"label": "display", "lng": 48.415817, "lat": 32.38881}], "cc": "IR", "country": "ایران", "city": "دزفول", "formattedAddress": ["Ferdowsi St. (Btwn. Feyz St. & Mohtasham St.)", "دزفول, خوزستان IR", "ایران"], "crossStreet": "Btwn. Feyz St. & Mohtasham St.", "postalCode": "IR"}}, {"referralId": "v-1505910037", "specials": {"items": [], "count": 0}, "categories": [{"name": "Music Store", "pluralName": "Music Stores", "id": "4bf58dd8d48988d1fe941735", "icon": {"prefix": "https://ss3.4sqi.net/img/categories_v2/shops/music_instruments_", "suffix": ".png"}, "primary": true, "shortName": "Music Store"}], "hasPerk": false, "contact": {}, "beenHere": {"lastCheckinExpiredAt": 0}, "verified": false, "stats": {"checkinsCount": 4, "usersCount": 3, "tipCount": 0}, "name": "Parsia Music Gallery | گالری موسیقی پارسیا (گالری موسیقی پارسیا)", "id": "56cc86b1cd104e2afa335514", "allowMenuUrlEdit": true, "venueChains": [], "location": {"state": "خوزستان", "lng": 48.40745687484741, "address": "Afarinesh St.", "lat": 32.38608626690331, "labeledLatLngs": [{"label": "display", "lng": 48.40745687484741, "lat": 32.38608626690331}], "cc": "IR", "country": "ایران", "city": "دزفول", "formattedAddress": ["Afarinesh St. (Dehghan St.)", "دزفول, خوزستان", "ایران"], "crossStreet": "Dehghan St."}}, {"referralId": "v-1505910037", "specials": {"items": [], "count": 0}, "categories": [{"name": "Dairy Store", "pluralName": "Dairy Stores", "id": "58daa1558bbb0b01f18ec1ca", "icon": {"prefix": "https://ss3.4sqi.net/img/categories_v2/shops/food_grocery_", "suffix": ".png"}, "primary": true, "shortName": "Dairy Store"}], "hasPerk": false, "contact": {}, "beenHere": {"lastCheckinExpiredAt": 0}, "verified": false, "stats": {"checkinsCount": 6, "usersCount": 4, "tipCount": 0}, "name": "Nemoneh Dairy Products (لبنیات سنتی نمونه)", "id": "57ee1b8ecd10095e5bdc4b33", "allowMenuUrlEdit": true, "venueChains": [], "location": {"cc": "IR", "lat": 32.38788, "lng": 48.41201, "labeledLatLngs": [{"label": "display", "lng": 48.41201, "lat": 32.38788}], "state": "خوزستان", "country": "ایران", "city": "دزفول", "formattedAddress": ["دزفول, خوزستان", "ایران"]}}, {"referralId": "v-1505910037", "specials": {"items": [], "count": 0}, "categories": [{"name": "Dessert Shop", "pluralName": "Dessert Shops", "id": "4bf58dd8d48988d1d0941735", "icon": {"prefix": "https://ss3.4sqi.net/img/categories_v2/food/dessert_", "suffix": ".png"}, "primary": true, "shortName": "Desserts"}], "hasPerk": false, "contact": {}, "beenHere": {"lastCheckinExpiredAt": 0}, "verified": false, "stats": {"checkinsCount": 1, "usersCount": 1, "tipCount": 0}, "name": "Nour Traditional Cookies | کلوچه سنتی نور (کلوچه سنتی نور)", "id": "58fcbcc49ec3997a1558966b", "allowMenuUrlEdit": true, "venueChains": [], "location": {"state": "خوزستان", "lng": 48.414303, "address": "Morabi St.", "lat": 32.3935, "labeledLatLngs": [{"label": "display", "lng": 48.414303, "lat": 32.3935}], "cc": "IR", "country": "ایران", "city": "دزفول", "formattedAddress": ["Morabi St. (Beheshti St.)", "دزفول, خوزستان IR", "ایران"], "crossStreet": "Beheshti St.", "postalCode": "IR"}}, {"referralId": "v-1505910037", "specials": {"items": [], "count": 0}, "categories": [{"name": "Road", "pluralName": "Roads", "id": "4bf58dd8d48988d1f9931735", "icon": {"prefix": "https://ss3.4sqi.net/img/categories_v2/travel/highway_", "suffix": ".png"}, "primary": true, "shortName": "Road"}], "hasPerk": false, "contact": {}, "beenHere": {"lastCheckinExpiredAt": 0}, "verified": false, "stats": {"checkinsCount": 1, "usersCount": 1, "tipCount": 0}, "name": "خیابان معزی", "id": "58f85272ba4a64459415e211", "venueChains": [], "venueRatingBlacklisted": true, "location": {"cc": "IR", "lat": 32.38151, "lng": 48.408308, "labeledLatLngs": [{"label": "display", "lng": 48.408308, "lat": 32.38151}], "state": "Khūzestān", "country": "ایران", "city": "Dezful", "formattedAddress": ["Dezful, Khūzestān IR", "ایران"], "postalCode": "IR"}}, {"referralId": "v-1505910037", "specials": {"items": [], "count": 0}, "categories": [{"name": "Baby Store", "pluralName": "Baby Stores", "id": "52f2ab2ebcbc57f1066b8b32", "icon": {"prefix": "https://ss3.4sqi.net/img/categories_v2/shops/apparel_kids_", "suffix": ".png"}, "primary": true, "shortName": "Baby Store"}], "hasPerk": false, "contact": {}, "beenHere": {"lastCheckinExpiredAt": 0}, "verified": false, "stats": {"checkinsCount": 3, "usersCount": 3, "tipCount": 0}, "name": "کودک کالا", "id": "58cd32bb460dd91457bf6f45", "allowMenuUrlEdit": true, "venueChains": [], "location": {"cc": "IR", "lat": 32.384903, "lng": 48.40668, "labeledLatLngs": [{"label": "display", "lng": 48.40668, "lat": 32.384903}], "state": "خوزستان", "country": "ایران", "city": "دزفول", "formattedAddress": ["دزفول, خوزستان", "ایران"]}}, {"referralId": "v-1505910037", "specials": {"items": [], "count": 0}, "categories": [{"name": "Dairy Store", "pluralName": "Dairy Stores", "id": "58daa1558bbb0b01f18ec1ca", "icon": {"prefix": "https://ss3.4sqi.net/img/categories_v2/shops/food_grocery_", "suffix": ".png"}, "primary": true, "shortName": "Dairy Store"}], "hasPerk": false, "contact": {}, "beenHere": {"lastCheckinExpiredAt": 0}, "verified": false, "stats": {"checkinsCount": 6, "usersCount": 1, "tipCount": 1}, "name": "Sharifi Dairy Products | لبنیات سنتی شریفی (لبنیات سنتی عباسی)", "id": "570208c7498ef8d7a0f9e930", "allowMenuUrlEdit": true, "venueChains": [], "location": {"state": "Khozestan", "lng": 48.41597557067871, "address": "Ferdowsi St.", "lat": 32.387789540558046, "labeledLatLngs": [{"label": "display", "lng": 48.41597557067871, "lat": 32.387789540558046}], "cc": "IR", "country": "ایران", "city": "Dezful", "formattedAddress": ["Ferdowsi St. (Labkhand Shokoufe St.)", "Dezful, Khozestan", "ایران"], "crossStreet": "Labkhand Shokoufe St."}}, {"referralId": "v-1505910037", "specials": {"items": [], "count": 0}, "categories": [{"name": "Fruit & Vegetable Store", "pluralName": "Fruit & Vegetable Stores", "id": "52f2ab2ebcbc57f1066b8b1c", "icon": {"prefix": "https://ss3.4sqi.net/img/categories_v2/shops/food_grocery_", "suffix": ".png"}, "primary": true, "shortName": "Fruit & Vegetable Store"}], "hasPerk": false, "contact": {}, "beenHere": {"lastCheckinExpiredAt": 0}, "verified": false, "stats": {"checkinsCount": 8, "usersCount": 2, "tipCount": 0}, "name": "Milad Fruit & Vegetable Store | سوپر میوه میلاد", "id": "55ccb7ab498e15c2007d3a0c", "allowMenuUrlEdit": true, "venueChains": [], "location": {"state": "خوزستان", "lng": 48.41104030609131, "address": "Fathol Mobin Blvd.", "lat": 32.388006977436234, "labeledLatLngs": [{"label": "display", "lng": 48.41104030609131, "lat": 32.388006977436234}], "cc": "IR", "country": "ایران", "city": "دزفول", "formattedAddress": ["Fathol Mobin Blvd. (Roudaki St.)", "دزفول, خوزستان", "ایران"], "crossStreet": "Roudaki St."}}, {"referralId": "v-1505910037", "specials": {"items": [], "count": 0}, "categories": [{"name": "Doctor's Office", "pluralName": "Doctor's Offices", "id": "4bf58dd8d48988d177941735", "icon": {"prefix": "https://ss3.4sqi.net/img/categories_v2/building/medical_doctorsoffice_", "suffix": ".png"}, "primary": true, "shortName": "Doctor's Office"}], "hasPerk": false, "contact": {}, "beenHere": {"lastCheckinExpiredAt": 0}, "verified": false, "stats": {"checkinsCount": 10, "usersCount": 1, "tipCount": 0}, "name": "Dr. Mehdi Kouchak Ali's Office ( Orthopedist ) | مطب دکتر مهدی کوچک‌علی - ارتوپد (مطب دکتر مهدی کوچکعلی - ارتوپد)", "id": "58fc886a9deb7d0311872b3a", "allowMenuUrlEdit": true, "venueChains": [], "venueRatingBlacklisted": true, "location": {"cc": "IR", "lat": 32.381539, "lng": 48.404109, "labeledLatLngs": [{"label": "display", "lng": 48.404109, "lat": 32.381539}], "state": "Khūzestān", "country": "ایران", "city": "Dezful", "formattedAddress": ["Dezful, Khūzestān", "ایران"]}}, {"referralId": "v-1505910037", "specials": {"items": [], "count": 0}, "categories": [{"name": "Medical Center", "pluralName": "Medical Centers", "id": "4bf58dd8d48988d104941735", "icon": {"prefix": "https://ss3.4sqi.net/img/categories_v2/building/medical_", "suffix": ".png"}, "primary": true, "shortName": "Medical"}], "hasPerk": false, "contact": {}, "beenHere": {"lastCheckinExpiredAt": 0}, "verified": false, "stats": {"checkinsCount": 29, "usersCount": 6, "tipCount": 0}, "name": "Imam Ali Boarding Clinic | درمانگاه تخصصی و فوق تخصصی امام علی (درمانگاه شبانه روزی امام علی)", "id": "559b9623498e7c7a5e4b06c1", "allowMenuUrlEdit": true, "venueChains": [], "venueRatingBlacklisted": true, "location": {"cc": "IR", "address": "Ghazi St.", "lat": 32.387028507362416, "labeledLatLngs": [{"label": "display", "lng": 48.410396575927734, "lat": 32.387028507362416}], "lng": 48.410396575927734, "country": "ایران", "city": "دزفول", "formattedAddress": ["Ghazi St.", "دزفول, خوزستان", "ایران"], "state": "خوزستان"}}, {"referralId": "v-1505910037", "specials": {"items": [], "count": 0}, "categories": [{"name": "Persian Restaurant", "pluralName": "Persian Restaurants", "id": "52e81612bcbc57f1066b79f7", "icon": {"prefix": "https://ss3.4sqi.net/img/categories_v2/food/middleeastern_", "suffix": ".png"}, "primary": true, "shortName": "Persian"}], "hasPerk": false, "contact": {}, "beenHere": {"lastCheckinExpiredAt": 0}, "verified": false, "stats": {"checkinsCount": 16, "usersCount": 9, "tipCount": 0}, "name": "Padideh Dez Restaurant | رستوران پدیده دز", "id": "56391d7ccd104e94645c3716", "allowMenuUrlEdit": true, "venueChains": [], "location": {"cc": "IR", "address": "Beach Road", "lat": 32.38841040680523, "labeledLatLngs": [{"label": "display", "lng": 48.397432118825485, "lat": 32.38841040680523}], "lng": 48.397432118825485, "country": "ایران", "city": "Dezful", "formattedAddress": ["Beach Road", "Dezful, Khozestan", "ایران"], "state": "Khozestan"}}, {"referralId": "v-1505910037", "specials": {"items": [], "count": 0}, "categories": [{"name": "Road", "pluralName": "Roads", "id": "4bf58dd8d48988d1f9931735", "icon": {"prefix": "https://ss3.4sqi.net/img/categories_v2/travel/highway_", "suffix": ".png"}, "primary": true, "shortName": "Road"}], "hasPerk": false, "contact": {}, "beenHere": {"lastCheckinExpiredAt": 0}, "verified": false, "stats": {"checkinsCount": 1, "usersCount": 1, "tipCount": 0}, "name": "Nezami Street | خیابان نظامی (خیابان نظامی)", "id": "592549285c68381ec32a65b3", "venueChains": [], "venueRatingBlacklisted": true, "location": {"cc": "IR", "lat": 32.385357, "lng": 48.404793, "labeledLatLngs": [{"label": "display", "lng": 48.404793, "lat": 32.385357}], "state": "خوزستان", "country": "ایران", "city": "دزفول", "formattedAddress": ["دزفول, خوزستان", "ایران"]}}, {"referralId": "v-1505910037", "specials": {"items": [], "count": 0}, "categories": [{"name": "Cosmetics Shop", "pluralName": "Cosmetics Shops", "id": "4bf58dd8d48988d10c951735", "icon": {"prefix": "https://ss3.4sqi.net/img/categories_v2/shops/beauty_cosmetic_", "suffix": ".png"}, "primary": true, "shortName": "Cosmetics"}], "hasPerk": false, "contact": {}, "beenHere": {"lastCheckinExpiredAt": 0}, "verified": false, "stats": {"checkinsCount": 5, "usersCount": 1, "tipCount": 0}, "name": "Classic Cosmetics Shop | لوازم آرایشی و بهداشتی کلاسیک (لوازم آرایشی و بهداشتی کلاسیک)", "id": "56094b30498edccb58f3ab57", "allowMenuUrlEdit": true, "venueChains": [], "location": {"cc": "IR", "address": "Shariati Crossroad", "lat": 32.38398431046206, "labeledLatLngs": [{"label": "display", "lng": 48.39958190917969, "lat": 32.38398431046206}], "lng": 48.39958190917969, "country": "ایران", "city": "دزفول", "formattedAddress": ["Shariati Crossroad", "دزفول, خوزستان", "ایران"], "state": "خوزستان"}}, {"referralId": "v-1505910037", "specials": {"items": [], "count": 0}, "categories": [{"name": "Print Shop", "pluralName": "Print Shops", "id": "52f2ab2ebcbc57f1066b8b28", "icon": {"prefix": "https://ss3.4sqi.net/img/categories_v2/shops/default_", "suffix": ".png"}, "primary": true, "shortName": "Print Shop"}], "hasPerk": false, "contact": {}, "beenHere": {"lastCheckinExpiredAt": 0}, "verified": false, "stats": {"checkinsCount": 4, "usersCount": 1, "tipCount": 0}, "name": "Safa Print Shop | خدمات چاپ صفا (خدمات چاپ صفا)", "id": "57c52406498e4b94dc27ca6e", "allowMenuUrlEdit": true, "venueChains": [], "location": {"cc": "IR", "lat": 32.381092, "lng": 48.408867, "labeledLatLngs": [{"label": "display", "lng": 48.408867, "lat": 32.381092}], "state": "خوزستان", "country": "ایران", "city": "دزفول", "formattedAddress": ["دزفول, خوزستان", "ایران"]}}, {"referralId": "v-1505910037", "specials": {"items": [], "count": 0}, "categories": [{"name": "Ice Cream Shop", "pluralName": "Ice Cream Shops", "id": "4bf58dd8d48988d1c9941735", "icon": {"prefix": "https://ss3.4sqi.net/img/categories_v2/food/icecream_", "suffix": ".png"}, "primary": true, "shortName": "Ice Cream"}], "hasPerk": false, "contact": {}, "beenHere": {"lastCheckinExpiredAt": 0}, "verified": false, "stats": {"checkinsCount": 17, "usersCount": 14, "tipCount": 2}, "name": "Esteghlal Ice Cream | بستنی استقلال (بستنی استقلال)", "id": "5179620fe4b0f804e44437be", "allowMenuUrlEdit": true, "venueChains": [], "location": {"cc": "IR", "lat": 32.384307861328125, "lng": 48.399269104003906, "labeledLatLngs": [{"label": "display", "lng": 48.399269104003906, "lat": 32.384307861328125}], "state": "Khouzestan", "country": "ایران", "city": "Dezful", "formattedAddress": ["Dezful, Khouzestan", "ایران"]}}, {"referralId": "v-1505910037", "specials": {"items": [], "count": 0}, "categories": [{"name": "Medical Center", "pluralName": "Medical Centers", "id": "4bf58dd8d48988d104941735", "icon": {"prefix": "https://ss3.4sqi.net/img/categories_v2/building/medical_", "suffix": ".png"}, "primary": true, "shortName": "Medical"}], "hasPerk": false, "contact": {}, "beenHere": {"lastCheckinExpiredAt": 0}, "verified": false, "stats": {"checkinsCount": 11, "usersCount": 3, "tipCount": 0}, "name": "Afshar Boarding Clinic | درمانگاه شبانه روزی تخصصی و فوق تخصصی افشار (درمانگاه شبانه روزی تخصصی و فوق تخصصی مرحوم احمد افشار- دانشگاه)", "id": "55e30d0c498ed112bb04a37f", "allowMenuUrlEdit": true, "venueChains": [], "venueRatingBlacklisted": true, "location": {"cc": "IR", "address": "Beheshti Sq.", "lat": 32.38735466523137, "labeledLatLngs": [{"label": "display", "lng": 48.41245651245117, "lat": 32.38735466523137}], "lng": 48.41245651245117, "country": "ایران", "city": "دزفول", "formattedAddress": ["Beheshti Sq.", "دزفول, خوزستان", "ایران"], "state": "خوزستان"}}, {"referralId": "v-1505910037", "specials": {"items": [], "count": 0}, "categories": [{"name": "Shopping Mall", "pluralName": "Shopping Malls", "id": "4bf58dd8d48988d1fd941735", "icon": {"prefix": "https://ss3.4sqi.net/img/categories_v2/shops/mall_", "suffix": ".png"}, "primary": true, "shortName": "Mall"}], "hasPerk": false, "contact": {}, "beenHere": {"lastCheckinExpiredAt": 0}, "verified": false, "stats": {"checkinsCount": 15, "usersCount": 11, "tipCount": 1}, "name": "Valieasr Complex | مجتمع تجاری ولیعصر (مجتمع تجاری ولی‌عصر)", "id": "51345823e4b02d07ee0a1025", "allowMenuUrlEdit": true, "venueChains": [], "location": {"cc": "IR", "lat": 32.382762035982765, "lng": 48.401813554530904, "labeledLatLngs": [{"label": "display", "lng": 48.401813554530904, "lat": 32.382762035982765}], "state": "Khouzestan", "country": "ایران", "city": "Dezful", "formattedAddress": ["Dezful, Khouzestan", "ایران"]}}, {"referralId": "v-1505910037", "specials": {"items": [], "count": 0}, "categories": [{"name": "Road", "pluralName": "Roads", "id": "4bf58dd8d48988d1f9931735", "icon": {"prefix": "https://ss3.4sqi.net/img/categories_v2/travel/highway_", "suffix": ".png"}, "primary": true, "shortName": "Road"}], "hasPerk": false, "contact": {}, "beenHere": {"lastCheckinExpiredAt": 0}, "verified": false, "stats": {"checkinsCount": 24, "usersCount": 3, "tipCount": 0}, "name": "Moddares Street | خیابان مدرس (خیابان مدرس)", "id": "55a1f06f498eb8d1d82d3223", "venueChains": [], "venueRatingBlacklisted": true, "location": {"cc": "IR", "lat": 32.38271586480991, "lng": 48.41031074523926, "labeledLatLngs": [{"label": "display", "lng": 48.41031074523926, "lat": 32.38271586480991}], "state": "خوزستان", "country": "ایران", "city": "دزفول", "formattedAddress": ["دزفول, خوزستان", "ایران"]}}, {"referralId": "v-1505910037", "specials": {"items": [], "count": 0}, "categories": [{"name": "Taxi Stand", "pluralName": "Taxi Stands", "id": "53fca564498e1a175f32528b", "icon": {"prefix": "https://ss3.4sqi.net/img/categories_v2/travel/taxi_", "suffix": ".png"}, "primary": true, "shortName": "Taxi Stand"}], "hasPerk": false, "contact": {}, "beenHere": {"lastCheckinExpiredAt": 0}, "verified": false, "stats": {"checkinsCount": 19, "usersCount": 8, "tipCount": 1}, "name": "Sabz-e- Qaba Taxi Stand | ایستگاه تاکسی سبزقبا (ایستگاه تاکسی سبزقبا)", "id": "55d2dce8498e12fc8509aaae", "venueChains": [], "location": {"state": "خوزستان", "lng": 48.40044021606445, "address": "North Emam Khomeini St.", "lat": 32.38507153541732, "labeledLatLngs": [{"label": "display", "lng": 48.40044021606445, "lat": 32.38507153541732}], "cc": "IR", "country": "ایران", "city": "دزفول", "formattedAddress": ["North Emam Khomeini St. (روبه روی سبزقبا، کوچه مسجد فولادیون)", "دزفول, خوزستان", "ایران"], "crossStreet": "روبه روی سبزقبا، کوچه مسجد فولادیون"}}, {"referralId": "v-1505910037", "specials": {"items": [], "count": 0}, "categories": [{"name": "Fruit & Vegetable Store", "pluralName": "Fruit & Vegetable Stores", "id": "52f2ab2ebcbc57f1066b8b1c", "icon": {"prefix": "https://ss3.4sqi.net/img/categories_v2/shops/food_grocery_", "suffix": ".png"}, "primary": true, "shortName": "Fruit & Vegetable Store"}], "hasPerk": false, "contact": {}, "beenHere": {"lastCheckinExpiredAt": 0}, "verified": false, "stats": {"checkinsCount": 1, "usersCount": 1, "tipCount": 0}, "name": "سوپر میوه سیب سرخ | Sib-e Sorkh Fruit & Vegetables Store (سوپر میوه سیب سرخ)", "id": "593900d98b98fd69e19b40dd", "allowMenuUrlEdit": true, "venueChains": [], "location": {"cc": "IR", "lat": 32.388268, "lng": 48.411507, "labeledLatLngs": [{"label": "display", "lng": 48.411507, "lat": 32.388268}], "state": "خوزستان", "country": "ایران", "city": "دزفول", "formattedAddress": ["دزفول, خوزستان", "ایران"]}}, {"referralId": "v-1505910037", "specials": {"items": [], "count": 0}, "categories": [{"name": "Supermarket", "pluralName": "Supermarkets", "id": "52f2ab2ebcbc57f1066b8b46", "icon": {"prefix": "https://ss3.4sqi.net/img/categories_v2/shops/food_grocery_", "suffix": ".png"}, "primary": true, "shortName": "Supermarket"}], "hasPerk": false, "contact": {}, "beenHere": {"lastCheckinExpiredAt": 0}, "verified": false, "stats": {"checkinsCount": 6, "usersCount": 2, "tipCount": 1}, "name": "Iran Supermarket | سوپرمارکت ایران (سوپرمارکت ایران)", "id": "56438497498e64ba99213aa3", "allowMenuUrlEdit": true, "venueChains": [], "location": {"cc": "IR", "address": "Shariati Blvd.", "lat": 32.38095813211082, "labeledLatLngs": [{"label": "display", "lng": 48.404645919799805, "lat": 32.38095813211082}], "lng": 48.404645919799805, "country": "ایران", "city": "دزفول", "formattedAddress": ["Shariati Blvd.", "دزفول, خوزستان", "ایران"], "state": "خوزستان"}}, {"referralId": "v-1505910037", "specials": {"items": [], "count": 0}, "categories": [{"name": "Optical Shop", "pluralName": "Optical Shops", "id": "4d954afda243a5684865b473", "icon": {"prefix": "https://ss3.4sqi.net/img/categories_v2/building/medical_opticalshop_", "suffix": ".png"}, "primary": true, "shortName": "Optical"}], "hasPerk": false, "contact": {}, "beenHere": {"lastCheckinExpiredAt": 0}, "verified": false, "stats": {"checkinsCount": 6, "usersCount": 2, "tipCount": 0}, "name": "Cheshman Optical Shop | عینک چشمان (عینک چشمان)", "id": "56438391498ea4402f4ab83a", "allowMenuUrlEdit": true, "venueChains": [], "venueRatingBlacklisted": true, "location": {"cc": "IR", "address": "Shariati Blvd.", "lat": 32.38137491718399, "labeledLatLngs": [{"label": "display", "lng": 48.404388427734375, "lat": 32.38137491718399}], "lng": 48.404388427734375, "country": "ایران", "city": "دزفول", "formattedAddress": ["Shariati Blvd.", "دزفول, خوزستان", "ایران"], "state": "خوزستان"}}, {"referralId": "v-1505910038", "specials": {"items": [], "count": 0}, "categories": [{"name": "Plaza", "pluralName": "Plazas", "id": "4bf58dd8d48988d164941735", "icon": {"prefix": "https://ss3.4sqi.net/img/categories_v2/parks_outdoors/plaza_", "suffix": ".png"}, "primary": true, "shortName": "Plaza"}], "hasPerk": false, "contact": {}, "beenHere": {"lastCheckinExpiredAt": 0}, "verified": false, "stats": {"checkinsCount": 8, "usersCount": 6, "tipCount": 0}, "name": "Farhang Shahr Square | میدان فرهنگ‌شهر (میدان فرهنگ‌شهر)", "id": "571699c9498eb04561423c3b", "venueChains": [], "location": {"cc": "IR", "address": "Farhang Shahr Sq.", "lat": 32.38034348323779, "labeledLatLngs": [{"label": "display", "lng": 48.427826690513704, "lat": 32.38034348323779}], "lng": 48.427826690513704, "country": "ایران", "city": "دزفول", "formattedAddress": ["Farhang Shahr Sq.", "دزفول, خوزستان", "ایران"], "state": "خوزستان"}}, {"referralId": "v-1505910038", "specials": {"items": [], "count": 0}, "categories": [{"name": "Park", "pluralName": "Parks", "id": "4bf58dd8d48988d163941735", "icon": {"prefix": "https://ss3.4sqi.net/img/categories_v2/parks_outdoors/park_", "suffix": ".png"}, "primary": true, "shortName": "Park"}], "hasPerk": false, "contact": {}, "beenHere": {"lastCheckinExpiredAt": 0}, "verified": false, "stats": {"checkinsCount": 6, "usersCount": 5, "tipCount": 1}, "name": "Resalat Park | پارک رسالت (پارک رسالت)", "id": "57169f53498e4cbfa5f5b8e8", "venueChains": [], "location": {"cc": "IR", "address": "Hazrat-e Roghaye Sq.", "lat": 32.38465235676674, "labeledLatLngs": [{"label": "display", "lng": 48.42498395150333, "lat": 32.38465235676674}], "lng": 48.42498395150333, "country": "ایران", "city": "دزفول", "formattedAddress": ["Hazrat-e Roghaye Sq.", "دزفول, خوزستان", "ایران"], "state": "خوزستان"}}, {"referralId": "v-1505910038", "specials": {"items": [], "count": 0}, "categories": [{"name": "Café", "pluralName": "Cafés", "id": "4bf58dd8d48988d16d941735", "icon": {"prefix": "https://ss3.4sqi.net/img/categories_v2/food/cafe_", "suffix": ".png"}, "primary": true, "shortName": "Café"}], "hasPerk": false, "contact": {}, "beenHere": {"lastCheckinExpiredAt": 0}, "verified": false, "stats": {"checkinsCount": 8, "usersCount": 7, "tipCount": 1}, "name": "Soal Café | کافه سوال (کافه سوال)", "id": "54f089ab498e0b5daf79a7d9", "allowMenuUrlEdit": true, "venueChains": [], "location": {"state": "Ostān-e Khūzestān", "lng": 48.40898878159351, "address": "Shariati Ave.", "lat": 32.379611649198495, "labeledLatLngs": [{"label": "display", "lng": 48.40898878159351, "lat": 32.379611649198495}], "cc": "IR", "country": "ایران", "city": "Dezfūl", "formattedAddress": ["Shariati Ave. (btw Hafez St. and Boali St.)", "Dezfūl, Ostān-e Khūzestān", "ایران"], "crossStreet": "btw Hafez St. and Boali St."}}, {"referralId": "v-1505910040", "specials": {"items": [], "count": 0}, "categories": [{"name": "Market", "pluralName": "Markets", "id": "50be8ee891d4fa8dcc7199a7", "icon": {"prefix": "https://ss3.4sqi.net/img/categories_v2/shops/market_", "suffix": ".png"}, "primary": true, "shortName": "Market"}], "hasPerk": false, "contact": {}, "beenHere": {"lastCheckinExpiredAt": 0}, "verified": false, "stats": {"checkinsCount": 1, "usersCount": 1, "tipCount": 0}, "name": "ETKA Chain Store | فروشگاه زنجیره‌ای اتکا (فروشگاه زنجیره‌ای اتکا)", "id": "58f767ffaa6c9572acbbdcc6", "allowMenuUrlEdit": true, "venueChains": [], "location": {"cc": "IR", "lat": 32.417188, "lng": 48.376229, "labeledLatLngs": [{"label": "display", "lng": 48.376229, "lat": 32.417188}], "state": "Khūzestān", "country": "ایران", "city": "Dezful", "formattedAddress": ["Dezful, Khūzestān", "ایران"]}}, {"referralId": "v-1505910040", "specials": {"items": [], "count": 0}, "categories": [{"name": "Neighborhood", "pluralName": "Neighborhoods", "id": "4f2a25ac4b909258e854f55f", "icon": {"prefix": "https://ss3.4sqi.net/img/categories_v2/parks_outdoors/neighborhood_", "suffix": ".png"}, "primary": true, "shortName": "Neighborhood"}], "hasPerk": false, "contact": {}, "beenHere": {"lastCheckinExpiredAt": 0}, "verified": false, "stats": {"checkinsCount": 10, "usersCount": 10, "tipCount": 0}, "name": "3rd. Sha'ban | کوی سوم شعبان (کوی سوم شعبان)", "id": "5314d6e3e4b0e72a36d11f0a", "venueChains": [], "venueRatingBlacklisted": true, "location": {"cc": "IR", "lat": 32.4207, "lng": 48.3537, "labeledLatLngs": [{"label": "display", "lng": 48.3537, "lat": 32.4207}], "state": "Ostān-e Khūzestān", "country": "ایران", "city": "Dezfūl", "formattedAddress": ["Dezfūl, Ostān-e Khūzestān", "ایران"]}}, {"referralId": "v-1505910040", "specials": {"items": [], "count": 0}, "categories": [{"name": "College Cafeteria", "pluralName": "College Cafeterias", "id": "4bf58dd8d48988d1a1941735", "icon": {"prefix": "https://ss3.4sqi.net/img/categories_v2/education/cafeteria_", "suffix": ".png"}, "primary": true, "shortName": "Cafeteria"}], "hasPerk": false, "contact": {}, "beenHere": {"lastCheckinExpiredAt": 0}, "verified": false, "stats": {"checkinsCount": 21, "usersCount": 9, "tipCount": 0}, "name": "Central Cafeteria | سلف سرویس مرکزی", "id": "51764830e4b0dfa37f33cafb", "venueChains": [], "venueRatingBlacklisted": true, "location": {"cc": "IR", "address": "Azad University of Dezful", "lat": 32.402439623015745, "labeledLatLngs": [{"label": "display", "lng": 48.376358353222095, "lat": 32.402439623015745}], "lng": 48.376358353222095, "country": "ایران", "city": "Dezful", "formattedAddress": ["Azad University of Dezful", "Dezful, Khouzestan", "ایران"], "state": "Khouzestan"}}, {"referralId": "v-1505910040", "specials": {"items": [], "count": 0}, "categories": [{"name": "Falafel Restaurant", "pluralName": "Falafel Restaurants", "id": "4bf58dd8d48988d10b941735", "icon": {"prefix": "https://ss3.4sqi.net/img/categories_v2/food/falafel_", "suffix": ".png"}, "primary": true, "shortName": "Falafel"}], "hasPerk": false, "contact": {}, "beenHere": {"lastCheckinExpiredAt": 0}, "verified": false, "stats": {"checkinsCount": 2, "usersCount": 2, "tipCount": 0}, "name": "فلافل و سمبوسه آبادان", "id": "55980a70498eba0a85a5a092", "allowMenuUrlEdit": true, "venueChains": [], "location": {"cc": "IR", "address": "مهرشهر", "lat": 32.41004180908203, "labeledLatLngs": [{"label": "display", "lng": 48.35727310180664, "lat": 32.41004180908203}], "lng": 48.35727310180664, "country": "ایران", "formattedAddress": ["مهرشهر", "ایران"]}}, {"referralId": "v-1505910040", "specials": {"items": [], "count": 0}, "categories": [{"name": "Hotel", "pluralName": "Hotels", "id": "4bf58dd8d48988d1fa931735", "icon": {"prefix": "https://ss3.4sqi.net/img/categories_v2/travel/hotel_", "suffix": ".png"}, "primary": true, "shortName": "Hotel"}], "hasPerk": false, "contact": {}, "beenHere": {"lastCheckinExpiredAt": 0}, "verified": false, "stats": {"checkinsCount": 11, "usersCount": 3, "tipCount": 0}, "name": "Hotel.H", "id": "58d024e4a37d7243a56816b1", "allowMenuUrlEdit": true, "venueChains": [], "location": {"cc": "IR", "address": "دزفول پایگاه چهارم شکاری", "lat": 32.420326, "labeledLatLngs": [{"label": "display", "lng": 48.374546, "lat": 32.420326}], "lng": 48.374546, "country": "ایران", "city": "دزفول", "formattedAddress": ["دزفول پایگاه چهارم شکاری", "دزفول, خوزستان", "ایران"], "state": "خوزستان"}}, {"referralId": "v-1505910040", "specials": {"items": [], "count": 0}, "categories": [{"name": "Park", "pluralName": "Parks", "id": "4bf58dd8d48988d163941735", "icon": {"prefix": "https://ss3.4sqi.net/img/categories_v2/parks_outdoors/park_", "suffix": ".png"}, "primary": true, "shortName": "Park"}], "hasPerk": false, "contact": {}, "beenHere": {"lastCheckinExpiredAt": 0}, "verified": false, "stats": {"checkinsCount": 4, "usersCount": 3, "tipCount": 0}, "name": "Daneshjoo Park (پارک دانشجو)", "id": "51810166498e9d36fe230c08", "venueChains": [], "location": {"cc": "IR", "address": "Azadegan", "lat": 32.403254, "labeledLatLngs": [{"label": "display", "lng": 48.373082, "lat": 32.403254}], "lng": 48.373082, "country": "ایران", "city": "Dezful", "formattedAddress": ["Azadegan", "Dezful, Khouzestan", "ایران"], "state": "Khouzestan"}}, {"referralId": "v-1505910040", "specials": {"items": [], "count": 0}, "categories": [{"name": "Persian Restaurant", "pluralName": "Persian Restaurants", "id": "52e81612bcbc57f1066b79f7", "icon": {"prefix": "https://ss3.4sqi.net/img/categories_v2/food/middleeastern_", "suffix": ".png"}, "primary": true, "shortName": "Persian"}], "hasPerk": false, "contact": {}, "beenHere": {"lastCheckinExpiredAt": 0}, "verified": false, "stats": {"checkinsCount": 2, "usersCount": 2, "tipCount": 0}, "name": "3rd. Sha'ban  Hall (تالار سوم شعبان)", "id": "5900cc59f1fdaf3fddf4c3ce", "allowMenuUrlEdit": true, "venueChains": [], "location": {"cc": "IR", "lat": 32.421196, "lng": 48.369001, "labeledLatLngs": [{"label": "display", "lng": 48.369001, "lat": 32.421196}], "state": "Khūzestān", "country": "ایران", "city": "Dezful", "formattedAddress": ["Dezful, Khūzestān", "ایران"]}}, {"referralId": "v-1505910040", "specials": {"items": [], "count": 0}, "categories": [{"name": "University", "pluralName": "Universities", "id": "4bf58dd8d48988d1ae941735", "icon": {"prefix": "https://ss3.4sqi.net/img/categories_v2/education/default_", "suffix": ".png"}, "primary": true, "shortName": "University"}], "hasPerk": false, "contact": {}, "beenHere": {"lastCheckinExpiredAt": 0}, "verified": false, "url": "http://www.iaud.ac.ir", "stats": {"checkinsCount": 54, "usersCount": 26, "tipCount": 0}, "name": "Islamic Azad University of Dezful | دانشگاه آزاد اسلامی واحد دزفول (دانشگاه آزاد اسلامی، واحد دزفول)", "id": "516d4233e4b0f8311c07440d", "venueChains": [], "venueRatingBlacklisted": true, "location": {"cc": "IR", "lat": 32.40329872471835, "lng": 48.37812423706054, "labeledLatLngs": [{"label": "display", "lng": 48.37812423706054, "lat": 32.40329872471835}], "state": "Khouzestan", "country": "ایران", "city": "Dezful", "formattedAddress": ["Dezful, Khouzestan", "ایران"], "neighborhood": "Koye Azadegan"}}, {"referralId": "v-1505910040", "specials": {"items": [], "count": 0}, "categories": [{"name": "Gas Station", "pluralName": "Gas Stations", "id": "4bf58dd8d48988d113951735", "icon": {"prefix": "https://ss3.4sqi.net/img/categories_v2/shops/gas_", "suffix": ".png"}, "primary": true, "shortName": "Gas Station"}], "hasPerk": false, "contact": {}, "beenHere": {"lastCheckinExpiredAt": 0}, "verified": false, "stats": {"checkinsCount": 11, "usersCount": 9, "tipCount": 0}, "name": "Gas Station | جايگاه سوخت اختصاصی پايگاه شكاری (جایگاه سوخت پایگاه چهارم شکاری)", "id": "56f59fc6cd10a16d09792fa1", "allowMenuUrlEdit": true, "venueChains": [], "location": {"cc": "IR", "address": "Andimesh - Dezful Hwy.", "lat": 32.414607, "labeledLatLngs": [{"label": "display", "lng": 48.377279, "lat": 32.414607}], "lng": 48.377279, "country": "ایران", "formattedAddress": ["Andimesh - Dezful Hwy.", "ایران"]}}, {"referralId": "v-1505910040", "specials": {"items": [], "count": 0}, "categories": [{"name": "Military Base", "pluralName": "Military Bases", "id": "4e52adeebd41615f56317744", "icon": {"prefix": "https://ss3.4sqi.net/img/categories_v2/building/militarybase_", "suffix": ".png"}, "primary": true, "shortName": "Military Base"}], "hasPerk": false, "contact": {}, "beenHere": {"lastCheckinExpiredAt": 0}, "verified": false, "stats": {"checkinsCount": 28, "usersCount": 21, "tipCount": 0}, "name": "4th Air Force Base (پایگاه چهارم شکاری دزفول)", "id": "54af4bff498e150edc670bfb", "venueChains": [], "venueRatingBlacklisted": true, "location": {"cc": "IR", "lat": 32.41201845681122, "lng": 48.37849216042402, "labeledLatLngs": [{"label": "display", "lng": 48.37849216042402, "lat": 32.41201845681122}], "state": "Ostān-e Khūzestān", "country": "ایران", "city": "Dezfūl", "formattedAddress": ["Dezfūl, Ostān-e Khūzestān", "ایران"]}}, {"referralId": "v-1505910040", "specials": {"items": [], "count": 0}, "categories": [{"name": "Neighborhood", "pluralName": "Neighborhoods", "id": "4f2a25ac4b909258e854f55f", "icon": {"prefix": "https://ss3.4sqi.net/img/categories_v2/parks_outdoors/neighborhood_", "suffix": ".png"}, "primary": true, "shortName": "Neighborhood"}], "hasPerk": false, "contact": {}, "beenHere": {"lastCheckinExpiredAt": 0}, "verified": false, "stats": {"checkinsCount": 3, "usersCount": 3, "tipCount": 0}, "name": "Mehrshahr Town (مهرشهر)", "id": "579e3a91cd106b2f7cfc24c2", "venueChains": [], "venueRatingBlacklisted": true, "location": {"cc": "IR", "lat": 32.41233, "lng": 48.352623, "labeledLatLngs": [{"label": "display", "lng": 48.352623, "lat": 32.41233}], "state": "خوزستان", "country": "ایران", "city": "دزفول", "formattedAddress": ["دزفول, خوزستان", "ایران"]}}, {"referralId": "v-1505910041", "specials": {"items": [], "count": 0}, "categories": [{"name": "Cemetery", "pluralName": "Cemeteries", "id": "4bf58dd8d48988d15c941735", "icon": {"prefix": "https://ss3.4sqi.net/img/categories_v2/parks_outdoors/cemetery_", "suffix": ".png"}, "primary": true, "shortName": "Cemetery"}], "hasPerk": false, "contact": {}, "beenHere": {"lastCheckinExpiredAt": 0}, "verified": false, "stats": {"checkinsCount": 20, "usersCount": 5, "tipCount": 0}, "name": "Shahid Abad | شهيد آباد (گورستان شهید آباد)", "id": "5314d752e4b0e72a36d166cf", "venueChains": [], "venueRatingBlacklisted": true, "location": {"cc": "IR", "lat": 32.4048929758226, "lng": 48.41357231140137, "labeledLatLngs": [{"label": "display", "lng": 48.41357231140137, "lat": 32.4048929758226}], "state": "Ostān-e Khūzestān", "country": "ایران", "city": "Dezfūl", "formattedAddress": ["Dezfūl, Ostān-e Khūzestān", "ایران"]}}, {"referralId": "v-1505910042", "specials": {"items": [], "count": 0}, "categories": [{"name": "Neighborhood", "pluralName": "Neighborhoods", "id": "4f2a25ac4b909258e854f55f", "icon": {"prefix": "https://ss3.4sqi.net/img/categories_v2/parks_outdoors/neighborhood_", "suffix": ".png"}, "primary": true, "shortName": "Neighborhood"}], "hasPerk": false, "contact": {}, "beenHere": {"lastCheckinExpiredAt": 0}, "verified": false, "stats": {"checkinsCount": 50, "usersCount": 22, "tipCount": 0}, "name": "Kuy-e Niro | کوی نیرو (کوی نیرو)", "id": "53302a22498e69d80dd1263f", "venueChains": [], "venueRatingBlacklisted": true, "location": {"cc": "IR", "lat": 32.43682382671099, "lng": 48.35072018945911, "labeledLatLngs": [{"label": "display", "lng": 48.35072018945911, "lat": 32.43682382671099}], "state": "Ostān-e Khūzestān", "country": "ایران", "city": "Andimeshk", "formattedAddress": ["Andimeshk, Ostān-e Khūzestān", "ایران"]}}, {"referralId": "v-1505910043", "specials": {"items": [], "count": 0}, "categories": [{"name": "Sandwich Place", "pluralName": "Sandwich Places", "id": "4bf58dd8d48988d1c5941735", "icon": {"prefix": "https://ss3.4sqi.net/img/categories_v2/food/deli_", "suffix": ".png"}, "primary": true, "shortName": "Sandwiches"}], "hasPerk": false, "contact": {}, "beenHere": {"lastCheckinExpiredAt": 0}, "verified": false, "stats": {"checkinsCount": 13, "usersCount": 12, "tipCount": 0}, "name": "Amoo Karim Sandwich | ساندویچی عمو کریم (ساندویچی عموکریم)", "id": "523ddf1611d2e08b0dd7cfbc", "allowMenuUrlEdit": true, "venueChains": [], "location": {"cc": "IR", "address": "Kuy-e Niroo", "lat": 32.437581104653795, "labeledLatLngs": [{"label": "display", "lng": 48.36321145122729, "lat": 32.437581104653795}], "lng": 48.36321145122729, "country": "ایران", "city": "Andimeshk", "formattedAddress": ["Kuy-e Niroo", "Andimeshk, Khouzestan", "ایران"], "state": "Khouzestan"}}, {"referralId": "v-1505910043", "specials": {"items": [], "count": 0}, "categories": [{"name": "Gas Station", "pluralName": "Gas Stations", "id": "4bf58dd8d48988d113951735", "icon": {"prefix": "https://ss3.4sqi.net/img/categories_v2/shops/gas_", "suffix": ".png"}, "primary": true, "shortName": "Gas Station"}], "hasPerk": false, "contact": {}, "beenHere": {"lastCheckinExpiredAt": 0}, "verified": false, "stats": {"checkinsCount": 5, "usersCount": 5, "tipCount": 0}, "name": "جایگاه سوخت اندیمشک", "id": "56f517bd498eefdb5fbc9279", "allowMenuUrlEdit": true, "venueChains": [], "location": {"cc": "IR", "lat": 32.439117, "lng": 48.351197, "labeledLatLngs": [{"label": "display", "lng": 48.351197, "lat": 32.439117}], "state": "خوزستان", "country": "ایران", "city": "اندیمشک", "formattedAddress": ["اندیمشک, خوزستان", "ایران"]}}, {"referralId": "v-1505910043", "specials": {"items": [], "count": 0}, "categories": [{"name": "Laboratory", "pluralName": "Laboratories", "id": "5744ccdfe4b0c0459246b4d6", "icon": {"prefix": "https://ss3.4sqi.net/img/categories_v2/education/lab_", "suffix": ".png"}, "primary": true, "shortName": "Laboratory"}], "hasPerk": false, "contact": {}, "beenHere": {"lastCheckinExpiredAt": 0}, "verified": false, "stats": {"checkinsCount": 1, "usersCount": 1, "tipCount": 0}, "name": "Salamat Pathobiology Laboratory | آزمایشگاه تشخیص طبی و پاتوبیولوژی سلامت (آزمایشگاه تشخیص طبی و پاتوبیولوژی سلامت)", "id": "58ae8779d8e5592c9cb497f0", "venueChains": [], "venueRatingBlacklisted": true, "location": {"cc": "IR", "lat": 32.45563, "lng": 48.355414, "labeledLatLngs": [{"label": "display", "lng": 48.355414, "lat": 32.45563}], "state": "خوزستان", "country": "ایران", "city": "اندیمشک", "formattedAddress": ["اندیمشک, خوزستان", "ایران"]}}, {"referralId": "v-1505910043", "specials": {"items": [], "count": 0}, "categories": [{"name": "College Library", "pluralName": "College Libraries", "id": "4bf58dd8d48988d1a7941735", "icon": {"prefix": "https://ss3.4sqi.net/img/categories_v2/building/library_", "suffix": ".png"}, "primary": true, "shortName": "Library"}], "hasPerk": false, "contact": {}, "beenHere": {"lastCheckinExpiredAt": 0}, "verified": false, "stats": {"checkinsCount": 19, "usersCount": 1, "tipCount": 0}, "name": "سالن مطالعه خوابگاه پردیس", "id": "56083fef498eeba812875cf7", "venueChains": [], "venueRatingBlacklisted": true, "location": {"cc": "IR", "lat": 32.43311846559672, "lng": 48.35214692241894, "labeledLatLngs": [{"label": "display", "lng": 48.35214692241894, "lat": 32.43311846559672}], "country": "ایران", "formattedAddress": ["ایران"]}}, {"referralId": "v-1505910043", "specials": {"items": [], "count": 0}, "categories": [{"name": "Road", "pluralName": "Roads", "id": "4bf58dd8d48988d1f9931735", "icon": {"prefix": "https://ss3.4sqi.net/img/categories_v2/travel/highway_", "suffix": ".png"}, "primary": true, "shortName": "Road"}], "hasPerk": false, "contact": {}, "beenHere": {"lastCheckinExpiredAt": 0}, "verified": false, "stats": {"checkinsCount": 1, "usersCount": 1, "tipCount": 0}, "name": "خيابان انقلاب", "id": "56afb1d1498e0bf62221c961", "venueChains": [], "venueRatingBlacklisted": true, "location": {"cc": "IR", "address": "انديمشك خيابان انقلاب", "lat": 32.45018769853216, "labeledLatLngs": [{"label": "display", "lng": 48.356777973919584, "lat": 32.45018769853216}], "lng": 48.356777973919584, "country": "ایران", "city": "انديمشك", "formattedAddress": ["انديمشك خيابان انقلاب", "انديمشك", "ایران"]}}, {"referralId": "v-1505910043", "specials": {"items": [], "count": 0}, "categories": [{"name": "Wedding Hall", "pluralName": "Wedding Halls", "id": "56aa371be4b08b9a8d5734c5", "icon": {"prefix": "https://ss3.4sqi.net/img/categories_v2/shops/bridal_", "suffix": ".png"}, "primary": true, "shortName": "Wedding Hall"}], "hasPerk": false, "contact": {}, "beenHere": {"lastCheckinExpiredAt": 0}, "verified": false, "stats": {"checkinsCount": 1, "usersCount": 1, "tipCount": 0}, "name": "Golha Wedding Hall | تالار گل‌ها", "id": "57d82e4b498e182464db2fb0", "venueChains": [], "venueRatingBlacklisted": true, "location": {"cc": "IR", "address": "Dezful - Andimeshk Road", "lat": 32.448302, "labeledLatLngs": [{"label": "display", "lng": 48.357302, "lat": 32.448302}], "lng": 48.357302, "country": "ایران", "city": "دزفول", "formattedAddress": ["Dezful - Andimeshk Road", "دزفول, خوزستان", "ایران"], "state": "خوزستان"}}, {"referralId": "v-1505910043", "specials": {"items": [], "count": 0}, "categories": [{"name": "Medical Center", "pluralName": "Medical Centers", "id": "4bf58dd8d48988d104941735", "icon": {"prefix": "https://ss3.4sqi.net/img/categories_v2/building/medical_", "suffix": ".png"}, "primary": true, "shortName": "Medical"}], "hasPerk": false, "contact": {}, "beenHere": {"lastCheckinExpiredAt": 0}, "verified": false, "stats": {"checkinsCount": 4, "usersCount": 2, "tipCount": 0}, "name": "كلينيك پاستور", "id": "57dfd652498e3037b89a5698", "allowMenuUrlEdit": true, "venueChains": [], "venueRatingBlacklisted": true, "location": {"cc": "IR", "lat": 32.454262, "lng": 48.357594, "labeledLatLngs": [{"label": "display", "lng": 48.357594, "lat": 32.454262}], "country": "ایران", "formattedAddress": ["ایران"]}}, {"referralId": "v-1505910043", "specials": {"items": [], "count": 0}, "categories": [{"name": "Hookah Bar", "pluralName": "Hookah Bars", "id": "4bf58dd8d48988d119941735", "icon": {"prefix": "https://ss3.4sqi.net/img/categories_v2/nightlife/hookahbar_", "suffix": ".png"}, "primary": true, "shortName": "Hookah Bar"}], "hasPerk": false, "contact": {}, "beenHere": {"lastCheckinExpiredAt": 0}, "verified": false, "stats": {"checkinsCount": 2, "usersCount": 2, "tipCount": 0}, "name": "Golha Hookah Bar | قهوه خانه گلها", "id": "545a5cec498ec18f7e311147", "allowMenuUrlEdit": true, "venueChains": [], "location": {"cc": "IR", "address": "Enghelab Blvd", "lat": 32.442219385899, "labeledLatLngs": [{"label": "display", "lng": 48.3534049987793, "lat": 32.442219385899}], "lng": 48.3534049987793, "country": "ایران", "city": "اندیمشک", "formattedAddress": ["Enghelab Blvd", "اندیمشک, خوزستان", "ایران"], "state": "خوزستان"}}, {"referralId": "v-1505910043", "specials": {"items": [], "count": 0}, "categories": [{"name": "Post Office", "pluralName": "Post Offices", "id": "4bf58dd8d48988d172941735", "icon": {"prefix": "https://ss3.4sqi.net/img/categories_v2/building/postoffice_", "suffix": ".png"}, "primary": true, "shortName": "Post Office"}], "hasPerk": false, "contact": {}, "beenHere": {"lastCheckinExpiredAt": 0}, "verified": false, "stats": {"checkinsCount": 1, "usersCount": 1, "tipCount": 0}, "name": "اداره پست", "id": "577f68db498e601a6124d14a", "venueChains": [], "venueRatingBlacklisted": true, "location": {"state": "خوزستان", "lng": 48.35326, "address": "Andimeshk", "lat": 32.45583, "labeledLatLngs": [{"label": "display", "lng": 48.35326, "lat": 32.45583}], "cc": "IR", "country": "ایران", "city": "اندیمشک", "formattedAddress": ["Andimeshk (Emam St)", "اندیمشک, خوزستان", "ایران"], "crossStreet": "Emam St"}}, {"referralId": "v-1505910043", "specials": {"items": [], "count": 0}, "categories": [{"name": "Hookah Bar", "pluralName": "Hookah Bars", "id": "4bf58dd8d48988d119941735", "icon": {"prefix": "https://ss3.4sqi.net/img/categories_v2/nightlife/hookahbar_", "suffix": ".png"}, "primary": true, "shortName": "Hookah Bar"}], "hasPerk": false, "contact": {}, "beenHere": {"lastCheckinExpiredAt": 0}, "verified": false, "stats": {"checkinsCount": 5, "usersCount": 1, "tipCount": 0}, "name": "Sajad Hookah Bar | کافه سجاد", "id": "56aa3175498e6500be4858e7", "allowMenuUrlEdit": true, "venueChains": [], "location": {"cc": "IR", "address": "شهرك صنعتي جنب جرثقيل محمود", "lat": 32.442648556320655, "labeledLatLngs": [{"label": "display", "lng": 48.35599880010621, "lat": 32.442648556320655}], "lng": 48.35599880010621, "country": "ایران", "city": "اندیمشک", "formattedAddress": ["شهرك صنعتي جنب جرثقيل محمود", "اندیمشک, خوزستان", "ایران"], "state": "خوزستان"}}, {"referralId": "v-1505910043", "specials": {"items": [], "count": 0}, "categories": [{"name": "Hospital", "pluralName": "Hospitals", "id": "4bf58dd8d48988d196941735", "icon": {"prefix": "https://ss3.4sqi.net/img/categories_v2/building/medical_", "suffix": ".png"}, "primary": true, "shortName": "Hospital"}], "hasPerk": false, "contact": {}, "beenHere": {"lastCheckinExpiredAt": 0}, "verified": false, "stats": {"checkinsCount": 4, "usersCount": 3, "tipCount": 0}, "name": "بیمارستان امام علی | Emam ali Hospital", "id": "545e5e9e498e1a3a45fd8c4a", "venueChains": [], "venueRatingBlacklisted": true, "location": {"state": "خوزستان", "lng": 48.36886632716718, "address": "کشتارگاه اندیمشک", "lat": 32.45766181880844, "labeledLatLngs": [{"label": "display", "lng": 48.36886632716718, "lat": 32.45766181880844}], "cc": "IR", "country": "ایران", "city": "اندیمشک", "formattedAddress": ["کشتارگاه اندیمشک (ورزشگاه کارگران)", "اندیمشک, خوزستان", "ایران"], "crossStreet": "ورزشگاه کارگران"}}, {"referralId": "v-1505910043", "specials": {"items": [], "count": 0}, "categories": [{"name": "Neighborhood", "pluralName": "Neighborhoods", "id": "4f2a25ac4b909258e854f55f", "icon": {"prefix": "https://ss3.4sqi.net/img/categories_v2/parks_outdoors/neighborhood_", "suffix": ".png"}, "primary": true, "shortName": "Neighborhood"}], "hasPerk": false, "contact": {}, "beenHere": {"lastCheckinExpiredAt": 0}, "verified": false, "stats": {"checkinsCount": 14, "usersCount": 10, "tipCount": 0}, "name": "Ziba Shahr (زیبا شهر)", "id": "5314d752e4b0e72a36d166b6", "venueChains": [], "venueRatingBlacklisted": true, "location": {"cc": "IR", "lat": 32.45822030864946, "lng": 48.352254050626186, "labeledLatLngs": [{"label": "display", "lng": 48.352254050626186, "lat": 32.45822030864946}], "state": "Ostān-e Khūzestān", "country": "ایران", "city": "Andīmeshk", "formattedAddress": ["Andīmeshk, Ostān-e Khūzestān", "ایران"]}}, {"referralId": "v-1505910043", "specials": {"items": [], "count": 0}, "categories": [{"name": "Medical Center", "pluralName": "Medical Centers", "id": "4bf58dd8d48988d104941735", "icon": {"prefix": "https://ss3.4sqi.net/img/categories_v2/building/medical_", "suffix": ".png"}, "primary": true, "shortName": "Medical"}], "hasPerk": false, "contact": {}, "beenHere": {"lastCheckinExpiredAt": 0}, "verified": false, "stats": {"checkinsCount": 2, "usersCount": 2, "tipCount": 0}, "name": "Parsian Clinic | درمانگاه پارسیان (درمانگاه پارسیان)", "id": "58adc4ee761b1a7bf01a33ec", "allowMenuUrlEdit": true, "venueChains": [], "venueRatingBlacklisted": true, "location": {"cc": "IR", "lat": 32.440607, "lng": 48.361855, "labeledLatLngs": [{"label": "display", "lng": 48.361855, "lat": 32.440607}], "state": "خوزستان", "country": "ایران", "city": "اندیمشک", "formattedAddress": ["اندیمشک, خوزستان", "ایران"]}}, {"referralId": "v-1505910043", "specials": {"items": [], "count": 0}, "categories": [{"name": "Park", "pluralName": "Parks", "id": "4bf58dd8d48988d163941735", "icon": {"prefix": "https://ss3.4sqi.net/img/categories_v2/parks_outdoors/park_", "suffix": ".png"}, "primary": true, "shortName": "Park"}], "hasPerk": false, "contact": {}, "beenHere": {"lastCheckinExpiredAt": 0}, "verified": false, "stats": {"checkinsCount": 2, "usersCount": 2, "tipCount": 0}, "name": "یادمان شهدای اندیمشک", "id": "56f289a6498ea9121bc1606b", "venueChains": [], "location": {"cc": "IR", "lat": 32.43527290180301, "lng": 48.3518937111258, "labeledLatLngs": [{"label": "display", "lng": 48.3518937111258, "lat": 32.43527290180301}], "state": "خوزستان", "country": "ایران", "city": "اندیمشک", "formattedAddress": ["اندیمشک, خوزستان", "ایران"]}}, {"referralId": "v-1505910043", "specials": {"items": [], "count": 0}, "categories": [{"name": "Doctor's Office", "pluralName": "Doctor's Offices", "id": "4bf58dd8d48988d177941735", "icon": {"prefix": "https://ss3.4sqi.net/img/categories_v2/building/medical_doctorsoffice_", "suffix": ".png"}, "primary": true, "shortName": "Doctor's Office"}], "hasPerk": false, "contact": {}, "beenHere": {"lastCheckinExpiredAt": 0}, "verified": false, "stats": {"checkinsCount": 2, "usersCount": 2, "tipCount": 0}, "name": "Dr. Alireza Espid Radiology | رادیولوژی دکتر علی‌رضا اسپید (رادیولوژی دکتر علی‌رضا اسپید)", "id": "58adb7a11b36d46175203e52", "allowMenuUrlEdit": true, "venueChains": [], "venueRatingBlacklisted": true, "location": {"cc": "IR", "lat": 32.453479, "lng": 48.355565, "labeledLatLngs": [{"label": "display", "lng": 48.355565, "lat": 32.453479}], "state": "خوزستان", "country": "ایران", "city": "اندیمشک", "formattedAddress": ["اندیمشک, خوزستان", "ایران"]}}, {"referralId": "v-1505910043", "specials": {"items": [], "count": 0}, "categories": [{"name": "Doctor's Office", "pluralName": "Doctor's Offices", "id": "4bf58dd8d48988d177941735", "icon": {"prefix": "https://ss3.4sqi.net/img/categories_v2/building/medical_doctorsoffice_", "suffix": ".png"}, "primary": true, "shortName": "Doctor's Office"}], "hasPerk": false, "contact": {}, "beenHere": {"lastCheckinExpiredAt": 0}, "verified": false, "stats": {"checkinsCount": 4, "usersCount": 2, "tipCount": 0}, "name": "Dr Behrad's office | مطب دکتر عباس بهراد (مطب دکتر عباس بهراد)", "id": "58adb3cbdc33291f9485014a", "allowMenuUrlEdit": true, "venueChains": [], "venueRatingBlacklisted": true, "location": {"cc": "IR", "address": "Shahid Beheshti square", "lat": 32.450692, "labeledLatLngs": [{"label": "display", "lng": 48.356787, "lat": 32.450692}], "lng": 48.356787, "country": "ایران", "city": "اندیمشک", "formattedAddress": ["Shahid Beheshti square", "اندیمشک, خوزستان", "ایران"], "state": "خوزستان"}}, {"referralId": "v-1505910043", "specials": {"items": [], "count": 0}, "categories": [{"name": "Lake", "pluralName": "Lakes", "id": "4bf58dd8d48988d161941735", "icon": {"prefix": "https://ss3.4sqi.net/img/categories_v2/parks_outdoors/lake_", "suffix": ".png"}, "primary": true, "shortName": "Lake"}], "hasPerk": false, "contact": {}, "beenHere": {"lastCheckinExpiredAt": 0}, "verified": false, "stats": {"checkinsCount": 7, "usersCount": 6, "tipCount": 0}, "name": "Karkheh Dam (سد کرخه)", "id": "545a5deb498e946379b11939", "venueChains": [], "venueRatingBlacklisted": true, "location": {"cc": "IR", "lat": 32.45205433884348, "lng": 48.359441858113115, "labeledLatLngs": [{"label": "display", "lng": 48.359441858113115, "lat": 32.45205433884348}], "state": "خوزستان", "country": "ایران", "city": "اندیمشک", "formattedAddress": ["اندیمشک, خوزستان", "ایران"]}}, {"referralId": "v-1505910043", "specials": {"items": [], "count": 0}, "categories": [{"name": "Pastry Shop", "pluralName": "Pastry Shops", "id": "5744ccdfe4b0c0459246b4e2", "icon": {"prefix": "https://ss3.4sqi.net/img/categories_v2/food/dessert_", "suffix": ".png"}, "primary": true, "shortName": "Pastry"}], "hasPerk": false, "contact": {}, "beenHere": {"lastCheckinExpiredAt": 0}, "verified": false, "stats": {"checkinsCount": 7, "usersCount": 7, "tipCount": 1}, "name": "porya confectionery | شیرینی سرای پوریا (شیرینی‌سرای پوریا)", "id": "5471b9ea498e2e61fb3f9e88", "allowMenuUrlEdit": true, "venueChains": [], "location": {"cc": "IR", "lat": 32.45159912109375, "lng": 48.35723114013672, "labeledLatLngs": [{"label": "display", "lng": 48.35723114013672, "lat": 32.45159912109375}], "state": "خوزستان", "country": "ایران", "city": "اندیمشک", "formattedAddress": ["اندیمشک, خوزستان", "ایران"]}}, {"referralId": "v-1505910043", "specials": {"items": [], "count": 0}, "categories": [{"name": "Neighborhood", "pluralName": "Neighborhoods", "id": "4f2a25ac4b909258e854f55f", "icon": {"prefix": "https://ss3.4sqi.net/img/categories_v2/parks_outdoors/neighborhood_", "suffix": ".png"}, "primary": true, "shortName": "Neighborhood"}], "hasPerk": false, "contact": {}, "beenHere": {"lastCheckinExpiredAt": 0}, "verified": false, "stats": {"checkinsCount": 1, "usersCount": 1, "tipCount": 0}, "name": "Kuy-e Amir | کوی امیر (کوی امیر)", "id": "58fb41764940bc7da7317030", "venueChains": [], "venueRatingBlacklisted": true, "location": {"cc": "IR", "lat": 32.448381, "lng": 48.362604, "labeledLatLngs": [{"label": "display", "lng": 48.362604, "lat": 32.448381}], "state": "Khūzestān", "country": "ایران", "city": "Andimeshk", "formattedAddress": ["Andimeshk, Khūzestān", "ایران"]}}, {"referralId": "v-1505910043", "specials": {"items": [], "count": 0}, "categories": [{"name": "Sports Club", "pluralName": "Sports Clubs", "id": "52e81612bcbc57f1066b7a2e", "icon": {"prefix": "https://ss3.4sqi.net/img/categories_v2/shops/sports_outdoors_", "suffix": ".png"}, "primary": true, "shortName": "Sports Club"}], "hasPerk": false, "contact": {}, "beenHere": {"lastCheckinExpiredAt": 0}, "verified": false, "stats": {"checkinsCount": 1, "usersCount": 1, "tipCount": 0}, "name": "خانه کشتی", "id": "58e29b569f8b867ea054f9c0", "allowMenuUrlEdit": true, "venueChains": [], "location": {"lng": 48.35639, "address": "Khuzestan Province", "lat": 32.448017, "labeledLatLngs": [{"label": "display", "lng": 48.35639, "lat": 32.448017}], "cc": "IR", "country": "ایران", "city": "اندیمشک", "formattedAddress": ["Khuzestan Province", "اندیمشک, خوزستان .", "ایران"], "state": "خوزستان", "postalCode": "."}}, {"referralId": "v-1505910043", "specials": {"items": [], "count": 0}, "categories": [{"name": "Hostel", "pluralName": "Hostels", "id": "4bf58dd8d48988d1ee931735", "icon": {"prefix": "https://ss3.4sqi.net/img/categories_v2/travel/hostel_", "suffix": ".png"}, "primary": true, "shortName": "Hostel"}], "hasPerk": false, "contact": {}, "beenHere": {"lastCheckinExpiredAt": 0}, "verified": false, "stats": {"checkinsCount": 1, "usersCount": 1, "tipCount": 0}, "name": "هتل رستم | Rostam Hotel", "id": "593ae48f6bdee61f15d07266", "allowMenuUrlEdit": true, "venueChains": [], "location": {"cc": "IR", "lat": 32.450871, "lng": 48.356887, "labeledLatLngs": [{"label": "display", "lng": 48.356887, "lat": 32.450871}], "country": "ایران", "state": "Khūzestān", "formattedAddress": ["Khūzestān", "ایران"]}}, {"referralId": "v-1505910043", "specials": {"items": [], "count": 0}, "categories": [{"name": "Eastern European Restaurant", "pluralName": "Eastern European Restaurants", "id": "4bf58dd8d48988d109941735", "icon": {"prefix": "https://ss3.4sqi.net/img/categories_v2/food/default_", "suffix": ".png"}, "primary": true, "shortName": "Eastern European"}], "hasPerk": false, "contact": {}, "beenHere": {"lastCheckinExpiredAt": 0}, "verified": false, "stats": {"checkinsCount": 5, "usersCount": 5, "tipCount": 0}, "name": "رستوران سنتی مه تاج | Mahtaj Restaurant", "id": "56eea42acd10e515de5cc497", "allowMenuUrlEdit": true, "venueChains": [], "location": {"cc": "IR", "lat": 32.447593688964844, "lng": 48.35531997680664, "labeledLatLngs": [{"label": "display", "lng": 48.35531997680664, "lat": 32.447593688964844}], "country": "ایران", "formattedAddress": ["ایران"]}}, {"referralId": "v-1505910043", "specials": {"items": [], "count": 0}, "categories": [{"name": "Plaza", "pluralName": "Plazas", "id": "4bf58dd8d48988d164941735", "icon": {"prefix": "https://ss3.4sqi.net/img/categories_v2/parks_outdoors/plaza_", "suffix": ".png"}, "primary": true, "shortName": "Plaza"}], "hasPerk": false, "contact": {}, "beenHere": {"lastCheckinExpiredAt": 0}, "verified": false, "stats": {"checkinsCount": 11, "usersCount": 4, "tipCount": 0}, "name": "Shahid Beheshti Square | میدان شهید بهشتی (میدان شهید بهشتی)", "id": "585e9093bbec66033b222585", "venueChains": [], "location": {"cc": "IR", "lat": 32.450674, "lng": 48.357176, "labeledLatLngs": [{"label": "display", "lng": 48.357176, "lat": 32.450674}], "state": "خوزستان", "country": "ایران", "city": "اندیمشک", "formattedAddress": ["اندیمشک, خوزستان", "ایران"]}}, {"referralId": "v-1505910043", "specials": {"items": [], "count": 0}, "categories": [{"name": "Road", "pluralName": "Roads", "id": "4bf58dd8d48988d1f9931735", "icon": {"prefix": "https://ss3.4sqi.net/img/categories_v2/travel/highway_", "suffix": ".png"}, "primary": true, "shortName": "Road"}], "hasPerk": false, "contact": {}, "beenHere": {"lastCheckinExpiredAt": 0}, "verified": false, "stats": {"checkinsCount": 4, "usersCount": 3, "tipCount": 0}, "name": "Taleghani Street | خیابان طالقانی (خیابان طالقانی)", "id": "56a7833d498ee06e00523b3b", "venueChains": [], "venueRatingBlacklisted": true, "location": {"cc": "IR", "lat": 32.45811133436232, "lng": 48.3532620399299, "labeledLatLngs": [{"label": "display", "lng": 48.3532620399299, "lat": 32.45811133436232}], "state": "خوزستان", "country": "ایران", "city": "اندیمشک", "formattedAddress": ["اندیمشک, خوزستان", "ایران"]}}, {"referralId": "v-1505910043", "specials": {"items": [], "count": 0}, "categories": [{"name": "Neighborhood", "pluralName": "Neighborhoods", "id": "4f2a25ac4b909258e854f55f", "icon": {"prefix": "https://ss3.4sqi.net/img/categories_v2/parks_outdoors/neighborhood_", "suffix": ".png"}, "primary": true, "shortName": "Neighborhood"}], "hasPerk": false, "contact": {}, "beenHere": {"lastCheckinExpiredAt": 0}, "verified": false, "stats": {"checkinsCount": 30, "usersCount": 5, "tipCount": 0}, "name": "Kuy-e Jomhouri | کوی جمهوری اسلامی (کوی جمهوری اسلامی)", "id": "5314d6e2e4b0e72a36d11ef1", "venueChains": [], "venueRatingBlacklisted": true, "location": {"cc": "IR", "lat": 32.434, "lng": 48.3593, "labeledLatLngs": [{"label": "display", "lng": 48.3593, "lat": 32.434}], "state": "خوزستان", "country": "ایران", "city": "اندیمشک", "formattedAddress": ["اندیمشک, خوزستان", "ایران"]}}, {"referralId": "v-1505910043", "specials": {"items": [], "count": 0}, "categories": [{"name": "Train Station", "pluralName": "Train Stations", "id": "4bf58dd8d48988d129951735", "icon": {"prefix": "https://ss3.4sqi.net/img/categories_v2/travel/trainstation_", "suffix": ".png"}, "primary": true, "shortName": "Train Station"}], "hasPerk": false, "contact": {}, "beenHere": {"lastCheckinExpiredAt": 0}, "verified": false, "stats": {"checkinsCount": 83, "usersCount": 64, "tipCount": 0}, "name": "Andimeshk Train Station | ایستگاه راه‌آهن اندیمشک (ایستگاه راه‌آهن اندیمشک)", "id": "5134c261e4b06aa0b586a9ba", "venueChains": [], "location": {"cc": "IR", "lat": 32.455729379978315, "lng": 48.35150902697876, "labeledLatLngs": [{"label": "display", "lng": 48.35150902697876, "lat": 32.455729379978315}], "state": "Khouzestan", "country": "ایران", "city": "Andimeshk", "formattedAddress": ["Andimeshk, Khouzestan", "ایران"]}}, {"referralId": "v-1505910043", "specials": {"items": [], "count": 0}, "categories": [{"name": "Restaurant", "pluralName": "Restaurants", "id": "4bf58dd8d48988d1c4941735", "icon": {"prefix": "https://ss3.4sqi.net/img/categories_v2/food/default_", "suffix": ".png"}, "primary": true, "shortName": "Restaurant"}], "hasPerk": false, "contact": {}, "beenHere": {"lastCheckinExpiredAt": 0}, "verified": false, "stats": {"checkinsCount": 16, "usersCount": 15, "tipCount": 1}, "name": "Pars Restaurant | رستوران پارس (رستوران پارس)", "id": "5335553911d26864470cbeb7", "allowMenuUrlEdit": true, "venueChains": [], "location": {"cc": "IR", "lat": 32.45066896045565, "lng": 48.35722600388123, "labeledLatLngs": [{"label": "display", "lng": 48.35722600388123, "lat": 32.45066896045565}], "state": "Ostān-e Khūzestān", "country": "ایران", "city": "Andīmeshk", "formattedAddress": ["Andīmeshk, Ostān-e Khūzestān", "ایران"]}}, {"referralId": "v-1505910043", "specials": {"items": [], "count": 0}, "categories": [{"name": "Market", "pluralName": "Markets", "id": "50be8ee891d4fa8dcc7199a7", "icon": {"prefix": "https://ss3.4sqi.net/img/categories_v2/shops/market_", "suffix": ".png"}, "primary": true, "shortName": "Market"}], "hasPerk": false, "contact": {}, "beenHere": {"lastCheckinExpiredAt": 0}, "verified": false, "stats": {"checkinsCount": 10, "usersCount": 9, "tipCount": 1}, "name": "Andimeshk Bazaar | بازار اندیمشک (بازار اندیمشک)", "id": "5471b562498e94529d4e9f63", "allowMenuUrlEdit": true, "venueChains": [], "location": {"cc": "IR", "lat": 32.45670700073242, "lng": 48.35401916503906, "labeledLatLngs": [{"label": "display", "lng": 48.35401916503906, "lat": 32.45670700073242}], "state": "خوزستان", "country": "ایران", "city": "اندیمشک", "formattedAddress": ["اندیمشک, خوزستان", "ایران"]}}, {"referralId": "v-1505910043", "specials": {"items": [], "count": 0}, "categories": [{"name": "Bus Station", "pluralName": "Bus Stations", "id": "4bf58dd8d48988d1fe931735", "icon": {"prefix": "https://ss3.4sqi.net/img/categories_v2/travel/busstation_", "suffix": ".png"}, "primary": true, "shortName": "Bus Station"}], "hasPerk": false, "contact": {}, "beenHere": {"lastCheckinExpiredAt": 0}, "verified": false, "stats": {"checkinsCount": 56, "usersCount": 22, "tipCount": 0}, "name": "Andimeshk Bus Terminal | ترمينال انديمشک (ترمینال اندیمشک)", "id": "504c9879e4b03e711fb148c5", "venueChains": [], "location": {"cc": "IR", "lat": 32.437891887678994, "lng": 48.352658218022164, "labeledLatLngs": [{"label": "display", "lng": 48.352658218022164, "lat": 32.437891887678994}], "state": "Khouzestan", "country": "ایران", "city": "Andimeshk", "formattedAddress": ["Andimeshk, Khouzestan", "ایران"]}}, {"referralId": "v-1505910043", "specials": {"items": [], "count": 0}, "categories": [{"name": "College Residence Hall", "pluralName": "College Residence Halls", "id": "4bf58dd8d48988d1a3941735", "icon": {"prefix": "https://ss3.4sqi.net/img/categories_v2/education/residencehall_", "suffix": ".png"}, "primary": true, "shortName": "Residence Hall"}], "hasPerk": false, "contact": {}, "beenHere": {"lastCheckinExpiredAt": 0}, "verified": false, "stats": {"checkinsCount": 88, "usersCount": 26, "tipCount": 1}, "name": "Pardis Residence Hall | خوابگاه پردیس دانشگاه جندی‌شاپور", "id": "518ddfba498e980bc9959463", "venueChains": [], "venueRatingBlacklisted": true, "location": {"cc": "IR", "address": "Enghelab Blvd", "lat": 32.43317241817591, "labeledLatLngs": [{"label": "display", "lng": 48.351343467544744, "lat": 32.43317241817591}], "lng": 48.351343467544744, "country": "ایران", "city": "Andīmeshk", "formattedAddress": ["Enghelab Blvd", "Andīmeshk, Ostān-e Khūzestān", "ایران"], "state": "Ostān-e Khūzestān"}}, {"referralId": "v-1505910045", "specials": {"items": [], "count": 0}, "categories": [{"name": "Accessories Store", "pluralName": "Accessories Stores", "id": "4bf58dd8d48988d102951735", "icon": {"prefix": "https://ss3.4sqi.net/img/categories_v2/shops/apparel_accessories_", "suffix": ".png"}, "primary": true, "shortName": "Accessories"}], "hasPerk": false, "contact": {}, "beenHere": {"lastCheckinExpiredAt": 0}, "verified": false, "stats": {"checkinsCount": 2, "usersCount": 2, "tipCount": 0}, "name": "Tak Scarf | روسری سرای تک", "id": "573b4263498e1213f1a372b5", "allowMenuUrlEdit": true, "venueChains": [], "location": {"cc": "IR", "address": "Shariati Blvd.", "lat": 32.38352, "labeledLatLngs": [{"label": "display", "lng": 48.401485, "lat": 32.38352}], "lng": 48.401485, "country": "ایران", "city": "دزفول", "formattedAddress": ["Shariati Blvd.", "دزفول, خوزستان", "ایران"], "state": "خوزستان"}}, {"referralId": "v-1505910045", "specials": {"items": [], "count": 0}, "categories": [{"name": "Lingerie Store", "pluralName": "Lingerie Stores", "id": "4bf58dd8d48988d109951735", "icon": {"prefix": "https://ss3.4sqi.net/img/categories_v2/shops/apparel_lingerie_", "suffix": ".png"}, "primary": true, "shortName": "Lingerie"}], "hasPerk": false, "contact": {}, "beenHere": {"lastCheckinExpiredAt": 0}, "verified": false, "stats": {"checkinsCount": 2, "usersCount": 1, "tipCount": 0}, "name": "Golfaam Clothes (پوشاک گل‌فام)", "id": "58b19026ef787f485b30c4da", "allowMenuUrlEdit": true, "venueChains": [], "location": {"cc": "IR", "lat": 32.382854, "lng": 48.40204, "labeledLatLngs": [{"label": "display", "lng": 48.40204, "lat": 32.382854}], "state": "خوزستان", "country": "ایران", "city": "دزفول", "formattedAddress": ["دزفول, خوزستان", "ایران"]}}, {"referralId": "v-1505910045", "specials": {"items": [], "count": 0}, "categories": [{"name": "Jewelry Store", "pluralName": "Jewelry Stores", "id": "4bf58dd8d48988d111951735", "icon": {"prefix": "https://ss3.4sqi.net/img/categories_v2/shops/jewelry_", "suffix": ".png"},