[{"referralId": "v-1505913163", "specials": {"items": [], "count": 0}, "categories": [{"name": "Campground", "pluralName": "Campgrounds", "id": "4bf58dd8d48988d1e4941735", "icon": {"prefix": "https://ss3.4sqi.net/img/categories_v2/parks_outdoors/campground_", "suffix": ".png"}, "primary": true, "shortName": "Campground"}], "hasPerk": false, "contact": {}, "beenHere": {"lastCheckinExpiredAt": 0}, "verified": false, "stats": {"checkinsCount": 13, "usersCount": 8, "tipCount": 0}, "name": "Ù¾Ø§Ø¯Ú¯Ø§Ù†", "id": "575c9cea498e2b7bca3f2bc7", "venueChains": [], "location": {"lng": 46.16677, "address": "Padegan", "lat": 37.345963, "labeledLatLngs": [{"label": "display", "lng": 46.16677, "lat": 37.345963}], "cc": "IR", "country": "Ø§ÛŒØ±Ø§Ù†", "city": "Marage", "formattedAddress": ["Padegan (Bozorgrah)", "Marage", "Ø§ÛŒØ±Ø§Ù†"], "crossStreet": "Bozorgrah"}}, {"referralId": "v-1505913163", "specials": {"items": [], "count": 0}, "categories": [{"name": "Military Base", "pluralName": "Military Bases", "id": "4e52adeebd41615f56317744", "icon": {"prefix": "https://ss3.4sqi.net/img/categories_v2/building/militarybase_", "suffix": ".png"}, "primary": true, "shortName": "Military Base"}], "hasPerk": false, "contact": {}, "beenHere": {"lastCheckinExpiredAt": 0}, "verified": false, "stats": {"checkinsCount": 42, "usersCount": 16, "tipCount": 0}, "name": "ÙØ±Ù…Ø§Ù†Ø¯Ù‡ÙŠ Ø¢Ù…Ø§Ø¯ Ùˆ Ù¾Ø´ØªÙŠØ¨Ø§Ù†ÙŠ Ù…Ù†Ø·Ù‚Ù‡ Ø´Ù…Ø§Ù„ØºØ±Ø¨ Ù†Ø²Ø§Ø¬Ø§", "id": "56e4f8cc498e9ff68ce4f73f", "venueChains": [], "venueRatingBlacklisted": true, "location": {"cc": "IR", "address": "Ù…Ø±Ø§ØºÙ‡", "lat": 37.35293718010883, "labeledLatLngs": [{"label": "display", "lng": 46.16271342111922, "lat": 37.35293718010883}], "lng": 46.16271342111922, "country": "Ø§ÛŒØ±Ø§Ù†", "formattedAddress": ["Ù…Ø±Ø§ØºÙ‡", "Ø§ÛŒØ±Ø§Ù†"]}}, {"referralId": "v-1505913163", "specials": {"items": [], "count": 0}, "categories": [{"name": "Assisted Living", "pluralName": "Assisted Living", "id": "5032891291d4c4b30a586d68", "icon": {"prefix": "https://ss3.4sqi.net/img/categories_v2/building/apartment_", "suffix": ".png"}, "primary": true, "shortName": "Assisted Living"}], "hasPerk": false, "contact": {}, "beenHere": {"lastCheckinExpiredAt": 0}, "verified": false, "stats": {"checkinsCount": 21, "usersCount": 19, "tipCount": 0}, "name": "Ù¾Ø§Ø¯Ú¯Ø§Ù† Ù…Ø±Ø§ØºÙ‡", "id": "576d9d0c498e8ede5234ff9d", "venueChains": [], "venueRatingBlacklisted": true, "location": {"cc": "IR", "lat": 37.3535, "lng": 46.16792, "labeledLatLngs": [{"label": "display", "lng": 46.16792, "lat": 37.3535}], "country": "Ø§ÛŒØ±Ø§Ù†", "formattedAddress": ["Ø§ÛŒØ±Ø§Ù†"]}}, {"referralId": "v-1505913163", "specials": {"items": [], "count": 0}, "categories": [{"name": "Military Base", "pluralName": "Military Bases", "id": "4e52adeebd41615f56317744", "icon": {"prefix": "https://ss3.4sqi.net/img/categories_v2/building/militarybase_", "suffix": ".png"}, "primary": true, "shortName": "Military Base"}], "hasPerk": false, "contact": {}, "beenHere": {"lastCheckinExpiredAt": 0}, "verified": false, "stats": {"checkinsCount": 7, "usersCount": 5, "tipCount": 0}, "name": "Ú¯Ø±ÙˆÙ‡ Û±Û± ØªÙˆÙ¾Ø®Ø§Ù†Ù‡", "id": "58e53ac90aac755928ec9f06", "venueChains": [], "venueRatingBlacklisted": true, "location": {"cc": "IR", "lat": 37.352695, "lng": 46.178417, "labeledLatLngs": [{"label": "display", "lng": 46.178417, "lat": 37.352695}], "state": "Ø¢Ø°Ø±Ø¨Ø§ÛŒØ¬Ø§Ù† Ø´Ø±Ù‚ÛŒ", "country": "Ø§ÛŒØ±Ø§Ù†", "city": "Ù…Ø±Ø§ØºÙ‡", "formattedAddress": ["Ù…Ø±Ø§ØºÙ‡, Ø¢Ø°Ø±Ø¨Ø§ÛŒØ¬Ø§Ù† Ø´Ø±Ù‚ÛŒ", "Ø§ÛŒØ±Ø§Ù†"]}}, {"referralId": "v-1505913163", "specials": {"items": [], "count": 0}, "categories": [{"name": "Event Space", "pluralName": "Event Spaces", "id": "4bf58dd8d48988d171941735", "icon": {"prefix": "https://ss3.4sqi.net/img/categories_v2/building/eventspace_", "suffix": ".png"}, "primary": true, "shortName": "Event Space"}], "hasPerk": false, "contact": {}, "beenHere": {"lastCheckinExpiredAt": 0}, "verified": false, "stats": {"checkinsCount": 16, "usersCount": 13, "tipCount": 0}, "name": "ØªÛŒÙ¾ Û²Û²Û± Ù…Ø±Ø§ØºÙ‡", "id": "566cd075498e2eba7b0c62bc", "venueChains": [], "venueRatingBlacklisted": true, "location": {"cc": "IR", "address": "Ù…Ø±Ø§ØºÙ‡", "lat": 37.352169036865234, "labeledLatLngs": [{"label": "display", "lng": 46.168296813964844, "lat": 37.352169036865234}], "lng": 46.168296813964844, "country": "Ø§ÛŒØ±Ø§Ù†", "formattedAddress": ["Ù…Ø±Ø§ØºÙ‡", "Ø§ÛŒØ±Ø§Ù†"]}}, {"referralId": "v-1505913164", "specials": {"items": [], "count": 0}, "categories": [{"name": "Factory", "pluralName": "Factories", "id": "4eb1bea83b7b6f98df247e06", "icon": {"prefix": "https://ss3.4sqi.net/img/categories_v2/building/factory_", "suffix": ".png"}, "primary": true, "shortName": "Factory"}], "hasPerk": false, "contact": {}, "beenHere": {"lastCheckinExpiredAt": 0}, "verified": false, "stats": {"checkinsCount": 1, "usersCount": 1, "tipCount": 0}, "name": "Karkhone", "id": "58de47470e0a1e6dd802518a", "venueChains": [], "venueRatingBlacklisted": true, "location": {"cc": "IR", "lat": 37.350765, "lng": 46.20606, "labeledLatLngs": [{"label": "display", "lng": 46.20606, "lat": 37.350765}], "country": "Ø§ÛŒØ±Ø§Ù†", "formattedAddress": ["Ø§ÛŒØ±Ø§Ù†"]}}, {"referralId": "v-1505913164", "specials": {"items": [], "count": 0}, "categories": [{"name": "Rest Area", "pluralName": "Rest Areas", "id": "4d954b16a243a5684b65b473", "icon": {"prefix": "https://ss3.4sqi.net/img/categories_v2/travel/restarea_", "suffix": ".png"}, "primary": true, "shortName": "Rest Areas"}], "hasPerk": false, "contact": {}, "beenHere": {"lastCheckinExpiredAt": 0}, "verified": false, "stats": {"checkinsCount": 17, "usersCount": 4, "tipCount": 0}, "name": "MaraÄŸa daki vilamiz", "id": "577d6367498e70faa13c2964", "venueChains": [], "location": {"cc": "IR", "address": "Åarqi Az", "lat": 37.34441, "labeledLatLngs": [{"label": "display", "lng": 46.200336, "lat": 37.34441}], "lng": 46.200336, "country": "Ø§ÛŒØ±Ø§Ù†", "city": "MaraÄŸa", "formattedAddress": ["Åarqi Az", "MaraÄŸa", "Ø§ÛŒØ±Ø§Ù†"]}}, {"referralId": "v-1505913164", "specials": {"items": [], "count": 0}, "categories": [{"name": "Garden", "pluralName": "Gardens", "id": "4bf58dd8d48988d15a941735", "icon": {"prefix": "https://ss3.4sqi.net/img/categories_v2/parks_outdoors/garden_", "suffix": ".png"}, "primary": true, "shortName": "Garden"}], "hasPerk": false, "contact": {}, "beenHere": {"lastCheckinExpiredAt": 0}, "verified": false, "stats": {"checkinsCount": 5, "usersCount": 2, "tipCount": 0}, "name": "Vakili's Garden", "id": "595fa2dc6e465003937208b5", "private": true, "venueChains": [], "location": {"cc": "IR", "address": "ÙˆØ±Ø¬ÙˆÛŒ Ú©Ù…Ø±Ø¨Ù†Ø¯ÛŒ Ø´Ø±Ù‚ÛŒ", "lat": 37.337463, "labeledLatLngs": [{"label": "display", "lng": 46.214798, "lat": 37.337463}], "lng": 46.214798, "country": "Ø§ÛŒØ±Ø§Ù†", "state": "Ø¢Ø°Ø±Ø¨Ø§ÛŒØ¬Ø§Ù† Ø´Ø±Ù‚ÛŒ", "formattedAddress": ["ÙˆØ±Ø¬ÙˆÛŒ Ú©Ù…Ø±Ø¨Ù†Ø¯ÛŒ Ø´Ø±Ù‚ÛŒ", "Ø¢Ø°Ø±Ø¨Ø§ÛŒØ¬Ø§Ù† Ø´Ø±Ù‚ÛŒ", "Ø§ÛŒØ±Ø§Ù†"]}}, {"referralId": "v-1505913165", "specials": {"items": [], "count": 0}, "categories": [{"name": "General College & University", "pluralName": "General Colleges & Universities", "id": "4bf58dd8d48988d1a8941735", "icon": {"prefix": "https://ss3.4sqi.net/img/categories_v2/education/other_", "suffix": ".png"}, "primary": true, "shortName": "Education"}], "hasPerk": false, "contact": {}, "beenHere": {"lastCheckinExpiredAt": 0}, "verified": false, "stats": {"checkinsCount": 1, "usersCount": 1, "tipCount": 0}, "name": "Ú©Ù„Ø§Ø³", "id": "589eeeb50b7e937af7b1b216", "venueChains": [], "venueRatingBlacklisted": true, "location": {"state": "Ø§ØªÙˆØ¨Ø§Ù† ØªÙ‡Ø±Ø§Ù†", "lng": 46.262207, "address": "Ù…Ø±Ø§ØºÙ‡", "lat": 37.357094, "labeledLatLngs": [{"label": "display", "lng": 46.262207, "lat": 37.357094}], "cc": "IR", "country": "Ø§ÛŒØ±Ø§Ù†", "city": "Ù…Ø±Ø§ØºÙ‡", "formattedAddress": ["Ù…Ø±Ø§ØºÙ‡ (Ù…ÛŒØ¯Ø§Ù† Ù…Ø§Ø¯Ø±)", "Ù…Ø±Ø§ØºÙ‡, Ø§ØªÙˆØ¨Ø§Ù† ØªÙ‡Ø±Ø§Ù†", "Ø§ÛŒØ±Ø§Ù†"], "crossStreet": "Ù…ÛŒØ¯Ø§Ù† Ù…Ø§Ø¯Ø±"}}, {"referralId": "v-1505913165", "specials": {"items": [], "count": 0}, "categories": [{"name": "College Classroom", "pluralName": "College Classrooms", "id": "4bf58dd8d48988d1a0941735", "icon": {"prefix": "https://ss3.4sqi.net/img/categories_v2/education/classroom_", "suffix": ".png"}, "primary": true, "shortName": "Classroom"}], "hasPerk": false, "contact": {}, "beenHere": {"lastCheckinExpiredAt": 0}, "verified": false, "stats": {"checkinsCount": 4, "usersCount": 2, "tipCount": 0}, "name": "class no.305", "id": "58103aeb38fa183483afb3cd", "venueChains": [], "venueRatingBlacklisted": true, "location": {"cc": "IR", "lat": 37.350438, "lng": 46.263037, "labeledLatLngs": [{"label": "display", "lng": 46.263037, "lat": 37.350438}], "country": "Ø§ÛŒØ±Ø§Ù†", "formattedAddress": ["Ø§ÛŒØ±Ø§Ù†"]}}, {"referralId": "v-1505913165", "specials": {"items": [], "count": 0}, "categories": [{"name": "Bridge", "pluralName": "Bridges", "id": "4bf58dd8d48988d1df941735", "icon": {"prefix": "https://ss3.4sqi.net/img/categories_v2/parks_outdoors/bridge_", "suffix": ".png"}, "primary": true, "shortName": "Bridge"}], "hasPerk": false, "contact": {}, "beenHere": {"lastCheckinExpiredAt": 0}, "verified": false, "stats": {"checkinsCount": 2, "usersCount": 2, "tipCount": 0}, "name": "Ø´ÙˆØ±Ø³Ùˆ(Ú†Ø§ÛŒØ¨Ø§ØºÛŒ)", "id": "590c39fc61f0701b4648e5d9", "venueChains": [], "venueRatingBlacklisted": true, "location": {"cc": "IR", "lat": 37.34789, "lng": 46.26321, "labeledLatLngs": [{"label": "display", "lng": 46.26321, "lat": 37.34789}], "country": "Ø§ÛŒØ±Ø§Ù†", "formattedAddress": ["Ø§ÛŒØ±Ø§Ù†"]}}, {"referralId": "v-1505913165", "specials": {"items": [], "count": 0}, "categories": [{"name": "Factory", "pluralName": "Factories", "id": "4eb1bea83b7b6f98df247e06", "icon": {"prefix": "https://ss3.4sqi.net/img/categories_v2/building/factory_", "suffix": ".png"}, "primary": true, "shortName": "Factory"}], "hasPerk": false, "contact": {}, "beenHere": {"lastCheckinExpiredAt": 0}, "verified": false, "stats": {"checkinsCount": 1, "usersCount": 1, "tipCount": 0}, "name": "Ú©Ø´ØªØ§Ø±Ú¯Ø§Ù‡ Ù¾Ø±Ù‡Ø§Ù… Ø³Ù‡Ù†Ø¯", "id": "5986b52e123a191137d4745e", "private": true, "venueChains": [], "venueRatingBlacklisted": true, "location": {"state": "Ø¢Ø°Ø±Ø¨Ø§ÛŒØ¬Ø§Ù† Ø´Ø±Ù‚ÛŒ", "lng": 46.240574, "address": "Ù…Ø±Ø§ØºÙ‡", "lat": 37.344658, "labeledLatLngs": [{"label": "display", "lng": 46.240574, "lat": 37.344658}], "cc": "IR", "country": "Ø§ÛŒØ±Ø§Ù†", "city": "ÙˆØ±Ø¬ÙˆÛŒ", "formattedAddress": ["Ù…Ø±Ø§ØºÙ‡ (Ù…Ø±Ø§ØºÙ‡)", "ÙˆØ±Ø¬ÙˆÛŒ, Ø¢Ø°Ø±Ø¨Ø§ÛŒØ¬Ø§Ù† Ø´Ø±Ù‚ÛŒ ÛµÛµÛµÛµÛµ", "Ø§ÛŒØ±Ø§Ù†"], "crossStreet": "Ù…Ø±Ø§ØºÙ‡", "postalCode": "ÛµÛµÛµÛµÛµ"}}, {"referralId": "v-1505913165", "specials": {"items": [], "count": 0}, "categories": [{"name": "Garden", "pluralName": "Gardens", "id": "4bf58dd8d48988d15a941735", "icon": {"prefix": "https://ss3.4sqi.net/img/categories_v2/parks_outdoors/garden_", "suffix": ".png"}, "primary": true, "shortName": "Garden"}], "hasPerk": false, "contact": {}, "beenHere": {"lastCheckinExpiredAt": 0}, "verified": false, "stats": {"checkinsCount": 22, "usersCount": 8, "tipCount": 0}, "name": "Ghassabian's Garden", "id": "5914783b25fb7b6eb961e0d2", "private": true, "venueChains": [], "location": {"cc": "IR", "lat": 37.355392, "lng": 46.22792, "labeledLatLngs": [{"label": "display", "lng": 46.22792, "lat": 37.355392}], "country": "Ø§ÛŒØ±Ø§Ù†", "state": "Ø¢Ø°Ø±Ø¨Ø§ÛŒØ¬Ø§Ù† Ø´Ø±Ù‚ÛŒ", "formattedAddress": ["Ø¢Ø°Ø±Ø¨Ø§ÛŒØ¬Ø§Ù† Ø´Ø±Ù‚ÛŒ", "Ø§ÛŒØ±Ø§Ù†"]}}, {"referralId": "v-1505913165", "specials": {"items": [], "count": 0}, "categories": [{"name": "Historic Site", "pluralName": "Historic Sites", "id": "4deefb944765f83613cdba6e", "icon": {"prefix": "https://ss3.4sqi.net/img/categories_v2/arts_entertainment/historicsite_", "suffix": ".png"}, "primary": true, "shortName": "Historic Site"}], "hasPerk": false, "contact": {}, "beenHere": {"lastCheckinExpiredAt": 0}, "verified": false, "stats": {"checkinsCount": 12, "usersCount": 12, "tipCount": 0}, "name": "Ù…Ø¹Ø¨Ø¯ Ù…ÛŒØªØ±Ø§ÛŒÛŒØ³Ù… Ù…Ù‡Ø±Ø§ÙˆÙ‡", "id": "55d6e37e498e82ed116a9378", "venueChains": [], "location": {"cc": "IR", "lat": 37.358045323585266, "lng": 46.237378901654616, "labeledLatLngs": [{"label": "display", "lng": 46.237378901654616, "lat": 37.358045323585266}], "country": "Ø§ÛŒØ±Ø§Ù†", "formattedAddress": ["Ø§ÛŒØ±Ø§Ù†"]}}, {"referralId": "v-1505913166", "specials": {"items": [], "count": 0}, "categories": [{"name": "College Classroom", "pluralName": "College Classrooms", "id": "4bf58dd8d48988d1a0941735", "icon": {"prefix": "https://ss3.4sqi.net/img/categories_v2/education/classroom_", "suffix": ".png"}, "primary": true, "shortName": "Classroom"}], "hasPerk": false, "contact": {}, "beenHere": {"lastCheckinExpiredAt": 0}, "verified": false, "stats": {"checkinsCount": 5, "usersCount": 3, "tipCount": 0}, "name": "Ø¯Ø§Ù†Ø´Ú©Ø¯Ù‡ Ø¹Ù„ÙˆÙ… Ù¾Ø²Ø´Ú©ÛŒ Ù…Ø±Ø§ØºÙ‡|Ú©Ù„Ø§Ø³ 9", "id": "58293f74eaf46a4e3212f1d0", "venueChains": [], "venueRatingBlacklisted": true, "location": {"cc": "IR", "lat": 37.343468, "lng": 46.278008, "labeledLatLngs": [{"label": "display", "lng": 46.278008, "lat": 37.343468}], "state": "Ø¢Ø°Ø±Ø¨Ø§ÛŒØ¬Ø§Ù† Ø´Ø±Ù‚ÛŒ", "country": "Ø§ÛŒØ±Ø§Ù†", "city": "Ù…Ø±Ø§ØºÙ‡", "formattedAddress": ["Ù…Ø±Ø§ØºÙ‡, Ø¢Ø°Ø±Ø¨Ø§ÛŒØ¬Ø§Ù† Ø´Ø±Ù‚ÛŒ", "Ø§ÛŒØ±Ø§Ù†"]}}, {"referralId": "v-1505913166", "specials": {"items": [], "count": 0}, "categories": [{"name": "University", "pluralName": "Universities", "id": "4bf58dd8d48988d1ae941735", "icon": {"prefix": "https://ss3.4sqi.net/img/categories_v2/education/default_", "suffix": ".png"}, "primary": true, "shortName": "University"}], "hasPerk": false, "contact": {}, "beenHere": {"lastCheckinExpiredAt": 0}, "verified": false, "stats": {"checkinsCount": 5, "usersCount": 3, "tipCount": 0}, "name": "Ø³Ø§Ù„Ù† Ø¯Ø§Ù†Ø´Ú©Ø¯Ù‡ Ø³Ù…Øª Ø±Ø§Ø³ØªğŸ˜›", "id": "58bd0e8eac329140499320d0", "private": true, "venueChains": [], "venueRatingBlacklisted": true, "location": {"cc": "IR", "lat": 37.356598, "lng": 46.272633, "labeledLatLngs": [{"label": "display", "lng": 46.272633, "lat": 37.356598}], "state": "Ø¢Ø°Ø±Ø¨Ø§ÛŒØ¬Ø§Ù† Ø´Ø±Ù‚ÛŒ", "country": "Ø§ÛŒØ±Ø§Ù†", "city": "Ù…Ø±Ø§ØºÙ‡", "formattedAddress": ["Ù…Ø±Ø§ØºÙ‡, Ø¢Ø°Ø±Ø¨Ø§ÛŒØ¬Ø§Ù† Ø´Ø±Ù‚ÛŒ", "Ø§ÛŒØ±Ø§Ù†"]}}, {"referralId": "v-1505913166", "specials": {"items": [], "count": 0}, "categories": [{"name": "Street Fair", "pluralName": "Street Fairs", "id": "5267e4d8e4b0ec79466e48c5", "icon": {"prefix": "https://ss3.4sqi.net/img/categories_v2/event/default_", "suffix": ".png"}, "primary": true, "shortName": "Fair"}], "hasPerk": false, "contact": {}, "beenHere": {"lastCheckinExpiredAt": 0}, "verified": false, "stats": {"checkinsCount": 4, "usersCount": 2, "tipCount": 0}, "name": "Jade Khunamoon B BaghemoonğŸ˜‚", "id": "58e0ab6823188e4a076fd871", "private": true, "venueChains": [], "venueRatingBlacklisted": true, "location": {"cc": "IR", "address": "ØªØ§Ø²Ù‡ Ú©Ù†Ø¯ Ø³ÙÙ„ÛŒ", "lat": 37.34847, "labeledLatLngs": [{"label": "display", "lng": 46.289124, "lat": 37.34847}], "lng": 46.289124, "country": "Ø§ÛŒØ±Ø§Ù†", "state": "Ø¢Ø°Ø±Ø¨Ø§ÛŒØ¬Ø§Ù† Ø´Ø±Ù‚ÛŒ", "formattedAddress": ["ØªØ§Ø²Ù‡ Ú©Ù†Ø¯ Ø³ÙÙ„ÛŒ", "Ø¢Ø°Ø±Ø¨Ø§ÛŒØ¬Ø§Ù† Ø´Ø±Ù‚ÛŒ", "Ø§ÛŒØ±Ø§Ù†"]}}, {"referralId": "v-1505913166", "specials": {"items": [], "count": 0}, "categories": [{"name": "University", "pluralName": "Universities", "id": "4bf58dd8d48988d1ae941735", "icon": {"prefix": "https://ss3.4sqi.net/img/categories_v2/education/default_", "suffix": ".png"}, "primary": true, "shortName": "University"}], "hasPerk": false, "contact": {}, "beenHere": {"lastCheckinExpiredAt": 0}, "verified": false, "stats": {"checkinsCount": 4, "usersCount": 4, "tipCount": 0}, "name": "Ø³Ø§Ù„Ù† ÙˆØ±Ø²Ø´ÛŒ Ø¯Ø§Ù†Ø´Ú©Ø¯Ù‡ Ø¹Ù„ÙˆÙ… Ù¾Ø²Ø´Ú©ÛŒ Ù…Ø±Ø§ØºÙ‡", "id": "58be50469dc8d0141683c629", "venueChains": [], "venueRatingBlacklisted": true, "location": {"cc": "IR", "lat": 37.355522, "lng": 46.275352, "labeledLatLngs": [{"label": "display", "lng": 46.275352, "lat": 37.355522}], "state": "Ø¢Ø°Ø±Ø¨Ø§ÛŒØ¬Ø§Ù† Ø´Ø±Ù‚ÛŒ", "country": "Ø§ÛŒØ±Ø§Ù†", "city": "Ù…Ø±Ø§ØºÙ‡", "formattedAddress": ["Ù…Ø±Ø§ØºÙ‡, Ø¢Ø°Ø±Ø¨Ø§ÛŒØ¬Ø§Ù† Ø´Ø±Ù‚ÛŒ", "Ø§ÛŒØ±Ø§Ù†"]}}, {"referralId": "v-1505913166", "specials": {"items": [], "count": 0}, "categories": [{"name": "College Administrative Building", "pluralName": "College Administrative Buildings", "id": "4bf58dd8d48988d197941735", "icon": {"prefix": "https://ss3.4sqi.net/img/categories_v2/education/administrativebuilding_", "suffix": ".png"}, "primary": true, "shortName": "Administrative Building"}], "hasPerk": false, "contact": {}, "beenHere": {"lastCheckinExpiredAt": 0}, "verified": false, "stats": {"checkinsCount": 4, "usersCount": 2, "tipCount": 0}, "name": "Ø§ØªØ§Ù‚ Ú©Ø§Ù…Ù¾ÛŒÙˆØªØ±", "id": "58033b5bd67c22632ead4d41", "venueChains": [], "venueRatingBlacklisted": true, "location": {"cc": "IR", "lat": 37.343014, "lng": 46.27689, "labeledLatLngs": [{"label": "display", "lng": 46.27689, "lat": 37.343014}], "country": "Ø§ÛŒØ±Ø§Ù†", "formattedAddress": ["Ø§ÛŒØ±Ø§Ù†"]}}, {"referralId": "v-1505913166", "specials": {"items": [], "count": 0}, "categories": [{"name": "University", "pluralName": "Universities", "id": "4bf58dd8d48988d1ae941735", "icon": {"prefix": "https://ss3.4sqi.net/img/categories_v2/education/default_", "suffix": ".png"}, "primary": true, "shortName": "University"}], "hasPerk": false, "contact": {}, "beenHere": {"lastCheckinExpiredAt": 0}, "verified": false, "stats": {"checkinsCount": 2, "usersCount": 1, "tipCount": 0}, "name": "ÙƒÙ„Ø§Ø³ Ù…Ø¹Ø§Ø±Ù ÙˆØ§Ù†Ø¯ÙŠØ´Ù‡ Ø§Ø³Ù„Ø§Ù…ÙŠ", "id": "58ad13852bc5e252bc4886ab", "venueChains": [], "venueRatingBlacklisted": true, "location": {"cc": "IR", "lat": 37.355928, "lng": 46.265589, "labeledLatLngs": [{"label": "display", "lng": 46.265589, "lat": 37.355928}], "country": "Ø§ÛŒØ±Ø§Ù†", "formattedAddress": ["Ø§ÛŒØ±Ø§Ù†"]}}, {"referralId": "v-1505913166", "specials": {"items": [], "count": 0}, "categories": [{"name": "Factory", "pluralName": "Factories", "id": "4eb1bea83b7b6f98df247e06", "icon": {"prefix": "https://ss3.4sqi.net/img/categories_v2/building/factory_", "suffix": ".png"}, "primary": true, "shortName": "Factory"}], "hasPerk": false, "contact": {}, "beenHere": {"lastCheckinExpiredAt": 0}, "verified": false, "stats": {"checkinsCount": 1, "usersCount": 1, "tipCount": 0}, "name": "K.ch.k.co", "id": "593d6ef79ad60e0c074b1364", "venueChains": [], "venueRatingBlacklisted": true, "location": {"cc": "IR", "address": "k.ch.k.co", "lat": 37.352367, "labeledLatLngs": [{"label": "display", "lng": 46.2935, "lat": 37.352367}], "lng": 46.2935, "country": "Ø§ÛŒØ±Ø§Ù†", "city": "Ø´Ù‡Ø±Ú© ØµÙ†Ø¹ØªÛŒ", "formattedAddress": ["k.ch.k.co", "Ø´Ù‡Ø±Ú© ØµÙ†Ø¹ØªÛŒ, Ø¢Ø°Ø±Ø¨Ø§ÛŒØ¬Ø§Ù† Ø´Ø±Ù‚ÛŒ", "Ø§ÛŒØ±Ø§Ù†"], "state": "Ø¢Ø°Ø±Ø¨Ø§ÛŒØ¬Ø§Ù† Ø´Ø±Ù‚ÛŒ"}}, {"referralId": "v-1505913166", "specials": {"items": [], "count": 0}, "categories": [{"name": "College Classroom", "pluralName": "College Classrooms", "id": "4bf58dd8d48988d1a0941735", "icon": {"prefix": "https://ss3.4sqi.net/img/categories_v2/education/classroom_", "suffix": ".png"}, "primary": true, "shortName": "Classroom"}], "hasPerk": false, "contact": {}, "beenHere": {"lastCheckinExpiredAt": 0}, "verified": false, "stats": {"checkinsCount": 1, "usersCount": 1, "tipCount": 0}, "name": "Ø±Ø¯ÛŒÙ Ø§Ø®Ø± Ú©Ù„Ø§Ø³ 2", "id": "59213f015d891b595c25bbfb", "venueChains": [], "venueRatingBlacklisted": true, "location": {"cc": "IR", "lat": 37.34332, "lng": 46.277187, "labeledLatLngs": [{"label": "display", "lng": 46.277187, "lat": 37.34332}], "country": "Ø§ÛŒØ±Ø§Ù†", "state": "Ø¢Ø°Ø±Ø¨Ø§ÛŒØ¬Ø§Ù† Ø´Ø±Ù‚ÛŒ", "formattedAddress": ["Ø¢Ø°Ø±Ø¨Ø§ÛŒØ¬Ø§Ù† Ø´Ø±Ù‚ÛŒ", "Ø§ÛŒØ±Ø§Ù†"]}}, {"referralId": "v-1505913166", "specials": {"items": [], "count": 0}, "categories": [{"name": "Cambodian Restaurant", "pluralName": "Cambodian Restaurants", "id": "52e81612bcbc57f1066b7a03", "icon": {"prefix": "https://ss3.4sqi.net/img/categories_v2/food/default_", "suffix": ".png"}, "primary": true, "shortName": "Cambodian"}], "hasPerk": false, "contact": {}, "beenHere": {"lastCheckinExpiredAt": 0}, "verified": false, "stats": {"checkinsCount": 35, "usersCount": 12, "tipCount": 0}, "name": "Ø³Ù„Ù Ø¯Ø§Ù†Ø´Ú¯Ø§Ù‡", "id": "573c3415498e278150436f38", "allowMenuUrlEdit": true, "venueChains": [], "location": {"cc": "IR", "lat": 37.343126, "lng": 46.277172, "labeledLatLngs": [{"label": "display", "lng": 46.277172, "lat": 37.343126}], "country": "Ø§ÛŒØ±Ø§Ù†", "formattedAddress": ["Ø§ÛŒØ±Ø§Ù†"]}}, {"referralId": "v-1505913166", "specials": {"items": [], "count": 0}, "categories": [{"name": "Garden", "pluralName": "Gardens", "id": "4bf58dd8d48988d15a941735", "icon": {"prefix": "https://ss3.4sqi.net/img/categories_v2/parks_outdoors/garden_", "suffix": ".png"}, "primary": true, "shortName": "Garden"}], "hasPerk": false, "contact": {}, "beenHere": {"lastCheckinExpiredAt": 0}, "verified": false, "stats": {"checkinsCount": 1, "usersCount": 1, "tipCount": 0}, "name": "Sabahivash S' Garden", "id": "5915774410345b1353dca76b", "private": true, "venueChains": [], "location": {"cc": "IR", "lat": 37.339695, "lng": 46.268536, "labeledLatLngs": [{"label": "display", "lng": 46.268536, "lat": 37.339695}], "country": "Ø§ÛŒØ±Ø§Ù†", "state": "Ø¢Ø°Ø±Ø¨Ø§ÛŒØ¬Ø§Ù† Ø´Ø±Ù‚ÛŒ", "formattedAddress": ["Ø¢Ø°Ø±Ø¨Ø§ÛŒØ¬Ø§Ù† Ø´Ø±Ù‚ÛŒ", "Ø§ÛŒØ±Ø§Ù†"]}}, {"referralId": "v-1505913166", "specials": {"items": [], "count": 0}, "categories": [{"name": "Mosque", "pluralName": "Mosques", "id": "4bf58dd8d48988d138941735", "icon": {"prefix": "https://ss3.4sqi.net/img/categories_v2/building/religious_mosque_", "suffix": ".png"}, "primary": true, "shortName": "Mosque"}], "hasPerk": false, "contact": {}, "beenHere": {"lastCheckinExpiredAt": 0}, "verified": false, "stats": {"checkinsCount": 2, "usersCount": 2, "tipCount": 0}, "name": "Ù†Ù…Ø§Ø²Ø®Ø§Ù†Ù‡ Ø¯Ø§Ù†Ø´Ú¯Ø§Ù‡ Ø³Ø±Ø§Ø³Ø±ÙŠ Ù…Ø±Ø§ØºÙ‡", "id": "58bbdd9dfc5a5f1dcd388f66", "venueChains": [], "venueRatingBlacklisted": true, "location": {"cc": "IR", "lat": 37.357079, "lng": 46.266741, "labeledLatLngs": [{"label": "display", "lng": 46.266741, "lat": 37.357079}], "country": "Ø§ÛŒØ±Ø§Ù†", "formattedAddress": ["Ø§ÛŒØ±Ø§Ù†"]}}, {"referralId": "v-1505913166", "specials": {"items": [], "count": 0}, "categories": [{"name": "College Classroom", "pluralName": "College Classrooms", "id": "4bf58dd8d48988d1a0941735", "icon": {"prefix": "https://ss3.4sqi.net/img/categories_v2/education/classroom_", "suffix": ".png"}, "primary": true, "shortName": "Classroom"}], "hasPerk": false, "contact": {}, "beenHere": {"lastCheckinExpiredAt": 0}, "verified": false, "stats": {"checkinsCount": 27, "usersCount": 5, "tipCount": 0}, "name": "ÙƒÙ„Ø§Ø³ 101", "id": "57f34bd3498e9cc2d464d671", "venueChains": [], "venueRatingBlacklisted": true, "location": {"cc": "IR", "lat": 37.343218, "lng": 46.277347, "labeledLatLngs": [{"label": "display", "lng": 46.277347, "lat": 37.343218}], "country": "Ø§ÛŒØ±Ø§Ù†", "formattedAddress": ["Ø§ÛŒØ±Ø§Ù†"]}}, {"referralId": "v-1505913166", "specials": {"items": [], "count": 0}, "categories": [{"name": "College Theater", "pluralName": "College Theaters", "id": "4bf58dd8d48988d1ac941735", "icon": {"prefix": "https://ss3.4sqi.net/img/categories_v2/arts_entertainment/performingarts_theater_", "suffix": ".png"}, "primary": true, "shortName": "Theater"}], "hasPerk": false, "contact": {}, "beenHere": {"lastCheckinExpiredAt": 0}, "verified": false, "stats": {"checkinsCount": 11, "usersCount": 7, "tipCount": 0}, "name": "Ø³Ø§Ù„Ù† Ø¢Ù…ÙÛŒ ØªØ¦Ø§ØªØ± Ø¯Ø§Ù†Ø´Ú©Ø¯Ù‡ Ø¹Ù„ÙˆÙ… Ù¾Ø²Ø´Ú©ÛŒ Ù…Ø±Ø§ØºÙ‡", "id": "59082de00f013c57faffb583", "venueChains": [], "venueRatingBlacklisted": true, "location": {"cc": "IR", "lat": 37.34309, "lng": 46.27756, "labeledLatLngs": [{"label": "display", "lng": 46.27756, "lat": 37.34309}], "country": "Ø§ÛŒØ±Ø§Ù†", "formattedAddress": ["Ø§ÛŒØ±Ø§Ù†"]}}, {"referralId": "v-1505913166", "specials": {"items": [], "count": 0}, "categories": [{"name": "Medical School", "pluralName": "Medical Schools", "id": "4bf58dd8d48988d1b3941735", "icon": {"prefix": "https://ss3.4sqi.net/img/categories_v2/building/medical_", "suffix": ".png"}, "primary": true, "shortName": "Medical School"}], "hasPerk": false, "contact": {}, "beenHere": {"lastCheckinExpiredAt": 0}, "verified": false, "stats": {"checkinsCount": 43, "usersCount": 15, "tipCount": 0}, "name": "Maragheh University of Medical Sciences | Ø¯Ø§Ù†Ø´ÙƒØ¯Ù‡ Ø¹Ù„ÙˆÙ… Ù¾Ø²Ø´ÙƒÙ‰ Ùˆ Ø®Ø¯Ù…Ø§Øª Ø¨Ù‡Ø¯Ø§Ø´ØªÙ‰ Ùˆ Ø¯Ø±Ù…Ø§Ù†Ù‰ Ù…Ø±Ø§ØºÙ‡", "id": "58718135ce66aa03893fb8a5", "venueChains": [], "venueRatingBlacklisted": true, "location": {"cc": "IR", "lat": 37.343292, "lng": 46.277314, "labeledLatLngs": [{"label": "display", "lng": 46.277314, "lat": 37.343292}], "state": "Ø¢Ø°Ø±Ø¨Ø§ÛŒØ¬Ø§Ù† Ø´Ø±Ù‚ÛŒ", "country": "Ø§ÛŒØ±Ø§Ù†", "city": "Ù…Ø±Ø§ØºÙ‡", "formattedAddress": ["Ù…Ø±Ø§ØºÙ‡, Ø¢Ø°Ø±Ø¨Ø§ÛŒØ¬Ø§Ù† Ø´Ø±Ù‚ÛŒ", "Ø§ÛŒØ±Ø§Ù†"]}}, {"referralId": "v-1505913166", "specials": {"items": [], "count": 0}, "categories": [{"name": "Medical School", "pluralName": "Medical Schools", "id": "4bf58dd8d48988d1b3941735", "icon": {"prefix": "https://ss3.4sqi.net/img/categories_v2/building/medical_", "suffix": ".png"}, "primary": true, "shortName": "Medical School"}], "hasPerk": false, "contact": {}, "beenHere": {"lastCheckinExpiredAt": 0}, "verified": false, "stats": {"checkinsCount": 5, "usersCount": 1, "tipCount": 0}, "name": "Ø³Ø§Ù„Ù† Ù¾Ø±Ø§ØªÛŒÚ© Ù¾Ø±Ø³ØªØ§Ø±ÛŒ", "id": "58f6f86614994606a0e6ccdc", "venueChains": [], "venueRatingBlacklisted": true, "location": {"cc": "IR", "lat": 37.34327, "lng": 46.27721, "labeledLatLngs": [{"label": "display", "lng": 46.27721, "lat": 37.34327}], "country": "Ø§ÛŒØ±Ø§Ù†", "formattedAddress": ["Ø§ÛŒØ±Ø§Ù†"]}}, {"referralId": "v-1505913166", "specials": {"items": [], "count": 0}, "categories": [{"name": "College Classroom", "pluralName": "College Classrooms", "id": "4bf58dd8d48988d1a0941735", "icon": {"prefix": "https://ss3.4sqi.net/img/categories_v2/education/classroom_", "suffix": ".png"}, "primary": true, "shortName": "Classroom"}], "hasPerk": false, "contact": {}, "beenHere": {"lastCheckinExpiredAt": 0}, "verified": false, "stats": {"checkinsCount": 4, "usersCount": 1, "tipCount": 0}, "name": "Ú©Ø§Ø±Ú¯Ø§Ù‡ Ø¨Ø§Ù„ÛŒÙ†ÛŒ", "id": "590037941543c71a1d88c195", "venueChains": [], "venueRatingBlacklisted": true, "location": {"cc": "IR", "lat": 37.34327, "lng": 46.27721, "labeledLatLngs": [{"label": "display", "lng": 46.27721, "lat": 37.34327}], "country": "Ø§ÛŒØ±Ø§Ù†", "formattedAddress": ["Ø§ÛŒØ±Ø§Ù†"]}}, {"referralId": "v-1505913166", "specials": {"items": [], "count": 0}, "categories": [{"name": "Factory", "pluralName": "Factories", "id": "4eb1bea83b7b6f98df247e06", "icon": {"prefix": "https://ss3.4sqi.net/img/categories_v2/building/factory_", "suffix": ".png"}, "primary": true, "shortName": "Factory"}], "hasPerk": false, "contact": {}, "beenHere": {"lastCheckinExpiredAt": 0}, "verified": false, "stats": {"checkinsCount": 1, "usersCount": 1, "tipCount": 0}, "name": "Ú©Ø´ØªØ§Ø±Ú¯Ø§Ù‡ ØªÚ© Ù…Ø±ØºğŸ”", "id": "5986c37401235832355d1391", "private": true, "venueChains": [], "venueRatingBlacklisted": true, "location": {"state": "Ø¢Ø°Ø±Ø¨Ø§ÛŒØ¬Ø§Ù† Ø´Ø±Ù‚ÛŒ", "lng": 46.285416, "address": "Ù…Ø±Ø§ØºÙ‡", "lat": 37.35349, "labeledLatLngs": [{"label": "display", "lng": 46.285416, "lat": 37.35349}], "cc": "IR", "country": "Ø§ÛŒØ±Ø§Ù†", "city": "Ù…Ø±Ø§ØºÙ‡", "formattedAddress": ["Ù…Ø±Ø§ØºÙ‡ (Ù…Ø±Ø§ØºÙ‡)", "Ù…Ø±Ø§ØºÙ‡, Ø¢Ø°Ø±Ø¨Ø§ÛŒØ¬Ø§Ù† Ø´Ø±Ù‚ÛŒ ÛµÛµÛµÛµÛµ", "Ø§ÛŒØ±Ø§Ù†"], "crossStreet": "Ù…Ø±Ø§ØºÙ‡", "postalCode": "ÛµÛµÛµÛµÛµ"}}, {"referralId": "v-1505913166", "specials": {"items": [], "count": 0}, "categories": [{"name": "Factory", "pluralName": "Factories", "id": "4eb1bea83b7b6f98df247e06", "icon": {"prefix": "https://ss3.4sqi.net/img/categories_v2/building/factory_", "suffix": ".png"}, "primary": true, "shortName": "Factory"}], "hasPerk": false, "contact": {}, "beenHere": {"lastCheckinExpiredAt": 0}, "verified": false, "stats": {"checkinsCount": 3, "usersCount": 3, "tipCount": 0}, "name": "Gheybi's Factory", "id": "5984c84c5f68b90378a80d31", "venueChains": [], "venueRatingBlacklisted": true, "location": {"cc": "IR", "lat": 37.351483, "lng": 46.283638, "labeledLatLngs": [{"label": "display", "lng": 46.283638, "lat": 37.351483}], "country": "Ø§ÛŒØ±Ø§Ù†", "state": "Ø¢Ø°Ø±Ø¨Ø§ÛŒØ¬Ø§Ù† Ø´Ø±Ù‚ÛŒ", "formattedAddress": ["Ø¢Ø°Ø±Ø¨Ø§ÛŒØ¬Ø§Ù† Ø´Ø±Ù‚ÛŒ", "Ø§ÛŒØ±Ø§Ù†"]}}, {"referralId": "v-1505913166", "specials": {"items": [], "count": 0}, "categories": [{"name": "University", "pluralName": "Universities", "id": "4bf58dd8d48988d1ae941735", "icon": {"prefix": "https://ss3.4sqi.net/img/categories_v2/education/default_", "suffix": ".png"}, "primary": true, "shortName": "University"}], "hasPerk": false, "contact": {}, "beenHere": {"lastCheckinExpiredAt": 0}, "verified": false, "stats": {"checkinsCount": 4, "usersCount": 4, "tipCount": 0}, "name": "Ø¯Ø§Ù†Ø´Ú¯Ø§Ù‡ Ù¾ÙŠØ§Ù… Ù†ÙˆØ±|payam nour university", "id": "572aee0f498ea86abd454493", "venueChains": [], "venueRatingBlacklisted": true, "location": {"cc": "IR", "lat": 37.351775, "lng": 46.283478, "labeledLatLngs": [{"label": "display", "lng": 46.283478, "lat": 37.351775}], "country": "Ø§ÛŒØ±Ø§Ù†", "formattedAddress": ["Ø§ÛŒØ±Ø§Ù†"]}}, {"referralId": "v-1505913166", "specials": {"items": [], "count": 0}, "categories": [{"name": "College Academic Building", "pluralName": "College Academic Buildings", "id": "4bf58dd8d48988d198941735", "icon": {"prefix": "https://ss3.4sqi.net/img/categories_v2/education/academicbuilding_", "suffix": ".png"}, "primary": true, "shortName": "Academic Building"}], "hasPerk": false, "contact": {}, "beenHere": {"lastCheckinExpiredAt": 0}, "verified": false, "stats": {"checkinsCount": 258, "usersCount": 36, "tipCount": 0}, "name": "Ø¯Ø§Ù†Ø´Ú©Ø¯Ù‡ Ø¹Ù„ÙˆÙ… Ù¾Ø²Ø´Ú©ÛŒ Ù…Ø±Ø§ØºÙ‡", "id": "5758fcd0498e7323ff6f059b", "venueChains": [], "venueRatingBlacklisted": true, "location": {"cc": "IR", "lat": 37.34355403884552, "lng": 46.27776603733052, "labeledLatLngs": [{"label": "display", "lng": 46.27776603733052, "lat": 37.34355403884552}], "country": "Ø§ÛŒØ±Ø§Ù†", "formattedAddress": ["Ø§ÛŒØ±Ø§Ù†"]}}, {"referralId": "v-1505913166", "specials": {"items": [], "count": 0}, "categories": [{"name": "Assisted Living", "pluralName": "Assisted Living", "id": "5032891291d4c4b30a586d68", "icon": {"prefix": "https://ss3.4sqi.net/img/categories_v2/building/apartment_", "suffix": ".png"}, "primary": true, "shortName": "Assisted Living"}], "hasPerk": false, "contact": {}, "beenHere": {"lastCheckinExpiredAt": 0}, "verified": false, "stats": {"checkinsCount": 34, "usersCount": 29, "tipCount": 0}, "name": "Ù…Ø±Ø§ØºÙ‡ | Maragheh", "id": "56f71ae4cd108dca76933ec0", "venueChains": [], "venueRatingBlacklisted": true, "location": {"cc": "IR", "lat": 37.347848585686556, "lng": 46.29031838797356, "labeledLatLngs": [{"label": "display", "lng": 46.29031838797356, "lat": 37.347848585686556}], "country": "Ø§ÛŒØ±Ø§Ù†", "formattedAddress": ["Ø§ÛŒØ±Ø§Ù†"]}}, {"referralId": "v-1505913166", "specials": {"items": [], "count": 0}, "categories": [{"name": "RV Park", "pluralName": "RV Parks", "id": "52f2ab2ebcbc57f1066b8b53", "icon": {"prefix": "https://ss3.4sqi.net/img/categories_v2/parks_outdoors/default_", "suffix": ".png"}, "primary": true, "shortName": "RV Park"}], "hasPerk": false, "contact": {}, "beenHere": {"lastCheckinExpiredAt": 0}, "verified": false, "stats": {"checkinsCount": 81, "usersCount": 43, "tipCount": 0}, "name": "Ù…ÙŠØ¯Ø§Ù† Ù…Ø¬Ù„Ø³", "id": "569fb4a8498e90a5b802910e", "venueChains": [], "location": {"cc": "IR", "lat": 37.35271404120451, "lng": 46.276854835546764, "labeledLatLngs": [{"label": "display", "lng": 46.276854835546764, "lat": 37.35271404120451}], "country": "Ø§ÛŒØ±Ø§Ù†", "formattedAddress": ["Ø§ÛŒØ±Ø§Ù†"]}}, {"referralId": "v-1505913166", "specials": {"items": [], "count": 0}, "categories": [{"name": "Road", "pluralName": "Roads", "id": "4bf58dd8d48988d1f9931735", "icon": {"prefix": "https://ss3.4sqi.net/img/categories_v2/travel/highway_", "suffix": ".png"}, "primary": true, "shortName": "Road"}], "hasPerk": false, "contact": {}, "beenHere": {"lastCheckinExpiredAt": 0}, "verified": false, "stats": {"checkinsCount": 7, "usersCount": 6, "tipCount": 0}, "name": "Ø§ØªÙˆØ¨Ø§Ù† Ù¾Ø§Ø³Ø¯Ø§Ø±Ø§Ù†", "id": "568a47e4498ef577f4df1701", "venueChains": [], "venueRatingBlacklisted": true, "location": {"cc": "IR", "lat": 37.35961298718435, "lng": 46.17735805975279, "labeledLatLngs": [{"label": "display", "lng": 46.17735805975279, "lat": 37.35961298718435}], "country": "Ø§ÛŒØ±Ø§Ù†", "formattedAddress": ["Ø§ÛŒØ±Ø§Ù†"]}}, {"referralId": "v-1505913166", "specials": {"items": [], "count": 0}, "categories": [{"name": "Building", "pluralName": "Buildings", "id": "4bf58dd8d48988d130941735", "icon": {"prefix": "https://ss3.4sqi.net/img/categories_v2/building/default_", "suffix": ".png"}, "primary": true, "shortName": "Building"}], "hasPerk": false, "contact": {}, "beenHere": {"lastCheckinExpiredAt": 0}, "verified": false, "stats": {"checkinsCount": 1, "usersCount": 1, "tipCount": 0}, "name": "Ø®ÙˆÙ†Ù‡ Ù…Ø§Ø¯Ø± Ø¨Ø²Ø±Ú¯", "id": "58ac12869c954845fa217fde", "private": true, "venueChains": [], "venueRatingBlacklisted": true, "location": {"cc": "IR", "address": "maraghe", "lat": 37.360985, "labeledLatLngs": [{"label": "display", "lng": 46.18027, "lat": 37.360985}], "lng": 46.18027, "country": "Ø§ÛŒØ±Ø§Ù†", "formattedAddress": ["maraghe", "Ø§ÛŒØ±Ø§Ù†"]}}, {"referralId": "v-1505913166", "specials": {"items": [], "count": 0}, "categories": [{"name": "Road", "pluralName": "Roads", "id": "4bf58dd8d48988d1f9931735", "icon": {"prefix": "https://ss3.4sqi.net/img/categories_v2/travel/highway_", "suffix": ".png"}, "primary": true, "shortName": "Road"}], "hasPerk": false, "contact": {}, "beenHere": {"lastCheckinExpiredAt": 0}, "verified": false, "stats": {"checkinsCount": 7, "usersCount": 3, "tipCount": 0}, "name": "maraghe b samte tabriz", "id": "5768c04f498eb8179bad979d", "venueChains": [], "venueRatingBlacklisted": true, "location": {"cc": "IR", "lat": 37.364452, "lng": 46.18691, "labeledLatLngs": [{"label": "display", "lng": 46.18691, "lat": 37.364452}], "country": "Ø§ÛŒØ±Ø§Ù†", "formattedAddress": ["Ø§ÛŒØ±Ø§Ù†"]}}, {"referralId": "v-1505913166", "specials": {"items": [], "count": 0}, "categories": [{"name": "Watch Shop", "pluralName": "Watch Shops", "id": "52f2ab2ebcbc57f1066b8b2e", "icon": {"prefix": "https://ss3.4sqi.net/img/categories_v2/shops/default_", "suffix": ".png"}, "primary": true, "shortName": "Watch Shops"}], "hasPerk": false, "contact": {}, "beenHere": {"lastCheckinExpiredAt": 0}, "verified": false, "stats": {"checkinsCount": 5, "usersCount": 5, "tipCount": 0}, "name": "padegane emam reza", "id": "562b4101498e29c7428a8de5", "allowMenuUrlEdit": true, "venueChains": [], "location": {"lng": 46.181995263081184, "address": "iran", "lat": 37.36077633937963, "labeledLatLngs": [{"label": "display", "lng": 46.181995263081184, "lat": 37.36077633937963}], "cc": "IR", "country": "Ø§ÛŒØ±Ø§Ù†", "city": "marage", "formattedAddress": ["iran (iran)", "marage", "Ø§ÛŒØ±Ø§Ù†"], "crossStreet": "iran"}}, {"referralId": "v-1505913166", "specials": {"items": [], "count": 0}, "categories": [{"name": "Art Gallery", "pluralName": "Art Galleries", "id": "4bf58dd8d48988d1e2931735", "icon": {"prefix": "https://ss3.4sqi.net/img/categories_v2/arts_entertainment/artgallery_", "suffix": ".png"}, "primary": true, "shortName": "Art Gallery"}], "hasPerk": false, "contact": {}, "beenHere": {"lastCheckinExpiredAt": 0}, "verified": false, "stats": {"checkinsCount": 4, "usersCount": 4, "tipCount": 0}, "name": "Ù¾ÙŠØ³Øª Ø§Ø³Ø¨ Ø³ÙˆØ§Ø±ÙŠ Ø§Ø°Ø±Ø±Ø®Ø´", "id": "577fc307498e3514cfab1e75", "allowMenuUrlEdit": true, "venueChains": [], "location": {"cc": "IR", "address": "Ù…Ø±Ø§ØºÙ‡", "lat": 37.360871, "labeledLatLngs": [{"label": "display", "lng": 46.179984, "lat": 37.360871}], "lng": 46.179984, "country": "Ø§ÛŒØ±Ø§Ù†", "formattedAddress": ["Ù…Ø±Ø§ØºÙ‡", "Ø§ÛŒØ±Ø§Ù†"]}}, {"referralId": "v-1505913166", "specials": {"items": [], "count": 0}, "categories": [{"name": "Automotive Shop", "pluralName": "Automotive Shops", "id": "4bf58dd8d48988d124951735", "icon": {"prefix": "https://ss3.4sqi.net/img/categories_v2/shops/automotive_", "suffix": ".png"}, "primary": true, "shortName": "Automotive"}], "hasPerk": false, "contact": {}, "beenHere": {"lastCheckinExpiredAt": 0}, "verified": false, "stats": {"checkinsCount": 2, "usersCount": 1, "tipCount": 0}, "name": "Ù†Ù…Ø§ÙŠÙ†Ø¯Ú¯ÙŠ Ø§ÙŠØ±Ø§Ù† Ø®ÙˆØ¯Ø±Ùˆ(ÙˆÙ‡Ø§Ø¨ Ù¾ÙˆØ±)", "id": "594f513de55d8b3c0b757729", "allowMenuUrlEdit": true, "venueChains": [], "location": {"cc": "IR", "lat": 37.360339, "lng": 46.179293, "labeledLatLngs": [{"label": "display", "lng": 46.179293, "lat": 37.360339}], "country": "Ø§ÛŒØ±Ø§Ù†", "state": "Ø¢Ø°Ø±Ø¨Ø§ÛŒØ¬Ø§Ù† Ø´Ø±Ù‚ÛŒ", "formattedAddress": ["Ø¢Ø°Ø±Ø¨Ø§ÛŒØ¬Ø§Ù† Ø´Ø±Ù‚ÛŒ", "Ø§ÛŒØ±Ø§Ù†"]}}, {"referralId": "v-1505913166", "specials": {"items": [], "count": 0}, "categories": [{"name": "Island", "pluralName": "Islands", "id": "50aaa4314b90af0d42d5de10", "icon": {"prefix": "https://ss3.4sqi.net/img/categories_v2/parks_outdoors/neighborhood_", "suffix": ".png"}, "primary": true, "shortName": "Island"}], "hasPerk": false, "contact": {}, "beenHere": {"lastCheckinExpiredAt": 0}, "verified": false, "stats": {"checkinsCount": 47, "usersCount": 46, "tipCount": 0}, "name": "Bonab/Ø¨Ù†Ø§Ø¨", "id": "56152f26498ed0f877eae364", "venueChains": [], "venueRatingBlacklisted": true, "location": {"cc": "IR", "lat": 37.361042694464814, "lng": 46.18037798250956, "labeledLatLngs": [{"label": "display", "lng": 46.18037798250956, "lat": 37.361042694464814}], "country": "Ø§ÛŒØ±Ø§Ù†", "formattedAddress": ["Ø§ÛŒØ±Ø§Ù†"]}}, {"referralId": "v-1505913166", "specials": {"items": [], "count": 0}, "categories": [{"name": "Military Base", "pluralName": "Military Bases", "id": "4e52adeebd41615f56317744", "icon": {"prefix": "https://ss3.4sqi.net/img/categories_v2/building/militarybase_", "suffix": ".png"}, "primary": true, "shortName": "Military Base"}], "hasPerk": false, "contact": {}, "beenHere": {"lastCheckinExpiredAt": 0}, "verified": false, "stats": {"checkinsCount": 6, "usersCount": 5, "tipCount": 0}, "name": "ÙØ±Ù…Ø§Ù†Ø¯Ù‡ÛŒ Ù¾Ø§Ø¯Ú¯Ø§Ù† Û±Û± ØªÙˆÙ¾Ø®Ø§Ù†Ù‡ Ù…Ø±Ø§ØºÙ‡", "id": "588d8ecf4f1069046a804947", "venueChains": [], "venueRatingBlacklisted": true, "location": {"cc": "IR", "lat": 37.360058, "lng": 46.16694, "labeledLatLngs": [{"label": "display", "lng": 46.16694, "lat": 37.360058}], "state": "Ø¢Ø°Ø±Ø¨Ø§ÛŒØ¬Ø§Ù† Ø´Ø±Ù‚ÛŒ", "country": "Ø§ÛŒØ±Ø§Ù†", "city": "Ù…Ø±Ø§ØºÙ‡", "formattedAddress": ["Ù…Ø±Ø§ØºÙ‡, Ø¢Ø°Ø±Ø¨Ø§ÛŒØ¬Ø§Ù† Ø´Ø±Ù‚ÛŒ", "Ø§ÛŒØ±Ø§Ù†"]}}, {"referralId": "v-1505913166", "specials": {"items": [], "count": 0}, "categories": [{"name": "Australian Restaurant", "pluralName": "Australian Restaurants", "id": "4bf58dd8d48988d169941735", "icon": {"prefix": "https://ss3.4sqi.net/img/categories_v2/food/australian_", "suffix": ".png"}, "primary": true, "shortName": "Australian"}], "hasPerk": false, "contact": {}, "beenHere": {"lastCheckinExpiredAt": 0}, "verified": false, "stats": {"checkinsCount": 8, "usersCount": 7, "tipCount": 0}, "name": "ØªØ§Ù„Ø§Ø± Ùˆ Ù…Ø¬ØªÙ…Ø¹ Ù¾Ø°ÛŒØ±Ø§ÛŒÛŒ Ø§Ø±Ù…", "id": "572cd8b1cd10a82036b35e56", "allowMenuUrlEdit": true, "venueChains": [], "location": {"state": "Ø¢Ø°Ø±Ø¨Ø§ÛŒØ¬Ø§Ù† Ø´Ø±Ù‚ÛŒ", "lng": 46.177425, "address": "Ù…Ø±Ø§ØºÙ‡", "lat": 37.35953, "labeledLatLngs": [{"label": "display", "lng": 46.177425, "lat": 37.35953}], "cc": "IR", "country": "Ø§ÛŒØ±Ø§Ù†", "city": "Ù…Ø±Ø§ØºÙ‡", "formattedAddress": ["Ù…Ø±Ø§ØºÙ‡ (Ù…ÛŒØ¯Ø§Ù† Ø¨Ø³ÛŒØ¬)", "Ù…Ø±Ø§ØºÙ‡, Ø¢Ø°Ø±Ø¨Ø§ÛŒØ¬Ø§Ù† Ø´Ø±Ù‚ÛŒ", "Ø§ÛŒØ±Ø§Ù†"], "crossStreet": "Ù…ÛŒØ¯Ø§Ù† Ø¨Ø³ÛŒØ¬"}}, {"referralId": "v-1505913167", "specials": {"items": [], "count": 0}, "categories": [{"name": "Car Wash", "pluralName": "Car Washes", "id": "4f04ae1f2fb6e1c99f3db0ba", "icon": {"prefix": "https://ss3.4sqi.net/img/categories_v2/shops/carwash_", "suffix": ".png"}, "primary": true, "shortName": "Car Washes"}], "hasPerk": false, "contact": {}, "beenHere": {"lastCheckinExpiredAt": 0}, "verified": false, "stats": {"checkinsCount": 3, "usersCount": 2, "tipCount": 0}, "name": "ÙƒØ§Ø±ÙˆØ§Ø´ Ø¯Ø§Ù„Ø§Ù‡Ùˆ", "id": "56ff5bda498e79263aa6819c", "allowMenuUrlEdit": true, "venueChains": [], "location": {"cc": "IR", "lat": 37.368979, "lng": 46.201398, "labeledLatLngs": [{"label": "display", "lng": 46.201398, "lat": 37.368979}], "country": "Ø§ÛŒØ±Ø§Ù†", "formattedAddress": ["Ø§ÛŒØ±Ø§Ù†"]}}, {"referralId": "v-1505913167", "specials": {"items": [], "count": 0}, "categories": [{"name": "Burger Joint", "pluralName": "Burger Joints", "id": "4bf58dd8d48988d16c941735", "icon": {"prefix": "https://ss3.4sqi.net/img/categories_v2/food/burger_", "suffix": ".png"}, "primary": true, "shortName": "Burgers"}], "hasPerk": false, "contact": {}, "beenHere": {"lastCheckinExpiredAt": 0}, "verified": false, "stats": {"checkinsCount": 4, "usersCount": 3, "tipCount": 0}, "name": "Ø³Ø§Ù†Ø¯ÙˆÛŒØ¬ÛŒ Ø¹Ø±ÙØ§Ù†", "id": "5646fae8498ef3dc0c244f14", "allowMenuUrlEdit": true, "venueChains": [], "location": {"cc": "IR", "address": "Ù…Ø±Ø§ØºÙ‡", "lat": 37.37044122341535, "labeledLatLngs": [{"label": "display", "lng": 46.204320907859596, "lat": 37.37044122341535}], "lng": 46.204320907859596, "country": "Ø§ÛŒØ±Ø§Ù†", "formattedAddress": ["Ù…Ø±Ø§ØºÙ‡", "Ø§ÛŒØ±Ø§Ù†"]}}, {"referralId": "v-1505913167", "specials": {"items": [], "count": 0}, "categories": [{"name": "Forest", "pluralName": "Forests", "id": "52e81612bcbc57f1066b7a23", "icon": {"prefix": "https://ss3.4sqi.net/img/categories_v2/parks_outdoors/default_", "suffix": ".png"}, "primary": true, "shortName": "Forest"}], "hasPerk": false, "contact": {}, "beenHere": {"lastCheckinExpiredAt": 0}, "verified": false, "stats": {"checkinsCount": 2, "usersCount": 1, "tipCount": 0}, "name": "Garden", "id": "57109534498e9f666f1ba5d1", "venueChains": [], "location": {"cc": "IR", "lat": 37.374275, "lng": 46.207463, "labeledLatLngs": [{"label": "display", "lng": 46.207463, "lat": 37.374275}], "country": "Ø§ÛŒØ±Ø§Ù†", "formattedAddress": ["Ø§ÛŒØ±Ø§Ù†"]}}, {"referralId": "v-1505913167", "specials": {"items": [], "count": 0}, "categories": [{"name": "Recruiting Agency", "pluralName": "Recruiting Agencies", "id": "52f2ab2ebcbc57f1066b8b57", "icon": {"prefix": "https://ss3.4sqi.net/img/categories_v2/building/default_", "suffix": ".png"}, "primary": true, "shortName": "Recruiting Agency"}], "hasPerk": false, "contact": {}, "beenHere": {"lastCheckinExpiredAt": 0}, "verified": false, "stats": {"checkinsCount": 1, "usersCount": 1, "tipCount": 0}, "name": "Ú© Û±Û±Û¹ Ø¹Ù„ÙˆÙ… Ø§Ù†Ø³Ø§Ù†ÛŒ", "id": "57f08e07498e7d49d94c6556", "venueChains": [], "venueRatingBlacklisted": true, "location": {"cc": "IR", "lat": 37.371474, "lng": 46.205419, "labeledLatLngs": [{"label": "display", "lng": 46.205419, "lat": 37.371474}], "country": "Ø§ÛŒØ±Ø§Ù†", "formattedAddress": ["Ø§ÛŒØ±Ø§Ù†"]}}, {"referralId": "v-1505913167", "specials": {"items": [], "count": 0}, "categories": [{"name": "College Classroom", "pluralName": "College Classrooms", "id": "4bf58dd8d48988d1a0941735", "icon": {"prefix": "https://ss3.4sqi.net/img/categories_v2/education/classroom_", "suffix": ".png"}, "primary": true, "shortName": "Classroom"}], "hasPerk": false, "contact": {}, "beenHere": {"lastCheckinExpiredAt": 0}, "verified": false, "stats": {"checkinsCount": 4, "usersCount": 2, "tipCount": 0}, "name": "Ú©Ù„Ø§Ø³ 218", "id": "560f8033498e97d1cb82be3d", "venueChains": [], "venueRatingBlacklisted": true, "location": {"cc": "IR", "address": "Ù¾Ù‡Ø±Ø§Ø¨Ø§Ø¯", "lat": 37.371666663613496, "labeledLatLngs": [{"label": "display", "lng": 46.20553001072221, "lat": 37.371666663613496}], "lng": 46.20553001072221, "country": "Ø§ÛŒØ±Ø§Ù†", "formattedAddress": ["Ù¾Ù‡Ø±Ø§Ø¨Ø§Ø¯", "Ø§ÛŒØ±Ø§Ù†"]}}, {"referralId": "v-1505913167", "specials": {"items": [], "count": 0}, "categories": [{"name": "College Academic Building", "pluralName": "College Academic Buildings", "id": "4bf58dd8d48988d198941735", "icon": {"prefix": "https://ss3.4sqi.net/img/categories_v2/education/academicbuilding_", "suffix": ".png"}, "primary": true, "shortName": "Academic Building"}], "hasPerk": false, "contact": {}, "beenHere": {"lastCheckinExpiredAt": 0}, "verified": false, "stats": {"checkinsCount": 6, "usersCount": 6, "tipCount": 0}, "name": "Ø· Ù¢ Ø¯Ø§Ù†Ø´ÙƒØ¯Ù‡ ÙÙ†ÙŠ Ùˆ Ù…Ù‡Ù†Ø¯Ø³ÙŠ", "id": "565ad2d9498ef675c2549410", "venueChains": [], "venueRatingBlacklisted": true, "location": {"cc": "IR", "lat": 37.37163581765055, "lng": 46.20518732188285, "labeledLatLngs": [{"label": "display", "lng": 46.20518732188285, "lat": 37.37163581765055}], "country": "Ø§ÛŒØ±Ø§Ù†", "formattedAddress": ["Ø§ÛŒØ±Ø§Ù†"]}}, {"referralId": "v-1505913167", "specials": {"items": [], "count": 0}, "categories": [{"name": "College Academic Building", "pluralName": "College Academic Buildings", "id": "4bf58dd8d48988d198941735", "icon": {"prefix": "https://ss3.4sqi.net/img/categories_v2/education/academicbuilding_", "suffix": ".png"}, "primary": true, "shortName": "Academic Building"}], "hasPerk": false, "contact": {}, "beenHere": {"lastCheckinExpiredAt": 0}, "verified": false, "stats": {"checkinsCount": 12, "usersCount": 10, "tipCount": 0}, "name": "Ø· Ù¡ Ø¯Ø§Ù†Ø´ÙƒØ¯Ù‡ ÙÙ†ÙŠ Ùˆ Ù…Ù‡Ù†Ø¯Ø³ÙŠ", "id": "5673c5ec498eec4282ce8d40", "venueChains": [], "venueRatingBlacklisted": true, "location": {"cc": "IR", "lat": 37.371953, "lng": 46.205878, "labeledLatLngs": [{"label": "display", "lng": 46.205878, "lat": 37.371953}], "country": "Ø§ÛŒØ±Ø§Ù†", "formattedAddress": ["Ø§ÛŒØ±Ø§Ù†"]}}, {"referralId": "v-1505913167", "specials": {"items": [], "count": 0}, "categories": [{"name": "College Arts Building", "pluralName": "College Arts Buildings", "id": "4bf58dd8d48988d199941735", "icon": {"prefix": "https://ss3.4sqi.net/img/categories_v2/arts_entertainment/default_", "suffix": ".png"}, "primary": true, "shortName": "Arts"}], "hasPerk": false, "contact": {}, "beenHere": {"lastCheckinExpiredAt": 0}, "verified": false, "stats": {"checkinsCount": 17, "usersCount": 6, "tipCount": 0}, "name": "ÙˆØ±ÙˆØ¯ÙŠ Ø´Ù…Ø§Ø±Ù‡ 3", "id": "5614bb62498e81840300c3dc", "venueChains": [], "venueRatingBlacklisted": true, "location": {"cc": "IR", "lat": 37.371761156701325, "lng": 46.204921206055424, "labeledLatLngs": [{"label": "display", "lng": 46.204921206055424, "lat": 37.371761156701325}], "country": "Ø§ÛŒØ±Ø§Ù†", "formattedAddress": ["Ø§ÛŒØ±Ø§Ù†"]}}, {"referralId": "v-1505913167", "specials": {"items": [], "count": 0}, "categories": [{"name": "CafÃ©", "pluralName": "CafÃ©s", "id": "4bf58dd8d48988d16d941735", "icon": {"prefix": "https://ss3.4sqi.net/img/categories_v2/food/cafe_", "suffix": ".png"}, "primary": true, "shortName": "CafÃ©"}], "hasPerk": false, "contact": {}, "beenHere": {"lastCheckinExpiredAt": 0}, "verified": false, "stats": {"checkinsCount": 8, "usersCount": 4, "tipCount": 0}, "name": "Self â˜•ï¸", "id": "56c95c0c498ed2a3c425fd46", "allowMenuUrlEdit": true, "venueChains": [], "location": {"cc": "IR", "lat": 37.372391, "lng": 46.204798, "labeledLatLngs": [{"label": "display", "lng": 46.204798, "lat": 37.372391}], "country": "Ø§ÛŒØ±Ø§Ù†", "formattedAddress": ["Ø§ÛŒØ±Ø§Ù†"]}}, {"referralId": "v-1505913167", "specials": {"items": [], "count": 0}, "categories": [{"name": "University", "pluralName": "Universities", "id": "4bf58dd8d48988d1ae941735", "icon": {"prefix": "https://ss3.4sqi.net/img/categories_v2/education/default_", "suffix": ".png"}, "primary": true, "shortName": "University"}], "hasPerk": false, "contact": {}, "beenHere": {"lastCheckinExpiredAt": 0}, "verified": false, "stats": {"checkinsCount": 1, "usersCount": 1, "tipCount": 0}, "name": "ÙƒÙ„Ø§Ø³ Ù£Ù¡Ù§ Ø¯Ø§Ù†Ø´ÙƒØ¯Ù‡ Ø¹Ù„ÙˆÙ… Ù¾Ø²Ø´ÙƒÙŠ", "id": "58a3f445f776b002cd7d88fc", "venueChains": [], "venueRatingBlacklisted": true, "location": {"cc": "IR", "lat": 37.371461, "lng": 46.205777, "labeledLatLngs": [{"label": "display", "lng": 46.205777, "lat": 37.371461}], "country": "Ø§ÛŒØ±Ø§Ù†", "formattedAddress": ["Ø§ÛŒØ±Ø§Ù†"]}}, {"referralId": "v-1505913167", "specials": {"items": [], "count": 0}, "categories": [{"name": "University", "pluralName": "Universities", "id": "4bf58dd8d48988d1ae941735", "icon": {"prefix": "https://ss3.4sqi.net/img/categories_v2/education/default_", "suffix": ".png"}, "primary": true, "shortName": "University"}], "hasPerk": false, "contact": {}, "beenHere": {"lastCheckinExpiredAt": 0}, "verified": false, "stats": {"checkinsCount": 3, "usersCount": 1, "tipCount": 0}, "name": "Ù£Ù¡Ù¢", "id": "565c3117498e715f68fd2018", "venueChains": [], "venueRatingBlacklisted": true, "location": {"cc": "IR", "lat": 37.37206685356435, "lng": 46.20532629715901, "labeledLatLngs": [{"label": "display", "lng": 46.20532629715901, "lat": 37.37206685356435}], "country": "Ø§ÛŒØ±Ø§Ù†", "formattedAddress": ["Ø§ÛŒØ±Ø§Ù†"]}}, {"referralId": "v-1505913167", "specials": {"items": [], "count": 0}, "categories": [{"name": "College Lab", "pluralName": "College Labs", "id": "4bf58dd8d48988d1a5941735", "icon": {"prefix": "https://ss3.4sqi.net/img/categories_v2/education/lab_", "suffix": ".png"}, "primary": true, "shortName": "Lab"}], "hasPerk": false, "contact": {}, "beenHere": {"lastCheckinExpiredAt": 0}, "verified": false, "stats": {"checkinsCount": 6, "usersCount": 2, "tipCount": 0}, "name": "Ø§Ø²Ù…Ø§ÙŠØ´Ú¯Ø§Ù‡ ÙÙŠØ²ÙŠÙˆÙ„ÙˆÚ˜ÙŠ Ú¯ÙŠØ§Ù‡ÙŠ", "id": "570e2e3d498ee5f151b44ae8", "venueChains": [], "venueRatingBlacklisted": true, "location": {"cc": "IR", "address": "Ø¯Ø§Ù†Ø´Ú¯Ø§Ù‡ Ø¹Ù„ÙˆÙ… Ù¾Ø²Ø´ÙƒÙŠ ğŸ€ğŸŒ¿â˜˜ğŸƒğŸ‚", "lat": 37.372004, "labeledLatLngs": [{"label": "display", "lng": 46.205107, "lat": 37.372004}], "lng": 46.205107, "country": "Ø§ÛŒØ±Ø§Ù†", "formattedAddress": ["Ø¯Ø§Ù†Ø´Ú¯Ø§Ù‡ Ø¹Ù„ÙˆÙ… Ù¾Ø²Ø´ÙƒÙŠ ğŸ€ğŸŒ¿â˜˜ğŸƒğŸ‚", "Ø§ÛŒØ±Ø§Ù†"]}}, {"referralId": "v-1505913167", "specials": {"items": [], "count": 0}, "categories": [{"name": "General College & University", "pluralName": "General Colleges & Universities", "id": "4bf58dd8d48988d1a8941735", "icon": {"prefix": "https://ss3.4sqi.net/img/categories_v2/education/other_", "suffix": ".png"}, "primary": true, "shortName": "Education"}], "hasPerk": false, "contact": {}, "beenHere": {"lastCheckinExpiredAt": 0}, "verified": false, "stats": {"checkinsCount": 7, "usersCount": 5, "tipCount": 0}, "name": "Ø²ÙŠØ± Ø²Ù…ÙŠÙ† Ø¯Ø§Ù†Ø´ÙƒØ¯Ù‡ ÙÙ†ÙŠ Ùˆ Ù…Ù‡Ù†Ø¯Ø³ÙŠ", "id": "56176b57498e0e4ac5f26d8c", "venueChains": [], "venueRatingBlacklisted": true, "location": {"cc": "IR", "lat": 37.372083, "lng": 46.205228, "labeledLatLngs": [{"label": "display", "lng": 46.205228, "lat": 37.372083}], "country": "Ø§ÛŒØ±Ø§Ù†", "formattedAddress": ["Ø§ÛŒØ±Ø§Ù†"]}}, {"referralId": "v-1505913167", "specials": {"items": [], "count": 0}, "categories": [{"name": "College Classroom", "pluralName": "College Classrooms", "id": "4bf58dd8d48988d1a0941735", "icon": {"prefix": "https://ss3.4sqi.net/img/categories_v2/education/classroom_", "suffix": ".png"}, "primary": true, "shortName": "Classroom"}], "hasPerk": false, "contact": {}, "beenHere": {"lastCheckinExpiredAt": 0}, "verified": false, "stats": {"checkinsCount": 3, "usersCount": 3, "tipCount": 0}, "name": "Ùƒ Ù£Ù¡Ù¥", "id": "561a20f8498e522fdcbe56d9", "venueChains": [], "venueRatingBlacklisted": true, "location": {"cc": "IR", "lat": 37.37166525221582, "lng": 46.2050310185051, "labeledLatLngs": [{"label": "display", "lng": 46.2050310185051, "lat": 37.37166525221582}], "country": "Ø§ÛŒØ±Ø§Ù†", "formattedAddress": ["Ø§ÛŒØ±Ø§Ù†"]}}, {"referralId": "v-1505913167", "specials": {"items": [], "count": 0}, "categories": [{"name": "College Auditorium", "pluralName": "College Auditoriums", "id": "4bf58dd8d48988d1af941735", "icon": {"prefix": "https://ss3.4sqi.net/img/categories_v2/building/auditorium_", "suffix": ".png"}, "primary": true, "shortName": "Auditorium"}], "hasPerk": false, "contact": {}, "beenHere": {"lastCheckinExpiredAt": 0}, "verified": false, "stats": {"checkinsCount": 1, "usersCount": 1, "tipCount": 0}, "name": "Ø¢Ù…ÙÙŠ ØªØ¦Ø§ØªØ± Ø¯Ø§Ù†Ø´Ú¯Ø§Ù‡ Ø§Ø²Ø§Ø¯ Ø§Ø³Ù„Ø§Ù…ÙŠ ÙˆØ§Ø­Ø¯ Ù…Ø±Ø§ØºÙ‡", "id": "58b271bf5804ea3ce7b4cee4", "venueChains": [], "venueRatingBlacklisted": true, "location": {"cc": "IR", "lat": 37.37189, "lng": 46.205608, "labeledLatLngs": [{"label": "display", "lng": 46.205608, "lat": 37.37189}], "country": "Ø§ÛŒØ±Ø§Ù†", "formattedAddress": ["Ø§ÛŒØ±Ø§Ù†"]}}, {"referralId": "v-1505913167", "specials": {"items": [], "count": 0}, "categories": [{"name": "College Classroom", "pluralName": "College Classrooms", "id": "4bf58dd8d48988d1a0941735", "icon": {"prefix": "https://ss3.4sqi.net/img/categories_v2/education/classroom_", "suffix": ".png"}, "primary": true, "shortName": "Classroom"}], "hasPerk": false, "contact": {}, "beenHere": {"lastCheckinExpiredAt": 0}, "verified": false, "stats": {"checkinsCount": 2, "usersCount": 2, "tipCount": 0}, "name": "Ø±Ø¯ÙŠÙ Ù¢ ÙƒÙ„Ø§Ø³ Ù¢Ù¡Ù§", "id": "566d02be498e58d3af971966", "venueChains": [], "venueRatingBlacklisted": true, "location": {"cc": "IR", "lat": 37.371523, "lng": 46.205489, "labeledLatLngs": [{"label": "display", "lng": 46.205489, "lat": 37.371523}], "country": "Ø§ÛŒØ±Ø§Ù†", "formattedAddress": ["Ø§ÛŒØ±Ø§Ù†"]}}, {"referralId": "v-1505913167", "specials": {"items": [], "count": 0}, "categories": [{"name": "College Engineering Building", "pluralName": "College Engineering Buildings", "id": "4bf58dd8d48988d19e941735", "icon": {"prefix": "https://ss3.4sqi.net/img/categories_v2/education/collegeacademicbuildings_engineering_", "suffix": ".png"}, "primary": true, "shortName": "Engineering"}], "hasPerk": false, "contact": {}, "beenHere": {"lastCheckinExpiredAt": 0}, "verified": false, "stats": {"checkinsCount": 10, "usersCount": 3, "tipCount": 0}, "name": "Ø¨Ø§Ø´Ú¯Ø§Ù‡ Ù¾Ú˜ÙˆÙ‡Ø´Ú¯Ø±Ø§Ù† ğŸ“š", "id": "56c9a711498e5b0d3886303a", "venueChains": [], "venueRatingBlacklisted": true, "location": {"cc": "IR", "lat": 37.371276312238514, "lng": 46.20595921807637, "labeledLatLngs": [{"label": "display", "lng": 46.20595921807637, "lat": 37.371276312238514}], "country": "Ø§ÛŒØ±Ø§Ù†", "formattedAddress": ["Ø§ÛŒØ±Ø§Ù†"]}}, {"referralId": "v-1505913167", "specials": {"items": [], "count": 0}, "categories": [{"name": "College Classroom", "pluralName": "College Classrooms", "id": "4bf58dd8d48988d1a0941735", "icon": {"prefix": "https://ss3.4sqi.net/img/categories_v2/education/classroom_", "suffix": ".png"}, "primary": true, "shortName": "Classroom"}], "hasPerk": false, "contact": {}, "beenHere": {"lastCheckinExpiredAt": 0}, "verified": false, "stats": {"checkinsCount": 3, "usersCount": 3, "tipCount": 0}, "name": "ÙƒÙ„Ø§Ø³ Ù¡Ù¡Ù©", "id": "561a042a498ea95ebe57d658", "venueChains": [], "venueRatingBlacklisted": true, "location": {"cc": "IR", "lat": 37.37125039255533, "lng": 46.20515626325395, "labeledLatLngs": [{"label": "display", "lng": 46.20515626325395, "lat": 37.37125039255533}], "country": "Ø§ÛŒØ±Ø§Ù†", "formattedAddress": ["Ø§ÛŒØ±Ø§Ù†"]}}, {"referralId": "v-1505913167", "specials": {"items": [], "count": 0}, "categories": [{"name": "College Classroom", "pluralName": "College Classrooms", "id": "4bf58dd8d48988d1a0941735", "icon": {"prefix": "https://ss3.4sqi.net/img/categories_v2/education/classroom_", "suffix": ".png"}, "primary": true, "shortName": "Classroom"}], "hasPerk": false, "contact": {}, "beenHere": {"lastCheckinExpiredAt": 0}, "verified": false, "stats": {"checkinsCount": 26, "usersCount": 4, "tipCount": 0}, "name": "Ùƒ Ù¨Ù¢Ù£ Ø¯Ø§Ù†Ø´ÙƒØ¯Ù‡ ÙÙ†ÙŠ", "id": "5627982a498e93d83269a9c5", "venueChains": [], "venueRatingBlacklisted": true, "location": {"cc": "IR", "lat": 37.37196748145635, "lng": 46.20541459445395, "labeledLatLngs": [{"label": "display", "lng": 46.20541459445395, "lat": 37.37196748145635}], "country": "Ø§ÛŒØ±Ø§Ù†", "formattedAddress": ["Ø§ÛŒØ±Ø§Ù†"]}}, {"referralId": "v-1505913167", "specials": {"items": [], "count": 0}, "categories": [{"name": "College Classroom", "pluralName": "College Classrooms", "id": "4bf58dd8d48988d1a0941735", "icon": {"prefix": "https://ss3.4sqi.net/img/categories_v2/education/classroom_", "suffix": ".png"}, "primary": true, "shortName": "Classroom"}], "hasPerk": false, "contact": {}, "beenHere": {"lastCheckinExpiredAt": 0}, "verified": false, "stats": {"checkinsCount": 8, "usersCount": 4, "tipCount": 0}, "name": "Ùƒ Ù¢Ù¡Ù§", "id": "5648153438fa3af5aa61dd8b", "venueChains": [], "venueRatingBlacklisted": true, "location": {"cc": "IR", "lat": 37.371575167085744, "lng": 46.20515536332618, "labeledLatLngs": [{"label": "display", "lng": 46.20515536332618, "lat": 37.371575167085744}], "country": "Ø§ÛŒØ±Ø§Ù†", "formattedAddress": ["Ø§ÛŒØ±Ø§Ù†"]}}, {"referralId": "v-1505913167", "specials": {"items": [], "count": 0}, "categories": [{"name": "Car Wash", "pluralName": "Car Washes", "id": "4f04ae1f2fb6e1c99f3db0ba", "icon": {"prefix": "https://ss3.4sqi.net/img/categories_v2/shops/carwash_", "suffix": ".png"}, "primary": true, "shortName": "Car Washes"}], "hasPerk": false, "contact": {}, "beenHere": {"lastCheckinExpiredAt": 0}, "verified": false, "stats": {"checkinsCount": 1, "usersCount": 1, "tipCount": 0}, "name": "Carwash Kaveh / ÙƒØ§Ø±ÙˆØ§Ø´ ÙƒØ§ÙˆÙ‡", "id": "573e95bf498e5c51f2c46435", "allowMenuUrlEdit": true, "venueChains": [], "location": {"cc": "IR", "address": "Ø¨Ø§Ù„Ø§ØªØ± Ø§Ø² Ø¯Ø§Ù†Ø´Ú¯Ø§Ù‡ Ø¢Ø²Ø§Ø¯", "lat": 37.369594, "labeledLatLngs": [{"label": "display", "lng": 46.202305, "lat": 37.369594}], "lng": 46.202305, "country": "Ø§ÛŒØ±Ø§Ù†", "city": "Ù…Ø±Ø§ØºÙ‡", "formattedAddress": ["Ø¨Ø§Ù„Ø§ØªØ± Ø§Ø² Ø¯Ø§Ù†Ø´Ú¯Ø§Ù‡ Ø¢Ø²Ø§Ø¯", "Ù…Ø±Ø§ØºÙ‡, Ø¢Ø°Ø±Ø¨Ø§ÛŒØ¬Ø§Ù† Ø´Ø±Ù‚ÛŒ", "Ø§ÛŒØ±Ø§Ù†"], "state": "Ø¢Ø°Ø±Ø¨Ø§ÛŒØ¬Ø§Ù† Ø´Ø±Ù‚ÛŒ"}}, {"referralId": "v-1505913167", "specials": {"items": [], "count": 0}, "categories": [{"name": "Restaurant", "pluralName": "Restaurants", "id": "4bf58dd8d48988d1c4941735", "icon": {"prefix": "https://ss3.4sqi.net/img/categories_v2/food/default_", "suffix": ".png"}, "primary": true, "shortName": "Restaurant"}], "hasPerk": false, "contact": {}, "beenHere": {"lastCheckinExpiredAt": 0}, "verified": false, "stats": {"checkinsCount": 33, "usersCount": 31, "tipCount": 0}, "name": "Ú©Ø¨Ø§Ø¨ÛŒâ€ŒØ§Ù…ÛŒØ±â€ŒÚ©Ø¨ÛŒØ±â€ŒÙ…Ø±Ø§ØºÙ‡", "id": "5603b38d498e72daa6f5f90a", "allowMenuUrlEdit": true, "venueChains": [], "location": {"cc": "IR", "address": "Ù…Ø±Ø§ØºÙ‡", "lat": 37.40122240986668, "labeledLatLngs": [{"label": "display", "lng": 46.23376242609087, "lat": 37.40122240986668}], "lng": 46.23376242609087, "country": "Ø§ÛŒØ±Ø§Ù†", "formattedAddress": ["Ù…Ø±Ø§ØºÙ‡", "Ø§ÛŒØ±Ø§Ù†"]}}, {"referralId": "v-1505913167", "specials": {"items": [], "count": 0}, "categories": [{"name": "College Classroom", "pluralName": "College Classrooms", "id": "4bf58dd8d48988d1a0941735", "icon": {"prefix": "https://ss3.4sqi.net/img/categories_v2/education/classroom_", "suffix": ".png"}, "primary": true, "shortName": "Classroom"}], "hasPerk": false, "contact": {}, "beenHere": {"lastCheckinExpiredAt": 0}, "verified": false, "stats": {"checkinsCount": 11, "usersCount": 6, "tipCount": 0}, "name": "ÙƒÙ„Ø§Ø³Ù¢Ù¡Ù¡", "id": "5708e9e2498e95100de3d69a", "venueChains": [], "venueRatingBlacklisted": true, "location": {"cc": "IR", "lat": 37.371719, "lng": 46.205337, "labeledLatLngs": [{"label": "display", "lng": 46.205337, "lat": 37.371719}], "country": "Ø§ÛŒØ±Ø§Ù†", "formattedAddress": ["Ø§ÛŒØ±Ø§Ù†"]}}, {"referralId": "v-1505913167", "specials": {"items": [], "count": 0}, "categories": [{"name": "College Academic Building", "pluralName": "College Academic Buildings", "id": "4bf58dd8d48988d198941735", "icon": {"prefix": "https://ss3.4sqi.net/img/categories_v2/education/academicbuilding_", "suffix": ".png"}, "primary": true, "shortName": "Academic Building"}], "hasPerk": false, "contact": {}, "beenHere": {"lastCheckinExpiredAt": 0}, "verified": false, "stats": {"checkinsCount": 2, "usersCount": 2, "tipCount": 0}, "name": "ÙƒÙ„Ø§Ø³ ØªØ­Ù„ÙŠÙ„ Ù¢ Ø§Ø³ØªØ§Ø¯ Ø§Ù…Ø±ÙŠ", "id": "5665723d498e00eeccca760e", "venueChains": [], "venueRatingBlacklisted": true, "location": {"cc": "IR", "lat": 37.371872, "lng": 46.205319, "labeledLatLngs": [{"label": "display", "lng": 46.205319, "lat": 37.371872}], "country": "Ø§ÛŒØ±Ø§Ù†", "formattedAddress": ["Ø§ÛŒØ±Ø§Ù†"]}}, {"referralId": "v-1505913167", "specials": {"items": [], "count": 0}, "categories": [{"name": "Ballroom", "pluralName": "Ballrooms", "id": "56aa371be4b08b9a8d5734cf", "icon": {"prefix": "https://ss3.4sqi.net/img/categories_v2/building/default_", "suffix": ".png"}, "primary": true, "shortName": "Ballroom"}], "hasPerk": false, "contact": {}, "beenHere": {"lastCheckinExpiredAt": 0}, "verified": false, "stats": {"checkinsCount": 1, "usersCount": 1, "tipCount": 0}, "name": "Ú©Ù„Ø§Ø³ 217 Ø¯ÛŒÙ†Ø§Ù…ÛŒÚ© Ù¾ÛŒØ´Ø±ÙØªÙ‡ Ø¯Ú©ØªØ± Ù…Ù„Ú©ÛŒ", "id": "585cbd8345005e7adc3e445e", "venueChains": [], "venueRatingBlacklisted": true, "location": {"cc": "IR", "lat": 37.371365, "lng": 46.20543, "labeledLatLngs": [{"label": "display", "lng": 46.20543, "lat": 37.371365}], "state": "Ø¢Ø°Ø±Ø¨Ø§ÛŒØ¬Ø§Ù† Ø´Ø±Ù‚ÛŒ", "country": "Ø§ÛŒØ±Ø§Ù†", "city": "Ù…Ø±Ø§ØºÙ‡", "formattedAddress": ["Ù…Ø±Ø§ØºÙ‡, Ø¢Ø°Ø±Ø¨Ø§ÛŒØ¬Ø§Ù† Ø´Ø±Ù‚ÛŒ", "Ø§ÛŒØ±Ø§Ù†"]}}, {"referralId": "v-1505913167", "specials": {"items": [], "count": 0}, "categories": [{"name": "Factory", "pluralName": "Factories", "id": "4eb1bea83b7b6f98df247e06", "icon": {"prefix": "https://ss3.4sqi.net/img/categories_v2/building/factory_", "suffix": ".png"}, "primary": true, "shortName": "Factory"}], "hasPerk": false, "contact": {}, "beenHere": {"lastCheckinExpiredAt": 0}, "verified": false, "stats": {"checkinsCount": 3, "usersCount": 3, "tipCount": 0}, "name": "Ø´Ù‡Ø¯ Ø³Ù‡Ù†Ø¯", "id": "57149217498ea53db6ec33b5", "venueChains": [], "venueRatingBlacklisted": true, "location": {"cc": "IR", "lat": 37.37264, "lng": 46.207246, "labeledLatLngs": [{"label": "display", "lng": 46.207246, "lat": 37.37264}], "country": "Ø§ÛŒØ±Ø§Ù†", "formattedAddress": ["Ø§ÛŒØ±Ø§Ù†"]}}, {"referralId": "v-1505913167", "specials": {"items": [], "count": 0}, "categories": [{"name": "Asian Restaurant", "pluralName": "Asian Restaurants", "id": "4bf58dd8d48988d142941735", "icon": {"prefix": "https://ss3.4sqi.net/img/categories_v2/food/asian_", "suffix": ".png"}, "primary": true, "shortName": "Asian"}], "hasPerk": false, "contact": {}, "beenHere": {"lastCheckinExpiredAt": 0}, "verified": false, "stats": {"checkinsCount": 3, "usersCount": 3, "tipCount": 0}, "name": "Ø¯Ø§Ù†Ø´Ú¯Ø§Ù‡ Ø¢Ø²Ø§Ø¯ Ø§Ø³Ù„Ø§Ù…ÙŠ ÙˆØ§Ø­Ø¯ Ù…Ø±Ø§ØºÙ‡ ØŒ Ø¨ÙˆÙÙ‡ Ø¨Ø±Ø§Ø¯Ø±Ø§Ù†", "id": "582ff8519900e64a56530d87", "allowMenuUrlEdit": true, "venueChains": [], "location": {"cc": "IR", "lat": 37.372451, "lng": 46.204998, "labeledLatLngs": [{"label": "display", "lng": 46.204998, "lat": 37.372451}], "country": "Ø§ÛŒØ±Ø§Ù†", "formattedAddress": ["Ø§ÛŒØ±Ø§Ù†"]}}, {"referralId": "v-1505913167", "specials": {"items": [], "count": 0}, "categories": [{"name": "College Engineering Building", "pluralName": "College Engineering Buildings", "id": "4bf58dd8d48988d19e941735", "icon": {"prefix": "https://ss3.4sqi.net/img/categories_v2/education/collegeacademicbuildings_engineering_", "suffix": ".png"}, "primary": true, "shortName": "Engineering"}], "hasPerk": false, "contact": {}, "beenHere": {"lastCheckinExpiredAt": 0}, "verified": false, "stats": {"checkinsCount": 1, "usersCount": 1, "tipCount": 0}, "name": "218 ğŸ˜¶", "id": "56caaf3acd10c7b2eec83164", "venueChains": [], "venueRatingBlacklisted": true, "location": {"cc": "IR", "lat": 37.371446, "lng": 46.205784, "labeledLatLngs": [{"label": "display", "lng": 46.205784, "lat": 37.371446}], "country": "Ø§ÛŒØ±Ø§Ù†", "formattedAddress": ["Ø§ÛŒØ±Ø§Ù†"]}}, {"referralId": "v-1505913167", "specials": {"items": [], "count": 0}, "categories": [{"name": "College Lab", "pluralName": "College Labs", "id": "4bf58dd8d48988d1a5941735", "icon": {"prefix": "https://ss3.4sqi.net/img/categories_v2/education/lab_", "suffix": ".png"}, "primary": true, "shortName": "Lab"}], "hasPerk": false, "contact": {}, "beenHere": {"lastCheckinExpiredAt": 0}, "verified": false, "stats": {"checkinsCount": 5, "usersCount": 1, "tipCount": 0}, "name": "Ø§Ø²Ù…Ø§ÙŠØ´Ú¯Ø§Ù‡ Ø§ÙŠÙ…ÙˆÙ†ÙˆÙ„ÙˆÚ˜ÙŠ", "id": "56d572c4498e2db7238c028b", "venueChains": [], "venueRatingBlacklisted": true, "location": {"cc": "IR", "address": "Ø¯Ø§Ù†Ø´Ú¯Ø§Ù‡ Ø¹Ù„ÙˆÙ… Ù¾Ø²Ø´ÙƒÙŠğŸ’‰ğŸ”¬ğŸ“", "lat": 37.372133, "labeledLatLngs": [{"label": "display", "lng": 46.204037, "lat": 37.372133}], "lng": 46.204037, "country": "Ø§ÛŒØ±Ø§Ù†", "formattedAddress": ["Ø¯Ø§Ù†Ø´Ú¯Ø§Ù‡ Ø¹Ù„ÙˆÙ… Ù¾Ø²Ø´ÙƒÙŠğŸ’‰ğŸ”¬ğŸ“", "Ø§ÛŒØ±Ø§Ù†"]}}, {"referralId": "v-1505913167", "specials": {"items": [], "count": 0}, "categories": [{"name": "Factory", "pluralName": "Factories", "id": "4eb1bea83b7b6f98df247e06", "icon": {"prefix": "https://ss3.4sqi.net/img/categories_v2/building/factory_", "suffix": ".png"}, "primary": true, "shortName": "Factory"}], "hasPerk": false, "contact": {}, "beenHere": {"lastCheckinExpiredAt": 0}, "verified": false, "stats": {"checkinsCount": 1, "usersCount": 1, "tipCount": 0}, "name": "Ø¨ÙˆØªØ§Ù† Ú¯Ø§Ø²", "id": "55aa5bf9498e89610b1230e8", "venueChains": [], "venueRatingBlacklisted": true, "location": {"cc": "IR", "lat": 37.362613, "lng": 46.202934, "labeledLatLngs": [{"label": "display", "lng": 46.202934, "lat": 37.362613}], "country": "Ø§ÛŒØ±Ø§Ù†", "formattedAddress": ["Ø§ÛŒØ±Ø§Ù†"]}}, {"referralId": "v-1505913168", "specials": {"items": [], "count": 0}, "categories": [{"name": "Bike Trail", "pluralName": "Bike Trails", "id": "56aa371be4b08b9a8d57355e", "icon": {"prefix": "https://ss3.4sqi.net/img/categories_v2/parks_outdoors/hikingtrail_", "suffix": ".png"}, "primary": true, "shortName": "Bike Trail"}], "hasPerk": false, "contact": {}, "beenHere": {"lastCheckinExpiredAt": 0}, "verified": false, "stats": {"checkinsCount": 2, "usersCount": 2, "tipCount": 0}, "name": "fabrikamÄ±z", "id": "57d29b4b498ed439ceda3793", "venueChains": [], "location": {"state": "Ø¢Ø°Ø±Ø¨Ø§ÛŒØ¬Ø§Ù† Ø´Ø±Ù‚ÛŒ", "lng": 46.235203, "address": "Ø´Ù‡Ø±Ú© ØµÙ†Ø¹ØªÛŒ Ù…Ø±Ø§ØºÙ‡", "lat": 37.376459, "labeledLatLngs": [{"label": "display", "lng": 46.235203, "lat": 37.376459}], "cc": "IR", "country": "Ø§ÛŒØ±Ø§Ù†", "city": "Ù…Ø±Ø§ØºÙ‡", "formattedAddress": ["Ø´Ù‡Ø±Ú© ØµÙ†Ø¹ØªÛŒ Ù…Ø±Ø§ØºÙ‡ (Ø´Ù‡Ø±Ú© ØµÙ†Ø¹ØªÛŒ)", "Ù…Ø±Ø§ØºÙ‡, Ø¢Ø°Ø±Ø¨Ø§ÛŒØ¬Ø§Ù† Ø´Ø±Ù‚ÛŒ", "Ø§ÛŒØ±Ø§Ù†"], "crossStreet": "Ø´Ù‡Ø±Ú© ØµÙ†Ø¹ØªÛŒ"}}, {"referralId": "v-1505913168", "specials": {"items": [], "count": 0}, "categories": [{"name": "Kebab Restaurant", "pluralName": "Kebab Restaurants", "id": "5283c7b4e4b094cb91ec88d7", "icon": {"prefix": "https://ss3.4sqi.net/img/categories_v2/food/middleeastern_", "suffix": ".png"}, "primary": true, "shortName": "Kebab"}], "hasPerk": false, "contact": {}, "beenHere": {"lastCheckinExpiredAt": 0}, "verified": false, "stats": {"checkinsCount": 5, "usersCount": 3, "tipCount": 0}, "name": "ÙƒØ¨Ø§Ø¨ Ø³Ù†ØªÙŠ Ø­ÙŠØ¯Ø±Ø¨Ø§Ø¨Ø§", "id": "57a61a7a498efae5c6aff5bf", "allowMenuUrlEdit": true, "venueChains": [], "location": {"cc": "IR", "lat": 37.37865, "lng": 46.241675, "labeledLatLngs": [{"label": "display", "lng": 46.241675, "lat": 37.37865}], "country": "Ø§ÛŒØ±Ø§Ù†", "formattedAddress": ["Ø§ÛŒØ±Ø§Ù†"]}}, {"referralId": "v-1505913168", "specials": {"items": [], "count": 0}, "categories": [{"name": "Road", "pluralName": "Roads", "id": "4bf58dd8d48988d1f9931735", "icon": {"prefix": "https://ss3.4sqi.net/img/categories_v2/travel/highway_", "suffix": ".png"}, "primary": true, "shortName": "Road"}], "hasPerk": false, "contact": {}, "beenHere": {"lastCheckinExpiredAt": 0}, "verified": false, "stats": {"checkinsCount": 17, "usersCount": 12, "tipCount": 0}, "name": "Ù…ÛŒØ¯Ø§Ù† Ø§Ø³ØªØ§Ù†Ø¯Ø§Ø±Ø¯", "id": "56e58d4e498e00f878f6cd0b", "venueChains": [], "venueRatingBlacklisted": true, "location": {"cc": "IR", "address": "Ù…Ø±Ø§ØºÙ‡", "lat": 37.37862163946627, "labeledLatLngs": [{"label": "display", "lng": 46.23777059428092, "lat": 37.37862163946627}], "lng": 46.23777059428092, "country": "Ø§ÛŒØ±Ø§Ù†", "city": "Ù…Ø±Ø§ØºÙ‡", "formattedAddress": ["Ù…Ø±Ø§ØºÙ‡", "Ù…Ø±Ø§ØºÙ‡, Ø¢Ø°Ø±Ø¨Ø§ÛŒØ¬Ø§Ù† Ø´Ø±Ù‚ÛŒ", "Ø§ÛŒØ±Ø§Ù†"], "state": "Ø¢Ø°Ø±Ø¨Ø§ÛŒØ¬Ø§Ù† Ø´Ø±Ù‚ÛŒ"}}, {"referralId": "v-1505913168", "specials": {"items": [], "count": 0}, "categories": [{"name": "Garden", "pluralName": "Gardens", "id": "4bf58dd8d48988d15a941735", "icon": {"prefix": "https://ss3.4sqi.net/img/categories_v2/parks_outdoors/garden_", "suffix": ".png"}, "primary": true, "shortName": "Garden"}], "hasPerk": false, "contact": {}, "beenHere": {"lastCheckinExpiredAt": 0}, "verified": false, "stats": {"checkinsCount": 1, "usersCount": 1, "tipCount": 0}, "name": "nana toraj's garden", "id": "58c84086966e555f5677747f", "venueChains": [], "location": {"cc": "IR", "lat": 37.358943, "lng": 46.230125, "labeledLatLngs": [{"label": "display", "lng": 46.230125, "lat": 37.358943}], "country": "Ø§ÛŒØ±Ø§Ù†", "formattedAddress": ["Ø§ÛŒØ±Ø§Ù†"]}}, {"referralId": "v-1505913168", "specials": {"items": [], "count": 0}, "categories": [{"name": "Salon / Barbershop", "pluralName": "Salons / Barbershops", "id": "4bf58dd8d48988d110951735", "icon": {"prefix": "https://ss3.4sqi.net/img/categories_v2/shops/salon_barber_", "suffix": ".png"}, "primary": true, "shortName": "Salon / Barbershop"}], "hasPerk": false, "contact": {}, "beenHere": {"lastCheckinExpiredAt": 0}, "verified": false, "stats": {"checkinsCount": 3, "usersCount": 1, "tipCount": 0}, "name": "Ù¾ÛŒØ±Ø§ÛŒØ´ Ø³ÛŒÙ†Ø§", "id": "58c79dae24f61166cff68148", "allowMenuUrlEdit": true, "venueChains": [], "location": {"cc": "IR", "address": "Ø§ØªÙˆØ¨Ø§Ù† Ø§Ù…ÛŒØ±Ú©Ø¨ÛŒØ±", "lat": 37.3684, "labeledLatLngs": [{"label": "display", "lng": 46.25715, "lat": 37.3684}], "lng": 46.25715, "country": "Ø§ÛŒØ±Ø§Ù†", "formattedAddress": ["Ø§ØªÙˆØ¨Ø§Ù† Ø§Ù…ÛŒØ±Ú©Ø¨ÛŒØ±", "Ø§ÛŒØ±Ø§Ù†"]}}, {"referralId": "v-1505913168", "specials": {"items": [], "count": 0}, "categories": [{"name": "Auto Garage", "pluralName": "Auto Garages", "id": "52f2ab2ebcbc57f1066b8b44", "icon": {"prefix": "https://ss3.4sqi.net/img/categories_v2/shops/automotive_", "suffix": ".png"}, "primary": true, "shortName": "Auto Garage"}], "hasPerk": false, "contact": {}, "beenHere": {"lastCheckinExpiredAt": 0}, "verified": false, "stats": {"checkinsCount": 17, "usersCount": 11, "tipCount": 0}, "name": "Ù…ÙŠØ¯Ø§Ù† Ø±Ø§Ù‡ Ø§Ù‡Ù† Ù¾Ø§Ø±ÙƒÙŠÙ†Ú¯ Ø³Ù‡Ù†Ø¯", "id": "5885ce972321c67ec5b03050", "allowMenuUrlEdit": true, "venueChains": [], "location": {"cc": "IR", "lat": 37.379294, "lng": 46.240177, "labeledLatLngs": [{"label": "display", "lng": 46.240177, "lat": 37.379294}], "country": "Ø§ÛŒØ±Ø§Ù†", "formattedAddress": ["Ø§ÛŒØ±Ø§Ù†"]}}, {"referralId": "v-1505913168", "specials": {"items": [], "count": 0}, "categories": [{"name": "Other Nightlife", "pluralName": "Other Nightlife", "id": "4bf58dd8d48988d11a941735", "icon": {"prefix": "https://ss3.4sqi.net/img/categories_v2/nightlife/default_", "suffix": ".png"}, "primary": true, "shortName": "Nightlife"}], "hasPerk": false, "contact": {}, "beenHere": {"lastCheckinExpiredAt": 0}, "verified": false, "stats": {"checkinsCount": 19, "usersCount": 1, "tipCount": 0}, "name": "GM Home", "id": "58b4bbc8ef787f79b4a21fe5", "allowMenuUrlEdit": true, "private": true, "venueChains": [], "location": {"cc": "IR", "address": "Ø§ØªÙˆØ¨Ø§Ù† Ø§Ù…ÛŒØ±Ú©Ø¨ÛŒØ±", "lat": 37.373386, "labeledLatLngs": [{"label": "display", "lng": 46.257904, "lat": 37.373386}], "lng": 46.257904, "country": "Ø§ÛŒØ±Ø§Ù†", "city": "Ù…Ø±Ø§ØºÙ‡", "formattedAddress": ["Ø§ØªÙˆØ¨Ø§Ù† Ø§Ù…ÛŒØ±Ú©Ø¨ÛŒØ±", "Ù…Ø±Ø§ØºÙ‡, Ø´Ù…Ø§Ù„ ØºØ±Ø¨", "Ø§ÛŒØ±Ø§Ù†"], "state": "Ø´Ù…Ø§Ù„ ØºØ±Ø¨"}}, {"referralId": "v-1505913168", "specials": {"items": [], "count": 0}, "categories": [{"name": "Assisted Living", "pluralName": "Assisted Living", "id": "5032891291d4c4b30a586d68", "icon": {"prefix": "https://ss3.4sqi.net/img/categories_v2/building/apartment_", "suffix": ".png"}, "primary": true, "shortName": "Assisted Living"}], "hasPerk": false, "contact": {}, "beenHere": {"lastCheckinExpiredAt": 0}, "verified": false, "stats": {"checkinsCount": 6, "usersCount": 4, "tipCount": 0}, "name": "ÛŒÙˆØ³Ù Ø¢Ø¨Ø§Ø¯", "id": "56d6ec9b498e95a4cfb714c4", "venueChains": [], "venueRatingBlacklisted": true, "location": {"cc": "IR", "lat": 37.379105, "lng": 46.237984, "labeledLatLngs": [{"label": "display", "lng": 46.237984, "lat": 37.379105}], "country": "Ø§ÛŒØ±Ø§Ù†", "formattedAddress": ["Ø§ÛŒØ±Ø§Ù†"]}}, {"referralId": "v-1505913168", "specials": {"items": [], "count": 0}, "categories": [{"name": "Street Food Gathering", "pluralName": "Street Food Gatherings", "id": "53e0feef498e5aac066fd8a9", "icon": {"prefix": "https://ss3.4sqi.net/img/categories_v2/food/streetfood_", "suffix": ".png"}, "primary": true, "shortName": "Street Food Gathering"}], "hasPerk": false, "contact": {}, "beenHere": {"lastCheckinExpiredAt": 0}, "verified": false, "stats": {"checkinsCount": 9, "usersCount": 4, "tipCount": 0}, "name": "golshahr", "id": "58abf2824988da0f65754c02", "allowMenuUrlEdit": true, "venueChains": [], "location": {"cc": "IR", "lat": 37.378482, "lng": 46.25095, "labeledLatLngs": [{"label": "display", "lng": 46.25095, "lat": 37.378482}], "country": "Ø§ÛŒØ±Ø§Ù†", "formattedAddress": ["Ø§ÛŒØ±Ø§Ù†"]}}, {"referralId": "v-1505913168", "specials": {"items": [], "count": 0}, "categories": [{"name": "Auto Workshop", "pluralName": "Auto Workshops", "id": "56aa371be4b08b9a8d5734d3", "icon": {"prefix": "https://ss3.4sqi.net/img/categories_v2/shops/automotive_", "suffix": ".png"}, "primary": true, "shortName": "Auto Workshop"}], "hasPerk": false, "contact": {}, "beenHere": {"lastCheckinExpiredAt": 0}, "verified": false, "stats": {"checkinsCount": 16, "usersCount": 10, "tipCount": 0}, "name": "Ø§ÙŠØ±Ø§Ù† Ø®ÙˆØ¯Ø±Ùˆ(Ø³Ø§Ø¹Ø¯Ù‰)", "id": "575d13e9498ebb36b7117bb5", "allowMenuUrlEdit": true, "venueChains": [], "location": {"cc": "IR", "lat": 37.364058, "lng": 46.2609, "labeledLatLngs": [{"label": "display", "lng": 46.2609, "lat": 37.364058}], "country": "Ø§ÛŒØ±Ø§Ù†", "formattedAddress": ["Ø§ÛŒØ±Ø§Ù†"]}}, {"referralId": "v-1505913168", "specials": {"items": [], "count": 0}, "categories": [{"name": "Community Center", "pluralName": "Community Centers", "id": "52e81612bcbc57f1066b7a34", "icon": {"prefix": "https://ss3.4sqi.net/img/categories_v2/building/default_", "suffix": ".png"}, "primary": true, "shortName": "Community Center"}], "hasPerk": false, "contact": {}, "beenHere": {"lastCheckinExpiredAt": 0}, "verified": false, "stats": {"checkinsCount": 4, "usersCount": 4, "tipCount": 0}, "name": "ØºØ§Ø± Ø¢Ø¨ÙŠ(Ù‡Ø§Ù…Ù¾ÙˆÙŠÙŠÙ„)", "id": "56055312498e16b731088990", "venueChains": [], "venueRatingBlacklisted": true, "location": {"cc": "IR", "lat": 37.365478, "lng": 46.259952, "labeledLatLngs": [{"label": "display", "lng": 46.259952, "lat": 37.365478}], "country": "Ø§ÛŒØ±Ø§Ù†", "formattedAddress": ["Ø§ÛŒØ±Ø§Ù†"]}}, {"referralId": "v-1505913168", "specials": {"items": [], "count": 0}, "categories": [{"name": "Factory", "pluralName": "Factories", "id": "4eb1bea83b7b6f98df247e06", "icon": {"prefix": "https://ss3.4sqi.net/img/categories_v2/building/factory_", "suffix": ".png"}, "primary": true, "shortName": "Factory"}], "hasPerk": false, "contact": {}, "beenHere": {"lastCheckinExpiredAt": 0}, "verified": false, "stats": {"checkinsCount": 4, "usersCount": 4, "tipCount": 0}, "name": "Ø³ÙŠÙ„Ùˆ Ù…Ø±Ø§ØºÙ‡", "id": "57834c0e498e6150d5c45756", "venueChains": [], "venueRatingBlacklisted": true, "location": {"state": "Ø¢Ø°Ø±Ø¨Ø§ÛŒØ¬Ø§Ù† Ø´Ø±Ù‚ÛŒ", "lng": 46.243748, "address": "Ù…Ø±Ø§ØºÙ‡", "lat": 37.375672, "labeledLatLngs": [{"label": "display", "lng": 46.243748, "lat": 37.375672}], "cc": "IR", "country": "Ø§ÛŒØ±Ø§Ù†", "city": "Ù…Ø±Ø§ØºÙ‡", "formattedAddress": ["Ù…Ø±Ø§ØºÙ‡ (Ø±Ø§Ù‡ Ø¢Ù‡Ù†)", "Ù…Ø±Ø§ØºÙ‡, Ø¢Ø°Ø±Ø¨Ø§ÛŒØ¬Ø§Ù† Ø´Ø±Ù‚ÛŒ Ù¡Ù¡Ù¡Ù¡Ù¡", "Ø§ÛŒØ±Ø§Ù†"], "crossStreet": "Ø±Ø§Ù‡ Ø¢Ù‡Ù†", "postalCode": "Ù¡Ù¡Ù¡Ù¡Ù¡"}}, {"referralId": "v-1505913168", "specials": {"items": [], "count": 0}, "categories": [{"name": "Community Center", "pluralName": "Community Centers", "id": "52e81612bcbc57f1066b7a34", "icon": {"prefix": "https://ss3.4sqi.net/img/categories_v2/building/default_", "suffix": ".png"}, "primary": true, "shortName": "Community Center"}], "hasPerk": false, "contact": {}, "beenHere": {"lastCheckinExpiredAt": 0}, "verified": false, "stats": {"checkinsCount": 6, "usersCount": 5, "tipCount": 0}, "name": "Ø³Ø§Ø²Ù…Ø§Ù† Ø§Ù†ØªÙ‚Ø§Ù„ Ø®ÙˆÙ† Ø§ÙŠØ±Ø§Ù†", "id": "5743eec6498e0b9b49a51a46", "venueChains": [], "venueRatingBlacklisted": true, "location": {"cc": "IR", "lat": 37.379208, "lng": 46.234968, "labeledLatLngs": [{"label": "display", "lng": 46.234968, "lat": 37.379208}], "state": "Ø¢Ø°Ø±Ø¨Ø§ÛŒØ¬Ø§Ù† Ø´Ø±Ù‚ÛŒ", "country": "Ø§ÛŒØ±Ø§Ù†", "city": "Ù…Ø±Ø§ØºÙ‡", "formattedAddress": ["Ù…Ø±Ø§ØºÙ‡, Ø¢Ø°Ø±Ø¨Ø§ÛŒØ¬Ø§Ù† Ø´Ø±Ù‚ÛŒ", "Ø§ÛŒØ±Ø§Ù†"]}}, {"referralId": "v-1505913168", "specials": {"items": [], "count": 0}, "categories": [{"name": "University", "pluralName": "Universities", "id": "4bf58dd8d48988d1ae941735", "icon": {"prefix": "https://ss3.4sqi.net/img/categories_v2/education/default_", "suffix": ".png"}, "primary": true, "shortName": "University"}], "hasPerk": false, "contact": {}, "beenHere": {"lastCheckinExpiredAt": 0}, "verified": false, "stats": {"checkinsCount": 4, "usersCount": 3, "tipCount": 0}, "name": "Ú©ØªØ§Ø¨Ø®Ø§Ù†Ù‡ Ø¯Ø§Ù†Ø´Ú©Ø¯Ù‡ Ø¹Ù„ÙˆÙ… Ù¾Ø²Ø´Ú©ÛŒ Ù…Ø±Ø§ØºÙ‡", "id": "58bd2436d8e55927fbdf74c1", "private": true, "venueChains": [], "venueRatingBlacklisted": true, "location": {"cc": "IR", "lat": 37.36063, "lng": 46.259296, "labeledLatLngs": [{"label": "display", "lng": 46.259296, "lat": 37.36063}], "country": "Ø§ÛŒØ±Ø§Ù†", "formattedAddress": ["Ø§ÛŒØ±Ø§Ù†"]}}, {"referralId": "v-1505913168", "specials": {"items": [], "count": 0}, "categories": [{"name": "Business Service", "pluralName": "Business Services", "id": "5453de49498eade8af355881", "icon": {"prefix": "https://ss3.4sqi.net/img/categories_v2/building/default_", "suffix": ".png"}, "primary": true, "shortName": "Business Services"}], "hasPerk": false, "contact": {}, "beenHere": {"lastCheckinExpiredAt": 0}, "verified": false, "stats": {"checkinsCount": 5, "usersCount": 2, "tipCount": 0}, "name": "Anbar", "id": "58b54a23a19e90497bd973e9", "allowMenuUrlEdit": true, "venueChains": [], "location": {"cc": "IR", "address": "Ø±ÙˆØ¨Ø±ÙˆÛŒ Ú©Ø¨Ø§Ø¨ÛŒ Ø¨Ø±Ù‡ Ø³ÙÛŒØ¯", "lat": 37.37804, "labeledLatLngs": [{"label": "display", "lng": 46.245403, "lat": 37.37804}], "lng": 46.245403, "country": "Ø§ÛŒØ±Ø§Ù†", "formattedAddress": ["Ø±ÙˆØ¨Ø±ÙˆÛŒ Ú©Ø¨Ø§Ø¨ÛŒ Ø¨Ø±Ù‡ Ø³ÙÛŒØ¯", "Ø§ÛŒØ±Ø§Ù†"]}}, {"referralId": "v-1505913168", "specials": {"items": [], "count": 0}, "categories": [{"name": "Bridge", "pluralName": "Bridges", "id": "4bf58dd8d48988d1df941735", "icon": {"prefix": "https://ss3.4sqi.net/img/categories_v2/parks_outdoors/bridge_", "suffix": ".png"}, "primary": true, "shortName": "Bridge"}], "hasPerk": false, "contact": {}, "beenHere": {"lastCheckinExpiredAt": 0}, "verified": false, "stats": {"checkinsCount": 4, "usersCount": 3, "tipCount": 0}, "name": "Ù…Ø­Ù„Ù‡ Ø¬Ø§Ù†Ø¨Ø§Ø²Ø§Ù†", "id": "58c6f7e519b1ad5ee994b557", "venueChains": [], "venueRatingBlacklisted": true, "location": {"cc": "IR", "address": "Ø§ØªÙˆØ¨Ø§Ù† Ø§Ù…ÛŒØ±Ú©Ø¨ÛŒØ±", "lat": 37.37128, "labeledLatLngs": [{"label": "display", "lng": 46.25708, "lat": 37.37128}], "lng": 46.25708, "country": "Ø§ÛŒØ±Ø§Ù†", "formattedAddress": ["Ø§ØªÙˆØ¨Ø§Ù† Ø§Ù…ÛŒØ±Ú©Ø¨ÛŒØ±", "Ø§ÛŒØ±Ø§Ù†"]}}, {"referralId": "v-1505913168", "specials": {"items": [], "count": 0}, "categories": [{"name": "Street Fair", "pluralName": "Street Fairs", "id": "5267e4d8e4b0ec79466e48c5", "icon": {"prefix": "https://ss3.4sqi.net/img/categories_v2/event/default_", "suffix": ".png"}, "primary": true, "shortName": "Fair"}], "hasPerk": false, "contact": {}, "beenHere": {"lastCheckinExpiredAt": 0}, "verified": false, "stats": {"checkinsCount": 36, "usersCount": 13, "tipCount": 0}, "name": "Ø³Ù‡ Ø±Ø§Ù‡ÛŒ ÛŒÙˆØ³Ù Ø§Ø¨Ø§Ø¯", "id": "56f2b250498ee8ad6365bd3c", "venueChains": [], "venueRatingBlacklisted": true, "location": {"cc": "IR", "lat": 37.375343, "lng": 46.235285, "labeledLatLngs": [{"label": "display", "lng": 46.235285, "lat": 37.375343}], "country": "Ø§ÛŒØ±Ø§Ù†", "formattedAddress": ["Ø§ÛŒØ±Ø§Ù†"]}}, {"referralId": "v-1505913168", "specials": {"items": [], "count": 0}, "categories": [{"name": "Factory", "pluralName": "Factories", "id": "4eb1bea83b7b6f98df247e06", "icon": {"prefix": "https://ss3.4sqi.net/img/categories_v2/building/factory_", "suffix": ".png"}, "primary": true, "shortName": "Factory"}], "hasPerk": false, "contact": {}, "beenHere": {"lastCheckinExpiredAt": 0}, "verified": false, "stats": {"checkinsCount": 13, "usersCount": 2, "tipCount": 0}, "name": "ÙƒØ§Ø±Ø®Ø§Ù†Ù‡ ØµØ§Ø¨ÙˆÙ† Ø³Ø§Ø²ÙŠ", "id": "56c190b2498ea4e6259b3c04", "venueChains": [], "venueRatingBlacklisted": true, "location": {"cc": "IR", "lat": 37.37529069672602, "lng": 46.22854282283168, "labeledLatLngs": [{"label": "display", "lng": 46.22854282283168, "lat": 37.37529069672602}], "country": "Ø§ÛŒØ±Ø§Ù†", "formattedAddress": ["Ø§ÛŒØ±Ø§Ù†"]}}, {"referralId": "v-1505913168", "specials": {"items": [], "count": 0}, "categories": [{"name": "Road", "pluralName": "Roads", "id": "4bf58dd8d48988d1f9931735", "icon": {"prefix": "https://ss3.4sqi.net/img/categories_v2/travel/highway_", "suffix": ".png"}, "primary": true, "shortName": "Road"}], "hasPerk": false, "contact": {}, "beenHere": {"lastCheckinExpiredAt": 0}, "verified": false, "stats": {"checkinsCount": 43, "usersCount": 23, "tipCount": 0}, "name": "Ø§ØªÙˆØ¨Ø§Ù† Ø§Ù…ÙŠØ± ÙƒØ¨ÙŠØ±", "id": "57077565498eee894d33002a", "venueChains": [], "venueRatingBlacklisted": true, "location": {"cc": "IR", "lat": 37.378172, "lng": 46.251472, "labeledLatLngs": [{"label": "display", "lng": 46.251472, "lat": 37.378172}], "country": "Ø§ÛŒØ±Ø§Ù†", "formattedAddress": ["Ø§ÛŒØ±Ø§Ù†"]}}, {"referralId": "v-1505913168", "specials": {"items": [], "count": 0}, "categories": [{"name": "College Academic Building", "pluralName": "College Academic Buildings", "id": "4bf58dd8d48988d198941735", "icon": {"prefix": "https://ss3.4sqi.net/img/categories_v2/education/academicbuilding_", "suffix": ".png"}, "primary": true, "shortName": "Academic Building"}], "hasPerk": false, "contact": {}, "beenHere": {"lastCheckinExpiredAt": 0}, "verified": false, "stats": {"checkinsCount": 6, "usersCount": 5, "tipCount": 0}, "name": "Ù…Ø­Ù„Ù‡ Ø§Ù†Ø²Ø§Ø¨", "id": "584c304f16f00008d5c3d9e6", "venueChains": [], "venueRatingBlacklisted": true, "location": {"cc": "IR", "lat": 37.374866, "lng": 46.244387, "labeledLatLngs": [{"label": "display", "lng": 46.244387, "lat": 37.374866}], "country": "Ø§ÛŒØ±Ø§Ù†", "formattedAddress": ["Ø§ÛŒØ±Ø§Ù†"]}}, {"referralId": "v-1505913168", "specials": {"items": [], "count": 0}, "categories": [{"name": "Restaurant", "pluralName": "Restaurants", "id": "4bf58dd8d48988d1c4941735", "icon": {"prefix": "https://ss3.4sqi.net/img/categories_v2/food/default_", "suffix": ".png"}, "primary": true, "shortName": "Restaurant"}], "hasPerk": false, "contact": {}, "beenHere": {"lastCheckinExpiredAt": 0}, "verified": false, "stats": {"checkinsCount": 2, "usersCount": 2, "tipCount": 0}, "name": "ØªØ§Ù„Ø§Ø± Ù¾Ø°ÙŠØ±Ø§ÙŠÙ‰ Ù‚ØµØ±", "id": "59077d815d891b426a6e8e88", "allowMenuUrlEdit": true, "venueChains": [], "location": {"cc": "IR", "lat": 37.38038, "lng": 46.246138, "labeledLatLngs": [{"label": "display", "lng": 46.246138, "lat": 37.38038}], "state": "Ø¢Ø°Ø±Ø¨Ø§ÛŒØ¬Ø§Ù† Ø´Ø±Ù‚ÛŒ", "country": "Ø§ÛŒØ±Ø§Ù†", "city": "Ù…Ø±Ø§ØºÙ‡", "formattedAddress": ["Ù…Ø±Ø§ØºÙ‡, Ø¢Ø°Ø±Ø¨Ø§ÛŒØ¬Ø§Ù† Ø´Ø±Ù‚ÛŒ", "Ø§ÛŒØ±Ø§Ù†"]}}, {"referralId": "v-1505913168", "specials": {"items": [], "count": 0}, "categories": [{"name": "Courthouse", "pluralName": "Courthouses", "id": "4bf58dd8d48988d12b941735", "icon": {"prefix": "https://ss3.4sqi.net/img/categories_v2/building/government_courthouse_", "suffix": ".png"}, "primary": true, "shortName": "Courthouse"}], "hasPerk": false, "contact": {}, "beenHere": {"lastCheckinExpiredAt": 0}, "verified": false, "stats": {"checkinsCount": 2, "usersCount": 2, "tipCount": 0}, "name": "Ø¯Ø§Ø¯Ú¯Ø³ØªØ±ÛŒ Ø´Ù‡Ø±Ø³ØªØ§Ù† Ù…Ø±Ø§ØºÙ‡", "id": "59213dfc3731ee73845d8c27", "venueChains": [], "venueRatingBlacklisted": true, "location": {"cc": "IR", "address": "Ù…ÛŒØ¯Ø§Ù† Ù…Ø§Ø¯Ø±", "lat": 37.37315, "labeledLatLngs": [{"label": "display", "lng": 46.256752, "lat": 37.37315}], "lng": 46.256752, "country": "Ø§ÛŒØ±Ø§Ù†", "city": "Ù…Ø±Ø§ØºÙ‡", "formattedAddress": ["Ù…ÛŒØ¯Ø§Ù† Ù…Ø§Ø¯Ø±", "Ù…Ø±Ø§ØºÙ‡, Ø¢Ø°Ø±Ø¨Ø§ÛŒØ¬Ø§Ù† Ø´Ø±Ù‚ÛŒ", "Ø§ÛŒØ±Ø§Ù†"], "state": "Ø¢Ø°Ø±Ø¨Ø§ÛŒØ¬Ø§Ù† Ø´Ø±Ù‚ÛŒ"}}, {"referralId": "v-1505913168", "specials": {"items": [], "count": 0}, "categories": [{"name": "Mountain", "pluralName": "Mountains", "id": "4eb1d4d54b900d56c88a45fc", "icon": {"prefix": "https://ss3.4sqi.net/img/categories_v2/parks_outdoors/mountain_", "suffix": ".png"}, "primary": true, "shortName": "Mountain"}], "hasPerk": false, "contact": {}, "beenHere": {"lastCheckinExpiredAt": 0}, "verified": false, "stats": {"checkinsCount": 4, "usersCount": 4, "tipCount": 0}, "name": "Ú©ÙˆÙ‡ Ø²Ø±Ù†Ø¬", "id": "5927b2fc0d8a0f20674a014f", "venueChains": [], "location": {"cc": "IR", "lat": 37.3603, "lng": 46.25863, "labeledLatLngs": [{"label": "display", "lng": 46.25863, "lat": 37.3603}], "state": "Ø¢Ø°Ø±Ø¨Ø§ÛŒØ¬Ø§Ù† Ø´Ø±Ù‚ÛŒ", "country": "Ø§ÛŒØ±Ø§Ù†", "city": "Ù…Ø±Ø§ØºÙ‡", "formattedAddress": ["Ù…Ø±Ø§ØºÙ‡, Ø¢Ø°Ø±Ø¨Ø§ÛŒØ¬Ø§Ù† Ø´Ø±Ù‚ÛŒ", "Ø§ÛŒØ±Ø§Ù†"]}}, {"referralId": "v-1505913168", "specials": {"items": [], "count": 0}, "categories": [{"name": "Home Service", "pluralName": "Home Services & Repairs", "id": "545419b1498ea6ccd0202f58", "icon": {"prefix": "https://ss3.4sqi.net/img/categories_v2/shops/hardware_", "suffix": ".png"}, "primary": true, "shortName": "Home Services"}], "hasPerk": false, "contact": {}, "beenHere": {"lastCheckinExpiredAt": 0}, "verified": false, "stats": {"checkinsCount": 2, "usersCount": 2, "tipCount": 0}, "name": "Ú¯Ù…Ø±Ùƒ Ù…Ø±Ø§ØºÙ‡", "id": "57871b7a498ecb665f5d9ac6", "allowMenuUrlEdit": true, "venueChains": [], "location": {"cc": "IR", "lat": 37.375098, "lng": 46.240512, "labeledLatLngs": [{"label": "display", "lng": 46.240512, "lat": 37.375098}], "country": "Ø§ÛŒØ±Ø§Ù†", "formattedAddress": ["Ø§ÛŒØ±Ø§Ù†"]}}, {"referralId": "v-1505913168", "specials": {"items": [], "count": 0}, "categories": [{"name": "Asian Restaurant", "pluralName": "Asian Restaurants", "id": "4bf58dd8d48988d142941735", "icon": {"prefix": "https://ss3.4sqi.net/img/categories_v2/food/asian_", "suffix": ".png"}, "primary": true, "shortName": "Asian"}], "hasPerk": false, "contact": {}, "beenHere": {"lastCheckinExpiredAt": 0}, "verified": false, "stats": {"checkinsCount": 6, "usersCount": 4, "tipCount": 0}, "name": "Ø¢Ø¨Ú¯ÙˆØ´Øª ØªÙˆØ³Ù„ÙŠ", "id": "572335a0498eb370065282c2", "allowMenuUrlEdit": true, "venueChains": [], "location": {"cc": "IR", "lat": 37.378273740589286, "lng": 46.24242575481302, "labeledLatLngs": [{"label": "display", "lng": 46.24242575481302, "lat": 37.378273740589286}], "country": "Ø§ÛŒØ±Ø§Ù†", "formattedAddress": ["Ø§ÛŒØ±Ø§Ù†"]}}, {"referralId": "v-1505913168", "specials": {"items": [], "count": 0}, "categories": [{"name": "Courthouse", "pluralName": "Courthouses", "id": "4bf58dd8d48988d12b941735", "icon": {"prefix": "https://ss3.4sqi.net/img/categories_v2/building/government_courthouse_", "suffix": ".png"}, "primary": true, "shortName": "Courthouse"}], "hasPerk": false, "contact": {}, "beenHere": {"lastCheckinExpiredAt": 0}, "verified": false, "stats": {"checkinsCount": 15, "usersCount": 13, "tipCount": 0}, "name": "Ø¯Ø§Ø¯Ú¯Ø³ØªØ±ÙŠ Ù…Ø±Ø§ØºÙ‡", "id": "571482e8498ecf6b92a2c61b", "venueChains": [], "venueRatingBlacklisted": true, "location": {"cc": "IR", "lat": 37.374899, "lng": 46.257509, "labeledLatLngs": [{"label": "display", "lng": 46.257509, "lat": 37.374899}], "country": "Ø§ÛŒØ±Ø§Ù†", "formattedAddress": ["Ø§ÛŒØ±Ø§Ù†"]}}, {"referralId": "v-1505913168", "specials": {"items": [], "count": 0}, "categories": [{"name": "Road", "pluralName": "Roads", "id": "4bf58dd8d48988d1f9931735", "icon": {"prefix": "https://ss3.4sqi.net/img/categories_v2/travel/highway_", "suffix": ".png"}, "primary": true, "shortName": "Road"}], "hasPerk": false, "contact": {}, "beenHere": {"lastCheckinExpiredAt": 0}, "verified": false, "stats": {"checkinsCount": 25, "usersCount": 19, "tipCount": 0}, "name": "Ù…ÛŒØ¯Ø§Ù† Ú¯Ø§Ø²", "id": "56dc0a06498e54cafd237ee6", "venueChains": [], "venueRatingBlacklisted": true, "location": {"cc": "IR", "address": "Ù…Ø±Ø§ØºÙ‡", "lat": 37.38054458734536, "labeledLatLngs": [{"label": "display", "lng": 46.24009075973297, "lat": 37.38054458734536}], "lng": 46.24009075973297, "country": "Ø§ÛŒØ±Ø§Ù†", "city": "Ù…Ø±Ø§ØºÙ‡", "formattedAddress": ["Ù…Ø±Ø§ØºÙ‡", "Ù…Ø±Ø§ØºÙ‡, Ø¢Ø°Ø±Ø¨Ø§ÛŒØ¬Ø§Ù† Ø´Ø±Ù‚ÛŒ", "Ø§ÛŒØ±Ø§Ù†"], "state": "Ø¢Ø°Ø±Ø¨Ø§ÛŒØ¬Ø§Ù† Ø´Ø±Ù‚ÛŒ"}}, {"referralId": "v-1505913168", "specials": {"items": [], "count": 0}, "categories": [{"name": "Baggage Locker", "pluralName": "Baggage Lockers", "id": "5744ccdfe4b0c0459246b4e8", "icon": {"prefix": "https://ss3.4sqi.net/img/categories_v2/travel/default_", "suffix": ".png"}, "primary": true, "shortName": "Baggage Locker"}], "hasPerk": false, "contact": {}, "beenHere": {"lastCheckinExpiredAt": 0}, "verified": false, "stats": {"checkinsCount": 7, "usersCount": 3, "tipCount": 0}, "name": "In Taxi", "id": "58cd02f1761b1a5dafd8d1ba", "venueChains": [], "location": {"cc": "IR", "lat": 37.371998, "lng": 46.255955, "labeledLatLngs": [{"label": "display", "lng": 46.255955, "lat": 37.371998}], "country": "Ø§ÛŒØ±Ø§Ù†", "formattedAddress": ["Ø§ÛŒØ±Ø§Ù†"]}}, {"referralId": "v-1505913168", "specials": {"items": [], "count": 0}, "categories": [{"name": "Road", "pluralName": "Roads", "id": "4bf58dd8d48988d1f9931735", "icon": {"prefix": "https://ss3.4sqi.net/img/categories_v2/travel/highway_", "suffix": ".png"}, "primary": true, "shortName": "Road"}], "hasPerk": false, "contact": {}, "beenHere": {"lastCheckinExpiredAt": 0}, "verified": false, "stats": {"checkinsCount": 15, "usersCount": 7, "tipCount": 0}, "name": "Ú†Ø±Ø§Øº Ù‚Ø±Ù…Ø² Ù¾Ù„ Ø±Ùˆ Ú¯Ø°Ø± Ø¬Ù‡Ø§Ø¯", "id": "571b3527498ef2ba259b4ee9", "venueChains": [], "venueRatingBlacklisted": true, "location": {"cc": "IR", "lat": 37.380236, "lng": 46.248388, "labeledLatLngs": [{"label": "display", "lng": 46.248388, "lat": 37.380236}], "country": "Ø§ÛŒØ±Ø§Ù†", "formattedAddress": ["Ø§ÛŒØ±Ø§Ù†"]}}, {"referralId": "v-1505913168", "specials": {"items": [], "count": 0}, "categories": [{"name": "Street Art", "pluralName": "Street Art Installations", "id": "52e81612bcbc57f1066b79ee", "icon": {"prefix": "https://ss3.4sqi.net/img/categories_v2/arts_entertainment/default_", "suffix": ".png"}, "primary": true, "shortName": "Street Art"}], "hasPerk": false, "contact": {}, "beenHere": {"lastCheckinExpiredAt": 0}, "verified": false, "stats": {"checkinsCount": 4, "usersCount": 4, "tipCount": 0}, "name": "Ù…ÛŒØ¯Ø§Ù† Ø³ÙÛŒØ± Ø§Ù…ÛŒØ¯", "id": "58341ad06d632545b1d6e93f", "venueChains": [], "location": {"cc": "IR", "lat": 37.37945, "lng": 46.238865, "labeledLatLngs": [{"label": "display", "lng": 46.238865, "lat": 37.37945}], "state": "Ø¢Ø°Ø±Ø¨Ø§ÛŒØ¬Ø§Ù† Ø´Ø±Ù‚ÛŒ", "country": "Ø§ÛŒØ±Ø§Ù†", "city": "Ù…Ø±Ø§ØºÙ‡", "formattedAddress": ["Ù…Ø±Ø§ØºÙ‡, Ø¢Ø°Ø±Ø¨Ø§ÛŒØ¬Ø§Ù† Ø´Ø±Ù‚ÛŒ", "Ø§ÛŒØ±Ø§Ù†"]}}, {"referralId": "v-1505913169", "specials": {"items": [], "count": 0}, "categories": [{"name": "College Engineering Building", "pluralName": "College Engineering Buildings", "id": "4bf58dd8d48988d19e941735", "icon": {"prefix": "https://ss3.4sqi.net/img/categories_v2/education/collegeacademicbuildings_engineering_", "suffix": ".png"}, "primary": true, "shortName": "Engineering"}], "hasPerk": false, "contact": {}, "beenHere": {"lastCheckinExpiredAt": 0}, "verified": false, "stats": {"checkinsCount": 3, "usersCount": 1, "tipCount": 0}, "name": "Faculty Of Civil Engineering", "id": "58329a15ae97566eff29f2df", "venueChains": [], "venueRatingBlacklisted": true, "location": {"cc": "IR", "lat": 37.37566, "lng": 46.273401, "labeledLatLngs": [{"label": "display", "lng": 46.273401, "lat": 37.37566}], "country": "Ø§ÛŒØ±Ø§Ù†", "formattedAddress": ["Ø§ÛŒØ±Ø§Ù†"]}}, {"referralId": "v-1505913169", "specials": {"items": [], "count": 0}, "categories": [{"name": "University", "pluralName": "Universities", "id": "4bf58dd8d48988d1ae941735", "icon": {"prefix": "https://ss3.4sqi.net/img/categories_v2/education/default_", "suffix": ".png"}, "primary": true, "shortName": "University"}], "hasPerk": false, "contact": {}, "beenHere": {"lastCheckinExpiredAt": 0}, "verified": false, "stats": {"checkinsCount": 2, "usersCount": 2, "tipCount": 0}, "name": "Jolo Dare Otaghe Ostaaaaaaaaaaad Bahrami", "id": "589ad0e9469aef4c0e2f7330", "private": true, "venueChains": [], "venueRatingBlacklisted": true, "location": {"cc": "IR", "lat": 37.379322, "lng": 46.27616, "labeledLatLngs": [{"label": "display", "lng": 46.27616, "lat": 37.379322}], "state": "Ø¢Ø°Ø±Ø¨Ø§ÛŒØ¬Ø§Ù† Ø´Ø±Ù‚ÛŒ", "country": "Ø§ÛŒØ±Ø§Ù†", "city": "Ù…Ø±Ø§ØºÙ‡", "formattedAddress": ["Ù…Ø±Ø§ØºÙ‡, Ø¢Ø°Ø±Ø¨Ø§ÛŒØ¬Ø§Ù† Ø´Ø±Ù‚ÛŒ", "Ø§ÛŒØ±Ø§Ù†"]}}, {"referralId": "v-1505913169", "specials": {"items": [], "count": 0}, "categories": [{"name": "College Administrative Building", "pluralName": "College Administrative Buildings", "id": "4bf58dd8d48988d197941735", "icon": {"prefix": "https://ss3.4sqi.net/img/categories_v2/education/administrativebuilding_", "suffix": ".png"}, "primary": true, "shortName": "Administrative Building"}], "hasPerk": false, "contact": {}, "beenHere": {"lastCheckinExpiredAt": 0}, "verified": false, "stats": {"checkinsCount": 1, "usersCount": 1, "tipCount": 0}, "name": "Ø³Ø§Ø®ØªÙ…Ø§Ù† Ø§Ø¯Ø§Ø±ÛŒ Ø¯Ø§Ù†Ø´Ú¯Ø§Ù‡ Ù…Ø±Ø§ØºÙ‡", "id": "58aac99555d6223a842f65f0", "private": true, "venueChains": [], "venueRatingBlacklisted": true, "location": {"cc": "IR", "lat": 37.37334, "lng": 46.269844, "labeledLatLngs": [{"label": "display", "lng": 46.269844, "lat": 37.37334}], "country": "Ø§ÛŒØ±Ø§Ù†", "formattedAddress": ["Ø§ÛŒØ±Ø§Ù†"]}}, {"referralId": "v-1505913169", "specials": {"items": [], "count": 0}, "categories": [{"name": "College Classroom", "pluralName": "College Classrooms", "id": "4bf58dd8d48988d1a0941735", "icon": {"prefix": "https://ss3.4sqi.net/img/categories_v2/education/classroom_", "suffix": ".png"}, "primary": true, "shortName": "Classroom"}], "hasPerk": false, "contact": {}, "beenHere": {"lastCheckinExpiredAt": 0}, "verified": false, "stats": {"checkinsCount": 12, "usersCount": 3, "tipCount": 0}, "name": "Ú©Ù„Ø§Ø³ Û±Û±Û°", "id": "582019b23993254a04a5a66d", "private": true, "venueChains": [], "venueRatingBlacklisted": true, "location": {"cc": "IR", "lat": 37.378777, "lng": 46.274685, "labeledLatLngs": [{"label": "display", "lng": 46.274685, "lat": 37.378777}], "country": "Ø§ÛŒØ±Ø§Ù†", "formattedAddress": ["Ø§ÛŒØ±Ø§Ù†"]}}, {"referralId": "v-1505913169", "specials": {"items": [], "count": 0}, "categories": [{"name": "College Classroom", "pluralName": "College Classrooms", "id": "4bf58dd8d48988d1a0941735", "icon": {"prefix": "https://ss3.4sqi.net/img/categories_v2/education/classroom_", "suffix": ".png"}, "primary": true, "shortName": "Classroom"}], "hasPerk": false, "contact": {}, "beenHere": {"lastCheckinExpiredAt": 0}, "verified": false, "stats": {"checkinsCount": 5, "usersCount": 3, "tipCount": 0}, "name": "Ú©Ù„Ø§Ø³ 209", "id": "57f09096498e7577185c4c4a", "venueChains": [], "venueRatingBlacklisted": true, "location": {"cc": "IR", "lat": 37.37898, "lng": 46.276657, "labeledLatLngs": [{"label": "display", "lng": 46.276657, "lat": 37.37898}], "state": "Ø¢Ø°Ø±Ø¨Ø§ÛŒØ¬Ø§Ù† Ø´Ø±Ù‚ÛŒ", "country": "Ø§ÛŒØ±Ø§Ù†", "city": "Ù…Ø±Ø§ØºÙ‡", "formattedAddress": ["Ù…Ø±Ø§ØºÙ‡, Ø¢Ø°Ø±Ø¨Ø§ÛŒØ¬Ø§Ù† Ø´Ø±Ù‚ÛŒ", "Ø§ÛŒØ±Ø§Ù†"]}}, {"referralId": "v-1505913169", "specials": {"items": [], "count": 0}, "categories": [{"name": "College Library", "pluralName": "College Libraries", "id": "4bf58dd8d48988d1a7941735", "icon": {"prefix": "https://ss3.4sqi.net/img/categories_v2/building/library_", "suffix": ".png"}, "primary": true, "shortName": "Library"}], "hasPerk": false, "contact": {}, "beenHere": {"lastCheckinExpiredAt": 0}, "verified": false, "stats": {"checkinsCount": 4, "usersCount": 2, "tipCount": 0}, "name": "Xabgahin Kitabxanac", "id": "5842eeea02b60e0ddcd30213", "venueChains": [], "venueRatingBlacklisted": true, "location": {"state": "Ø¢Ø°Ø±Ø¨Ø§ÛŒØ¬Ø§Ù† Ø´Ø±Ù‚ÛŒ", "lng": 46.276505, "address": "xabgahin kitabxanac", "lat": 37.37912, "labeledLatLngs": [{"label": "display", "lng": 46.276505, "lat": 37.37912}], "cc": "IR", "country": "Ø§ÛŒØ±Ø§Ù†", "city": "Ù…Ø±Ø§ØºÙ‡", "formattedAddress": ["xabgahin kitabxanac (golshahe)", "Ù…Ø±Ø§ØºÙ‡, Ø¢Ø°Ø±Ø¨Ø§ÛŒØ¬Ø§Ù† Ø´Ø±Ù‚ÛŒ", "Ø§ÛŒØ±Ø§Ù†"], "crossStreet": "golshahe"}}, {"referralId": "v-1505913169", "specials": {"items": [], "count": 0}, "categories": [{"name": "University", "pluralName": "Universities", "id": "4bf58dd8d48988d1ae941735", "icon": {"prefix": "https://ss3.4sqi.net/img/categories_v2/education/default_", "suffix": ".png"}, "primary": true, "shortName": "University"}], "hasPerk": false, "contact": {}, "beenHere": {"lastCheckinExpiredAt": 0}, "verified": false, "stats": {"checkinsCount": 1, "usersCount": 1, "tipCount": 0}, "name": "kelas 303 oon bala", "id": "580499d038fa2d21685acc23", "venueChains": [], "venueRatingBlacklisted": true, "location": {"cc": "IR", "lat": 37.37949, "lng": 46.275658, "labeledLatLngs": [{"label": "display", "lng": 46.275658, "lat": 37.37949}], "country": "Ø§ÛŒØ±Ø§Ù†", "formattedAddress": ["Ø§ÛŒØ±Ø§Ù†"]}}, {"referralId": "v-1505913169", "specials": {"items": [], "count": 0}, "categories": [{"name": "University", "pluralName": "Universities", "id": "4bf58dd8d48988d1ae941735", "icon": {"prefix": "https://ss3.4sqi.net/img/categories_v2/education/default_", "suffix": ".png"}, "primary": true, "shortName": "University"}], "hasPerk": false, "contact": {}, "beenHere": {"lastCheckinExpiredAt": 0}, "verified": false, "stats": {"checkinsCount": 4, "usersCount": 1, "tipCount": 0}, "name": "Ø¯Ø§Ù†Ø´Ú¯Ø§Ù‡ Ø³Ø±Ø§Ø³Ø±ÙŠ Ù…Ø±Ø§ØºÙ‡ ÙƒÙ„Ø§Ø³Ù¢Ù Ù¤", "id": "5845359ea19e9066cd247469", "venueChains": [], "venueRatingBlacklisted": true, "location": {"cc": "IR", "lat": 37.375949, "lng": 46.270167, "labeledLatLngs": [{"label": "display", "lng": 46.270167, "lat": 37.375949}], "country": "Ø§ÛŒØ±Ø§Ù†", "formattedAddress": ["Ø§ÛŒØ±Ø§Ù†"]}}, {"referralId": "v-1505913169", "specials": {"items": [], "count": 0}, "categories": [{"name": "University", "pluralName": "Universities", "id": "4bf58dd8d48988d1ae941735", "icon": {"prefix": "https://ss3.4sqi.net/img/categories_v2/education/default_", "suffix": ".png"}, "primary": true, "shortName": "University"}], "hasPerk": false, "contact": {}, "beenHere": {"lastCheckinExpiredAt": 0}, "verified": false, "stats": {"checkinsCount": 25, "usersCount": 7, "tipCount": 0}, "name": "Class No. 107", "id": "56ce9cd5498e90919f09d1f9", "venueChains": [], "venueRatingBlacklisted": true, "location": {"cc": "IR", "lat": 37.376858407783175, "lng": 46.275135027545055, "labeledLatLngs": [{"label": "display", "lng": 46.275135027545055, "lat": 37.376858407783175}], "country": "Ø§ÛŒØ±Ø§Ù†", "formattedAddress": ["Ø§ÛŒØ±Ø§Ù†"]}}, {"referralId": "v-1505913169", "specials": {"items": [], "count": 0}, "categories": [{"name": "College Classroom", "pluralName": "College Classrooms", "id": "4bf58dd8d48988d1a0941735", "icon": {"prefix": "https://ss3.4sqi.net/img/categories_v2/education/classroom_", "suffix": ".png"}, "primary": true, "shortName": "Classroom"}], "hasPerk": false, "contact": {}, "beenHere": {"lastCheckinExpiredAt": 0}, "verified": false, "stats": {"checkinsCount": 1, "usersCount": 1, "tipCount": 0}, "name": "Ú©Ù„Ø§Ø³ Û±Û±Û¸ Ø¯Ø§Ù†Ø´Ú©Ø¯Ù‡ Ú©Ø´Ø§ÙˆØ±Ø²ÛŒ", "id": "589ab40b469aef4c0efa10b0", "venueChains": [], "venueRatingBlacklisted": true, "location": {"cc": "IR", "lat": 37.378403, "lng": 46.274723, "labeledLatLngs": [{"label": "display", "lng": 46.274723, "lat": 37.378403}], "country": "Ø§ÛŒØ±Ø§Ù†", "formattedAddress": ["Ø§ÛŒØ±Ø§Ù†"]}}, {"referralId": "v-1505913169", "specials": {"items": [], "count": 0}, "categories": [{"name": "University", "pluralName": "Universities", "id": "4bf58dd8d48988d1ae941735", "icon": {"prefix": "https://ss3.4sqi.net/img/categories_v2/education/default_", "suffix": ".png"}, "primary": true, "shortName": "University"}], "hasPerk": false, "contact": {}, "beenHere": {"lastCheckinExpiredAt": 0}, "verified": false, "stats": {"checkinsCount": 11, "usersCount": 5, "tipCount": 0}, "name": "Ú©Ù„Ø§Ø³ 115", "id": "579dbc1b498e0513927d2f2e", "venueChains": [], "venueRatingBlacklisted": true, "location": {"cc": "IR", "lat": 37.37912, "lng": 46.275389, "labeledLatLngs": [{"label": "display", "lng": 46.275389, "lat": 37.37912}], "country": "Ø§ÛŒØ±Ø§Ù†", "formattedAddress": ["Ø§ÛŒØ±Ø§Ù†"]}},