[{"referralId": "v-1505909502", "specials": {"items": [], "count": 0}, "categories": [{"name": "Convention", "pluralName": "Conventions", "id": "5267e4d9e4b0ec79466e48c9", "icon": {"prefix": "https://ss3.4sqi.net/img/categories_v2/event/default_", "suffix": ".png"}, "primary": true, "shortName": "Convention"}], "hasPerk": false, "contact": {}, "beenHere": {"lastCheckinExpiredAt": 0}, "verified": false, "stats": {"checkinsCount": 3, "usersCount": 3, "tipCount": 0}, "name": "رضوانيه", "id": "57a742d0498e0cdc502599fc", "venueChains": [], "venueRatingBlacklisted": true, "location": {"cc": "IR", "lat": 28.920218, "lng": 53.615903, "labeledLatLngs": [{"label": "display", "lng": 53.615903, "lat": 28.920218}], "country": "ایران", "formattedAddress": ["ایران"]}}, {"referralId": "v-1505909502", "specials": {"items": [], "count": 0}, "categories": [{"name": "Non-Profit", "pluralName": "Non-Profits", "id": "50328a8e91d4c4b30a586d6c", "icon": {"prefix": "https://ss3.4sqi.net/img/categories_v2/building/default_", "suffix": ".png"}, "primary": true, "shortName": "Non-Profit"}], "hasPerk": false, "contact": {}, "beenHere": {"lastCheckinExpiredAt": 0}, "verified": false, "stats": {"checkinsCount": 2, "usersCount": 2, "tipCount": 0}, "name": "تالار هزارویک شب", "id": "57d810c0498ea4b22a97bd28", "venueChains": [], "venueRatingBlacklisted": true, "location": {"cc": "IR", "address": "تالارهزارویک شب", "lat": 28.920331954956055, "labeledLatLngs": [{"label": "display", "lng": 53.647518157958984, "lat": 28.920331954956055}], "lng": 53.647518157958984, "country": "ایران", "city": "فسا", "formattedAddress": ["تالارهزارویک شب", "فسا, فارس", "ایران"], "state": "فارس"}}, {"referralId": "v-1505909505", "specials": {"items": [], "count": 0}, "categories": [{"name": "University", "pluralName": "Universities", "id": "4bf58dd8d48988d1ae941735", "icon": {"prefix": "https://ss3.4sqi.net/img/categories_v2/education/default_", "suffix": ".png"}, "primary": true, "shortName": "University"}], "hasPerk": false, "contact": {}, "beenHere": {"lastCheckinExpiredAt": 0}, "verified": false, "stats": {"checkinsCount": 4, "usersCount": 3, "tipCount": 2}, "name": "Fasa University | دانشگاه سراسري فسا", "id": "57f11e7d498e1c397dff907f", "venueChains": [], "venueRatingBlacklisted": true, "location": {"cc": "IR", "lat": 28.940137, "lng": 53.63356, "labeledLatLngs": [{"label": "display", "lng": 53.63356, "lat": 28.940137}], "country": "ایران", "formattedAddress": ["ایران"]}}, {"referralId": "v-1505909505", "specials": {"items": [], "count": 0}, "categories": [{"name": "College Academic Building", "pluralName": "College Academic Buildings", "id": "4bf58dd8d48988d198941735", "icon": {"prefix": "https://ss3.4sqi.net/img/categories_v2/education/academicbuilding_", "suffix": ".png"}, "primary": true, "shortName": "Academic Building"}], "hasPerk": false, "contact": {}, "beenHere": {"lastCheckinExpiredAt": 0}, "verified": false, "stats": {"checkinsCount": 2, "usersCount": 2, "tipCount": 0}, "name": "fasa,shiraz", "id": "57caf42b498e289daa458301", "venueChains": [], "venueRatingBlacklisted": true, "location": {"cc": "IR", "lat": 28.929647, "lng": 53.63269, "labeledLatLngs": [{"label": "display", "lng": 53.63269, "lat": 28.929647}], "country": "ایران", "formattedAddress": ["ایران"]}}, {"referralId": "v-1505909505", "specials": {"items": [], "count": 0}, "categories": [{"name": "Café", "pluralName": "Cafés", "id": "4bf58dd8d48988d16d941735", "icon": {"prefix": "https://ss3.4sqi.net/img/categories_v2/food/cafe_", "suffix": ".png"}, "primary": true, "shortName": "Café"}], "hasPerk": false, "contact": {}, "beenHere": {"lastCheckinExpiredAt": 0}, "verified": false, "stats": {"checkinsCount": 1, "usersCount": 1, "tipCount": 0}, "name": "قنادي آلما | Alma confectionery", "id": "5813858e38fafcd545fc6e8a", "allowMenuUrlEdit": true, "venueChains": [], "location": {"cc": "IR", "lat": 28.945651, "lng": 53.643835, "labeledLatLngs": [{"label": "display", "lng": 53.643835, "lat": 28.945651}], "country": "ایران", "formattedAddress": ["ایران"]}}, {"referralId": "v-1505909505", "specials": {"items": [], "count": 0}, "categories": [{"name": "College Engineering Building", "pluralName": "College Engineering Buildings", "id": "4bf58dd8d48988d19e941735", "icon": {"prefix": "https://ss3.4sqi.net/img/categories_v2/education/collegeacademicbuildings_engineering_", "suffix": ".png"}, "primary": true, "shortName": "Engineering"}], "hasPerk": false, "contact": {}, "beenHere": {"lastCheckinExpiredAt": 0}, "verified": false, "stats": {"checkinsCount": 5, "usersCount": 5, "tipCount": 0}, "name": "Makmal Termodinamik", "id": "5181cd02498ee5bb3e9c8d1b", "venueChains": [], "venueRatingBlacklisted": true, "location": {"lng": 53.63852346836789, "address": "Fasa B", "lat": 28.94787981354338, "labeledLatLngs": [{"label": "display", "lng": 53.63852346836789, "lat": 28.94787981354338}], "cc": "IR", "country": "ایران", "formattedAddress": ["Fasa B (UTeM)", "ایران"], "crossStreet": "UTeM"}}, {"referralId": "v-1505909505", "specials": {"items": [], "count": 0}, "categories": [{"name": "University", "pluralName": "Universities", "id": "4bf58dd8d48988d1ae941735", "icon": {"prefix": "https://ss3.4sqi.net/img/categories_v2/education/default_", "suffix": ".png"}, "primary": true, "shortName": "University"}], "hasPerk": false, "contact": {}, "beenHere": {"lastCheckinExpiredAt": 0}, "verified": false, "stats": {"checkinsCount": 7, "usersCount": 6, "tipCount": 0}, "name": "دانشگاه آزاد اسلامی واحد فسا|Fasa Islamic Azad University", "id": "5346375a498e2a818cd66cda", "venueChains": [], "venueRatingBlacklisted": true, "location": {"cc": "IR", "lat": 28.944291721861486, "lng": 53.64048588637355, "labeledLatLngs": [{"label": "display", "lng": 53.64048588637355, "lat": 28.944291721861486}], "country": "ایران", "formattedAddress": ["ایران"]}}, {"referralId": "v-1505909505", "specials": {"items": [], "count": 0}, "categories": [{"name": "Health & Beauty Service", "pluralName": "Health & Beauty Services", "id": "54541900498ea6ccd0202697", "icon": {"prefix": "https://ss3.4sqi.net/img/categories_v2/shops/salon_barber_", "suffix": ".png"}, "primary": true, "shortName": "Health & Beauty"}], "hasPerk": false, "contact": {}, "beenHere": {"lastCheckinExpiredAt": 0}, "verified": false, "stats": {"checkinsCount": 2, "usersCount": 2, "tipCount": 0}, "name": "lord barber shop", "id": "570a73f7498ea5a846e07d09", "allowMenuUrlEdit": true, "venueChains": [], "location": {"cc": "IR", "address": "fasa", "lat": 28.946247, "labeledLatLngs": [{"label": "display", "lng": 53.640276, "lat": 28.946247}], "lng": 53.640276, "country": "ایران", "city": "jomhoori", "formattedAddress": ["fasa", "jomhoori", "ایران"]}}, {"referralId": "v-1505909505", "specials": {"items": [], "count": 0}, "categories": [{"name": "Carpet Store", "pluralName": "Carpet Stores", "id": "52f2ab2ebcbc57f1066b8b2a", "icon": {"prefix": "https://ss3.4sqi.net/img/categories_v2/shops/default_", "suffix": ".png"}, "primary": true, "shortName": "Carpet Store"}], "hasPerk": false, "contact": {}, "beenHere": {"lastCheckinExpiredAt": 0}, "verified": false, "stats": {"checkinsCount": 1, "usersCount": 1, "tipCount": 0}, "name": "istekbal center of fasa", "id": "58b1b27272714f3fd6c8d88d", "allowMenuUrlEdit": true, "venueChains": [], "location": {"cc": "IR", "lat": 28.939677, "lng": 53.645285, "labeledLatLngs": [{"label": "display", "lng": 53.645285, "lat": 28.939677}], "state": "فارس", "country": "ایران", "city": "فسا", "formattedAddress": ["فسا, فارس", "ایران"]}}, {"referralId": "v-1505909505", "specials": {"items": [], "count": 0}, "categories": [{"name": "Hostel", "pluralName": "Hostels", "id": "4bf58dd8d48988d1ee931735", "icon": {"prefix": "https://ss3.4sqi.net/img/categories_v2/travel/hostel_", "suffix": ".png"}, "primary": true, "shortName": "Hostel"}], "hasPerk": false, "contact": {}, "beenHere": {"lastCheckinExpiredAt": 0}, "verified": false, "stats": {"checkinsCount": 28, "usersCount": 6, "tipCount": 0}, "name": "مهمانسرا", "id": "5704e461498e9c45d0b70a53", "allowMenuUrlEdit": true, "venueChains": [], "location": {"cc": "IR", "lat": 28.944291721861486, "lng": 53.64048588637355, "labeledLatLngs": [{"label": "display", "lng": 53.64048588637355, "lat": 28.944291721861486}], "country": "ایران", "formattedAddress": ["ایران"]}}, {"referralId": "v-1505909505", "specials": {"items": [], "count": 0}, "categories": [{"name": "Hotel", "pluralName": "Hotels", "id": "4bf58dd8d48988d1fa931735", "icon": {"prefix": "https://ss3.4sqi.net/img/categories_v2/travel/hotel_", "suffix": ".png"}, "primary": true, "shortName": "Hotel"}], "hasPerk": false, "contact": {}, "beenHere": {"lastCheckinExpiredAt": 0}, "verified": false, "stats": {"checkinsCount": 4, "usersCount": 3, "tipCount": 0}, "name": "هتل جهانگردي فسا", "id": "57af6727cd1003fcaea10fbd", "allowMenuUrlEdit": true, "venueChains": [], "location": {"cc": "IR", "lat": 28.94317, "lng": 53.639428, "labeledLatLngs": [{"label": "display", "lng": 53.639428, "lat": 28.94317}], "state": "فارس", "country": "ایران", "city": "فسا", "formattedAddress": ["فسا, فارس", "ایران"]}}, {"referralId": "v-1505909505", "specials": {"items": [], "count": 0}, "categories": [{"name": "Forest", "pluralName": "Forests", "id": "52e81612bcbc57f1066b7a23", "icon": {"prefix": "https://ss3.4sqi.net/img/categories_v2/parks_outdoors/default_", "suffix": ".png"}, "primary": true, "shortName": "Forest"}], "hasPerk": false, "contact": {}, "beenHere": {"lastCheckinExpiredAt": 0}, "verified": false, "stats": {"checkinsCount": 5, "usersCount": 4, "tipCount": 0}, "name": "park meli |پارك ملي", "id": "5790e786498ea4159ca7f98e", "venueChains": [], "location": {"cc": "IR", "lat": 28.939853, "lng": 53.649154, "labeledLatLngs": [{"label": "display", "lng": 53.649154, "lat": 28.939853}], "country": "ایران", "formattedAddress": ["ایران"]}}, {"referralId": "v-1505909506", "specials": {"items": [], "count": 0}, "categories": [{"name": "Kebab Restaurant", "pluralName": "Kebab Restaurants", "id": "5283c7b4e4b094cb91ec88d7", "icon": {"prefix": "https://ss3.4sqi.net/img/categories_v2/food/middleeastern_", "suffix": ".png"}, "primary": true, "shortName": "Kebab"}], "hasPerk": false, "contact": {}, "beenHere": {"lastCheckinExpiredAt": 0}, "verified": false, "stats": {"checkinsCount": 1, "usersCount": 1, "tipCount": 0}, "name": "رستوران اريايي", "id": "57f61b31498e9f3cdff8ac86", "allowMenuUrlEdit": true, "venueChains": [], "location": {"cc": "IR", "address": "فسا", "lat": 28.941643, "labeledLatLngs": [{"label": "display", "lng": 53.662296, "lat": 28.941643}], "lng": 53.662296, "country": "ایران", "formattedAddress": ["فسا", "ایران"]}}, {"referralId": "v-1505909506", "specials": {"items": [], "count": 0}, "categories": [{"name": "Café", "pluralName": "Cafés", "id": "4bf58dd8d48988d16d941735", "icon": {"prefix": "https://ss3.4sqi.net/img/categories_v2/food/cafe_", "suffix": ".png"}, "primary": true, "shortName": "Café"}], "hasPerk": false, "contact": {}, "beenHere": {"lastCheckinExpiredAt": 0}, "verified": false, "stats": {"checkinsCount": 3, "usersCount": 2, "tipCount": 0}, "name": "cafe sohrab| كافه سهراب", "id": "580f8fa838fa03649d3c9500", "allowMenuUrlEdit": true, "venueChains": [], "location": {"cc": "IR", "lat": 28.936581, "lng": 53.664498, "labeledLatLngs": [{"label": "display", "lng": 53.664498, "lat": 28.936581}], "country": "ایران", "formattedAddress": ["ایران"]}}, {"referralId": "v-1505909506", "specials": {"items": [], "count": 0}, "categories": [{"name": "Rest Area", "pluralName": "Rest Areas", "id": "4d954b16a243a5684b65b473", "icon": {"prefix": "https://ss3.4sqi.net/img/categories_v2/travel/restarea_", "suffix": ".png"}, "primary": true, "shortName": "Rest Areas"}], "hasPerk": false, "contact": {}, "beenHere": {"lastCheckinExpiredAt": 0}, "verified": false, "stats": {"checkinsCount": 4, "usersCount": 4, "tipCount": 0}, "name": "nowbandegan | نوبندگان", "id": "57276928498e0bb2b3abaa02", "venueChains": [], "location": {"cc": "IR", "lat": 28.94334032497334, "lng": 53.6614885071953, "labeledLatLngs": [{"label": "display", "lng": 53.6614885071953, "lat": 28.94334032497334}], "country": "ایران", "formattedAddress": ["ایران"]}}, {"referralId": "v-1505909508", "specials": {"items": [], "count": 0}, "categories": [{"name": "University", "pluralName": "Universities", "id": "4bf58dd8d48988d1ae941735", "icon": {"prefix": "https://ss3.4sqi.net/img/categories_v2/education/default_", "suffix": ".png"}, "primary": true, "shortName": "University"}], "hasPerk": false, "contact": {}, "beenHere": {"lastCheckinExpiredAt": 0}, "verified": false, "stats": {"checkinsCount": 28, "usersCount": 24, "tipCount": 1}, "name": "fasa University Of Medical Science", "id": "53a9f3cf498e91a45499213a", "venueChains": [], "venueRatingBlacklisted": true, "location": {"cc": "IR", "lat": 28.960539503671715, "lng": 53.62245575765069, "labeledLatLngs": [{"label": "display", "lng": 53.62245575765069, "lat": 28.960539503671715}], "country": "ایران", "formattedAddress": ["ایران"]}}, {"referralId": "v-1505909508", "specials": {"items": [], "count": 0}, "categories": [{"name": "Residential Building (Apartment / Condo)", "pluralName": "Residential Buildings (Apartments / Condos)", "id": "4d954b06a243a5684965b473", "icon": {"prefix": "https://ss3.4sqi.net/img/categories_v2/building/apartment_", "suffix": ".png"}, "primary": true, "shortName": "Residential"}], "hasPerk": false, "contact": {}, "beenHere": {"lastCheckinExpiredAt": 0}, "verified": false, "stats": {"checkinsCount": 60, "usersCount": 7, "tipCount": 0}, "name": "rest room of FASA PETROCHAMICAL CO|اقامتگاه شركت پتروشيمي فسا", "id": "577033ef498ea166399a76d1", "venueChains": [], "venueRatingBlacklisted": true, "location": {"cc": "IR", "lat": 28.960259, "lng": 53.613857, "labeledLatLngs": [{"label": "display", "lng": 53.613857, "lat": 28.960259}], "country": "ایران", "formattedAddress": ["ایران"]}}, {"referralId": "v-1505909508", "specials": {"items": [], "count": 0}, "categories": [{"name": "Football Stadium", "pluralName": "Football Stadiums", "id": "4bf58dd8d48988d189941735", "icon": {"prefix": "https://ss3.4sqi.net/img/categories_v2/arts_entertainment/stadium_football_", "suffix": ".png"}, "primary": true, "shortName": "Football"}], "hasPerk": false, "contact": {}, "beenHere": {"lastCheckinExpiredAt": 0}, "verified": false, "stats": {"checkinsCount": 8, "usersCount": 2, "tipCount": 0}, "name": "سالن فوتبال پتروشيمي|petrochemical football salon", "id": "57bc6507498e4ae1b89037e8", "venueChains": [], "location": {"cc": "IR", "lat": 28.963926, "lng": 53.628142, "labeledLatLngs": [{"label": "display", "lng": 53.628142, "lat": 28.963926}], "country": "ایران", "formattedAddress": ["ایران"]}}, {"referralId": "v-1505909508", "specials": {"items": [], "count": 0}, "categories": [{"name": "Factory", "pluralName": "Factories", "id": "4eb1bea83b7b6f98df247e06", "icon": {"prefix": "https://ss3.4sqi.net/img/categories_v2/building/factory_", "suffix": ".png"}, "primary": true, "shortName": "Factory"}], "hasPerk": false, "contact": {}, "beenHere": {"lastCheckinExpiredAt": 0}, "verified": false, "stats": {"checkinsCount": 10, "usersCount": 1, "tipCount": 0}, "name": "Fasa petrochamical co|پتروشيمي فسا", "id": "57701f46498eecbf20eaa5e1", "venueChains": [], "venueRatingBlacklisted": true, "location": {"cc": "IR", "lat": 28.954338, "lng": 53.653902, "labeledLatLngs": [{"label": "display", "lng": 53.653902, "lat": 28.954338}], "country": "ایران", "formattedAddress": ["ایران"]}}, {"referralId": "v-1505909508", "specials": {"items": [], "count": 0}, "categories": [{"name": "Forest", "pluralName": "Forests", "id": "52e81612bcbc57f1066b7a23", "icon": {"prefix": "https://ss3.4sqi.net/img/categories_v2/parks_outdoors/default_", "suffix": ".png"}, "primary": true, "shortName": "Forest"}], "hasPerk": false, "contact": {}, "beenHere": {"lastCheckinExpiredAt": 0}, "verified": false, "stats": {"checkinsCount": 2, "usersCount": 2, "tipCount": 0}, "name": "Barare | برره", "id": "57276bc5498e3c81483483ac", "venueChains": [], "location": {"cc": "IR", "lat": 28.958356764815388, "lng": 53.63628605610182, "labeledLatLngs": [{"label": "display", "lng": 53.63628605610182, "lat": 28.958356764815388}], "country": "ایران", "formattedAddress": ["ایران"]}}, {"referralId": "v-1505909508", "specials": {"items": [], "count": 0}, "categories": [{"name": "Restaurant", "pluralName": "Restaurants", "id": "4bf58dd8d48988d1c4941735", "icon": {"prefix": "https://ss3.4sqi.net/img/categories_v2/food/default_", "suffix": ".png"}, "primary": true, "shortName": "Restaurant"}], "hasPerk": false, "contact": {}, "beenHere": {"lastCheckinExpiredAt": 0}, "verified": false, "stats": {"checkinsCount": 5, "usersCount": 1, "tipCount": 0}, "name": "كبابي صادق", "id": "5708dae2498e3d4a7fc5b483", "allowMenuUrlEdit": true, "venueChains": [], "location": {"cc": "IR", "lat": 28.955468, "lng": 53.637874, "labeledLatLngs": [{"label": "display", "lng": 53.637874, "lat": 28.955468}], "country": "ایران", "formattedAddress": ["ایران"]}}, {"referralId": "v-1505909508", "specials": {"items": [], "count": 0}, "categories": [{"name": "Waterfall", "pluralName": "Waterfalls", "id": "56aa371be4b08b9a8d573560", "icon": {"prefix": "https://ss3.4sqi.net/img/categories_v2/parks_outdoors/default_", "suffix": ".png"}, "primary": true, "shortName": "Waterfall"}], "hasPerk": false, "contact": {}, "beenHere": {"lastCheckinExpiredAt": 0}, "verified": false, "stats": {"checkinsCount": 22, "usersCount": 2, "tipCount": 0}, "name": "باغ سعيد", "id": "5708ec97498e2f86f1251993", "venueChains": [], "location": {"cc": "IR", "lat": 28.96304405526246, "lng": 53.649457583289944, "labeledLatLngs": [{"label": "display", "lng": 53.649457583289944, "lat": 28.96304405526246}], "country": "ایران", "formattedAddress": ["ایران"]}}, {"referralId": "v-1505909508", "specials": {"items": [], "count": 0}, "categories": [{"name": "Garden", "pluralName": "Gardens", "id": "4bf58dd8d48988d15a941735", "icon": {"prefix": "https://ss3.4sqi.net/img/categories_v2/parks_outdoors/garden_", "suffix": ".png"}, "primary": true, "shortName": "Garden"}], "hasPerk": false, "contact": {}, "beenHere": {"lastCheckinExpiredAt": 0}, "verified": false, "stats": {"checkinsCount": 6, "usersCount": 6, "tipCount": 0}, "name": "باغ کدیوری", "id": "58d28c7ed32b44513b4937ca", "venueChains": [], "location": {"cc": "IR", "lat": 28.960588, "lng": 53.63925, "labeledLatLngs": [{"label": "display", "lng": 53.63925, "lat": 28.960588}], "country": "ایران", "formattedAddress": ["ایران"]}}, {"referralId": "v-1505909508", "specials": {"items": [], "count": 0}, "categories": [{"name": "Funeral Home", "pluralName": "Funeral Homes", "id": "4f4534884b9074f6e4fb0174", "icon": {"prefix": "https://ss3.4sqi.net/img/categories_v2/building/funeralhome_", "suffix": ".png"}, "primary": true, "shortName": "Funeral Home"}], "hasPerk": false, "contact": {}, "beenHere": {"lastCheckinExpiredAt": 0}, "verified": false, "stats": {"checkinsCount": 4, "usersCount": 4, "tipCount": 0}, "name": "خونه مامان جون", "id": "58df7f5ed772f9415f176faf", "venueChains": [], "venueRatingBlacklisted": true, "location": {"cc": "IR", "lat": 28.956574, "lng": 53.657295, "labeledLatLngs": [{"label": "display", "lng": 53.657295, "lat": 28.956574}], "country": "ایران", "state": "فارس", "formattedAddress": ["فارس", "ایران"]}}, {"referralId": "v-1505909509", "specials": {"items": [], "count": 0}, "categories": [{"name": "University", "pluralName": "Universities", "id": "4bf58dd8d48988d1ae941735", "icon": {"prefix": "https://ss3.4sqi.net/img/categories_v2/education/default_", "suffix": ".png"}, "primary": true, "shortName": "University"}], "hasPerk": false, "contact": {}, "beenHere": {"lastCheckinExpiredAt": 0}, "verified": false, "stats": {"checkinsCount": 136, "usersCount": 92, "tipCount": 0}, "name": "Fasa", "id": "541413bf498e90969efb525e", "venueChains": [], "venueRatingBlacklisted": true, "location": {"lng": 53.636444735659154, "address": "فسا", "lat": 28.954168270511264, "labeledLatLngs": [{"label": "display", "lng": 53.636444735659154, "lat": 28.954168270511264}], "cc": "IR", "country": "ایران", "formattedAddress": ["فسا (بلوار دانشجو)", "ایران"], "crossStreet": "بلوار دانشجو"}}, {"referralId": "v-1505909512", "specials": {"items": [], "count": 0}, "categories": [{"name": "Garden", "pluralName": "Gardens", "id": "4bf58dd8d48988d15a941735", "icon": {"prefix": "https://ss3.4sqi.net/img/categories_v2/parks_outdoors/garden_", "suffix": ".png"}, "primary": true, "shortName": "Garden"}], "hasPerk": false, "contact": {}, "beenHere": {"lastCheckinExpiredAt": 0}, "verified": false, "stats": {"checkinsCount": 2, "usersCount": 2, "tipCount": 0}, "name": "باغ عمو هوشنگ", "id": "56fe2ba1498eb7daf5d06284", "venueChains": [], "location": {"cc": "IR", "lat": 28.97510818878866, "lng": 53.6414274417845, "labeledLatLngs": [{"label": "display", "lng": 53.6414274417845, "lat": 28.97510818878866}], "country": "ایران", "formattedAddress": ["ایران"]}}]