[{"referralId": "v-1505909484", "specials": {"items": [], "count": 0}, "categories": [{"name": "Town", "pluralName": "Towns", "id": "530e33ccbcbc57f1066bbff3", "icon": {"prefix": "https://ss3.4sqi.net/img/categories_v2/parks_outdoors/neighborhood_", "suffix": ".png"}, "primary": true, "shortName": "Town"}], "hasPerk": false, "contact": {}, "beenHere": {"lastCheckinExpiredAt": 0}, "verified": false, "stats": {"checkinsCount": 5, "usersCount": 5, "tipCount": 0}, "name": "اصغر آباد | Asghar Abad", "id": "5602c2a6498e9d23b36f66ed", "venueChains": [], "venueRatingBlacklisted": true, "location": {"cc": "IR", "lat": 32.651573181152344, "lng": 51.48148727416992, "labeledLatLngs": [{"label": "display", "lng": 51.48148727416992, "lat": 32.651573181152344}], "country": "ایران", "formattedAddress": ["ایران"]}}, {"referralId": "v-1505909486", "specials": {"items": [], "count": 0}, "categories": [{"name": "Mountain", "pluralName": "Mountains", "id": "4eb1d4d54b900d56c88a45fc", "icon": {"prefix": "https://ss3.4sqi.net/img/categories_v2/parks_outdoors/mountain_", "suffix": ".png"}, "primary": true, "shortName": "Mountain"}], "hasPerk": false, "contact": {}, "beenHere": {"lastCheckinExpiredAt": 0}, "verified": false, "stats": {"checkinsCount": 1, "usersCount": 1, "tipCount": 1}, "name": "Marbin Fortress", "id": "54c91fcd498e47b4397b5436", "venueChains": [], "location": {"cc": "IR", "lat": 32.652632, "lng": 51.543775, "labeledLatLngs": [{"label": "display", "lng": 51.543775, "lat": 32.652632}], "country": "ایران", "city": "Isf", "formattedAddress": ["Isf", "ایران"]}}, {"referralId": "v-1505909487", "specials": {"items": [], "count": 0}, "categories": [{"name": "Auto Dealership", "pluralName": "Auto Dealerships", "id": "4eb1c1623b7b52c0e1adc2ec", "icon": {"prefix": "https://ss3.4sqi.net/img/categories_v2/shops/automotive_", "suffix": ".png"}, "primary": true, "shortName": "Auto Dealer"}], "hasPerk": false, "contact": {}, "beenHere": {"lastCheckinExpiredAt": 0}, "verified": false, "stats": {"checkinsCount": 4, "usersCount": 1, "tipCount": 0}, "name": "ايران خودرو چاوشي زاده", "id": "56ff734f498e9f451b19607f", "allowMenuUrlEdit": true, "venueChains": [], "location": {"cc": "IR", "address": "خيابان اتشگاه قبل از خيابان نبوي منش", "lat": 32.64992661623254, "labeledLatLngs": [{"label": "display", "lng": 51.59196853637695, "lat": 32.64992661623254}], "lng": 51.59196853637695, "country": "ایران", "formattedAddress": ["خيابان اتشگاه قبل از خيابان نبوي منش", "ایران"]}}, {"referralId": "v-1505909487", "specials": {"items": [], "count": 0}, "categories": [{"name": "Motel", "pluralName": "Motels", "id": "4bf58dd8d48988d1fb931735", "icon": {"prefix": "https://ss3.4sqi.net/img/categories_v2/travel/hotel_", "suffix": ".png"}, "primary": true, "shortName": "Motel"}], "hasPerk": false, "contact": {}, "beenHere": {"lastCheckinExpiredAt": 0}, "verified": false, "stats": {"checkinsCount": 3, "usersCount": 1, "tipCount": 0}, "name": "توزيع و بهره برداري اداره برق اصفهان", "id": "56ee8a37498e06e638cd89d2", "allowMenuUrlEdit": true, "venueChains": [], "location": {"cc": "IR", "address": "آتشگاه", "lat": 32.644311, "labeledLatLngs": [{"label": "display", "lng": 51.559636, "lat": 32.644311}], "lng": 51.559636, "country": "ایران", "formattedAddress": ["آتشگاه", "ایران"]}}, {"referralId": "v-1505909487", "specials": {"items": [], "count": 0}, "categories": [{"name": "Comfort Food Restaurant", "pluralName": "Comfort Food Restaurants", "id": "52e81612bcbc57f1066b7a00", "icon": {"prefix": "https://ss3.4sqi.net/img/categories_v2/food/default_", "suffix": ".png"}, "primary": true, "shortName": "Comfort Food"}], "hasPerk": false, "contact": {}, "beenHere": {"lastCheckinExpiredAt": 0}, "verified": false, "stats": {"checkinsCount": 4, "usersCount": 4, "tipCount": 0}, "name": "باشگاه شماره ۱ شهرداری | No.1 Municipality Club", "id": "55570e61498ebc6387437e85", "allowMenuUrlEdit": true, "venueChains": [], "location": {"cc": "IR", "lat": 32.649424020775186, "lng": 51.5832097703865, "labeledLatLngs": [{"label": "display", "lng": 51.5832097703865, "lat": 32.649424020775186}], "country": "ایران", "formattedAddress": ["ایران"]}}, {"referralId": "v-1505909487", "specials": {"items": [], "count": 0}, "categories": [{"name": "Road", "pluralName": "Roads", "id": "4bf58dd8d48988d1f9931735", "icon": {"prefix": "https://ss3.4sqi.net/img/categories_v2/travel/highway_", "suffix": ".png"}, "primary": true, "shortName": "Road"}], "hasPerk": false, "contact": {}, "beenHere": {"lastCheckinExpiredAt": 0}, "verified": false, "stats": {"checkinsCount": 9, "usersCount": 7, "tipCount": 0}, "name": "فلکه دانشگاه", "id": "52c282e7498e9a069eb5a557", "venueChains": [], "venueRatingBlacklisted": true, "location": {"cc": "IR", "lat": 32.6499729071475, "lng": 51.55893463926036, "labeledLatLngs": [{"label": "display", "lng": 51.55893463926036, "lat": 32.6499729071475}], "country": "ایران", "formattedAddress": ["ایران"]}}, {"referralId": "v-1505909487", "specials": {"items": [], "count": 0}, "categories": [{"name": "Persian Restaurant", "pluralName": "Persian Restaurants", "id": "52e81612bcbc57f1066b79f7", "icon": {"prefix": "https://ss3.4sqi.net/img/categories_v2/food/middleeastern_", "suffix": ".png"}, "primary": true, "shortName": "Persian"}], "hasPerk": false, "contact": {}, "beenHere": {"lastCheckinExpiredAt": 0}, "verified": false, "stats": {"checkinsCount": 29, "usersCount": 9, "tipCount": 0}, "name": "Zeytoon Restaurant | رستوران زیتون", "id": "5391f02a498e6a4f587b8762", "allowMenuUrlEdit": true, "venueChains": [], "location": {"state": "اصفهان", "lng": 51.561544, "address": "Atashgah St.", "lat": 32.646306, "labeledLatLngs": [{"label": "display", "lng": 51.561544, "lat": 32.646306}], "cc": "IR", "country": "ایران", "city": "اصفهان", "formattedAddress": ["Atashgah St. (at Amirkabir St.)", "اصفهان, اصفهان", "ایران"], "crossStreet": "at Amirkabir St."}}, {"referralId": "v-1505909487", "specials": {"items": [], "count": 0}, "categories": [{"name": "Restaurant", "pluralName": "Restaurants", "id": "4bf58dd8d48988d1c4941735", "icon": {"prefix": "https://ss3.4sqi.net/img/categories_v2/food/default_", "suffix": ".png"}, "primary": true, "shortName": "Restaurant"}], "hasPerk": false, "contact": {}, "beenHere": {"lastCheckinExpiredAt": 0}, "verified": false, "stats": {"checkinsCount": 10, "usersCount": 8, "tipCount": 1}, "name": "Sib Restaurant | رستوران سیب", "id": "52e2ad0a498ec67d1f58133c", "allowMenuUrlEdit": true, "venueChains": [], "location": {"cc": "IR", "address": "Atashgah Rd.", "lat": 32.64537974566267, "labeledLatLngs": [{"label": "display", "lng": 51.564133136656025, "lat": 32.64537974566267}], "lng": 51.564133136656025, "country": "ایران", "city": "Isfahan", "formattedAddress": ["Atashgah Rd.", "Isfahan, Ostān-e Eşfahān", "ایران"], "state": "Ostān-e Eşfahān"}}, {"referralId": "v-1505909487", "specials": {"items": [], "count": 0}, "categories": [{"name": "Road", "pluralName": "Roads", "id": "4bf58dd8d48988d1f9931735", "icon": {"prefix": "https://ss3.4sqi.net/img/categories_v2/travel/highway_", "suffix": ".png"}, "primary": true, "shortName": "Road"}], "hasPerk": false, "contact": {}, "beenHere": {"lastCheckinExpiredAt": 0}, "verified": false, "stats": {"checkinsCount": 1, "usersCount": 1, "tipCount": 0}, "name": "Nabavimanesh Street | خیابان نبوی منش", "id": "57314acc498e59d0cd776e78", "venueChains": [], "venueRatingBlacklisted": true, "location": {"cc": "IR", "address": "Atashgah", "lat": 32.65009, "labeledLatLngs": [{"label": "display", "lng": 51.588963, "lat": 32.65009}], "lng": 51.588963, "country": "ایران", "state": "اصفهان", "formattedAddress": ["Atashgah", "Esfahan, اصفهان", "ایران"]}}, {"referralId": "v-1505909487", "specials": {"items": [], "count": 0}, "categories": [{"name": "Town", "pluralName": "Towns", "id": "530e33ccbcbc57f1066bbff3", "icon": {"prefix": "https://ss3.4sqi.net/img/categories_v2/parks_outdoors/neighborhood_", "suffix": ".png"}, "primary": true, "shortName": "Town"}], "hasPerk": false, "contact": {}, "beenHere": {"lastCheckinExpiredAt": 0}, "verified": false, "stats": {"checkinsCount": 16, "usersCount": 13, "tipCount": 0}, "name": "Abrisham | ابريشم", "id": "5314d772e4b0e72a36d17ce5", "venueChains": [], "venueRatingBlacklisted": true, "location": {"cc": "IR", "lat": 32.65091439367273, "lng": 51.57584152190096, "labeledLatLngs": [{"label": "display", "lng": 51.57584152190096, "lat": 32.65091439367273}], "state": "Ostān-e Eşfahān", "country": "ایران", "city": "Abrīsham", "formattedAddress": ["Abrīsham, Ostān-e Eşfahān", "ایران"]}}, {"referralId": "v-1505909487", "specials": {"items": [], "count": 0}, "categories": [{"name": "Kebab Restaurant", "pluralName": "Kebab Restaurants", "id": "5283c7b4e4b094cb91ec88d7", "icon": {"prefix": "https://ss3.4sqi.net/img/categories_v2/food/middleeastern_", "suffix": ".png"}, "primary": true, "shortName": "Kebab"}], "hasPerk": false, "contact": {}, "beenHere": {"lastCheckinExpiredAt": 0}, "verified": false, "stats": {"checkinsCount": 5, "usersCount": 5, "tipCount": 2}, "name": "Khatereh Kebab | کباب و بریان خاطره", "id": "53c006f8498eb5bf28d8fb3d", "allowMenuUrlEdit": true, "venueChains": [], "location": {"cc": "IR", "address": "Atashgah St", "lat": 32.645899, "labeledLatLngs": [{"label": "display", "lng": 51.568225, "lat": 32.645899}], "lng": 51.568225, "country": "ایران", "city": "اصفهان", "formattedAddress": ["Atashgah St", "اصفهان, اصفهان", "ایران"], "state": "اصفهان"}}, {"referralId": "v-1505909487", "specials": {"items": [], "count": 0}, "categories": [{"name": "Medical Lab", "pluralName": "Medical Labs", "id": "4f4531b14b9074f6e4fb0103", "icon": {"prefix": "https://ss3.4sqi.net/img/categories_v2/education/lab_", "suffix": ".png"}, "primary": true, "shortName": "Medical Lab"}], "hasPerk": false, "contact": {}, "beenHere": {"lastCheckinExpiredAt": 0}, "verified": false, "stats": {"checkinsCount": 5, "usersCount": 2, "tipCount": 0}, "name": "Gole Yas Laboratory | آزمایشگاه گل یاس", "id": "5731685e498ecf1e5d8f3c37", "venueChains": [], "venueRatingBlacklisted": true, "location": {"lng": 51.586136, "address": "Nabavimanesh St", "lat": 32.654373, "labeledLatLngs": [{"label": "display", "lng": 51.586136, "lat": 32.654373}], "cc": "IR", "country": "ایران", "state": "اصفهان", "formattedAddress": ["Nabavimanesh St (Atashgah)", "Esfahan, اصفهان", "ایران"], "crossStreet": "Atashgah"}}, {"referralId": "v-1505909487", "specials": {"items": [], "count": 0}, "categories": [{"name": "Flower Shop", "pluralName": "Flower Shops", "id": "4bf58dd8d48988d11b951735", "icon": {"prefix": "https://ss3.4sqi.net/img/categories_v2/shops/flowershop_", "suffix": ".png"}, "primary": true, "shortName": "Flower Shop"}], "hasPerk": false, "contact": {}, "beenHere": {"lastCheckinExpiredAt": 0}, "verified": false, "stats": {"checkinsCount": 8, "usersCount": 7, "tipCount": 0}, "name": "نمايشگاه دايمي گل و گياه ناردين", "id": "561cc715498e0e9b3362779f", "allowMenuUrlEdit": true, "venueChains": [], "location": {"cc": "IR", "lat": 32.647772, "lng": 51.583323, "labeledLatLngs": [{"label": "display", "lng": 51.583323, "lat": 32.647772}], "country": "ایران", "formattedAddress": ["ایران"]}}, {"referralId": "v-1505909487", "specials": {"items": [], "count": 0}, "categories": [{"name": "River", "pluralName": "Rivers", "id": "4eb1d4dd4b900d56c88a45fd", "icon": {"prefix": "https://ss3.4sqi.net/img/categories_v2/parks_outdoors/river_", "suffix": ".png"}, "primary": true, "shortName": "River"}], "hasPerk": false, "contact": {}, "beenHere": {"lastCheckinExpiredAt": 0}, "verified": false, "stats": {"checkinsCount": 10, "usersCount": 8, "tipCount": 0}, "name": "Nazhvan wave breaker|موج شكن ناژوان", "id": "570ca78d498e2c1e5af51412", "venueChains": [], "venueRatingBlacklisted": true, "location": {"cc": "IR", "lat": 32.642399, "lng": 51.588322, "labeledLatLngs": [{"label": "display", "lng": 51.588322, "lat": 32.642399}], "country": "ایران", "formattedAddress": ["ایران"]}}, {"referralId": "v-1505909487", "specials": {"items": [], "count": 0}, "categories": [{"name": "Assisted Living", "pluralName": "Assisted Living", "id": "5032891291d4c4b30a586d68", "icon": {"prefix": "https://ss3.4sqi.net/img/categories_v2/building/apartment_", "suffix": ".png"}, "primary": true, "shortName": "Assisted Living"}], "hasPerk": false, "contact": {}, "beenHere": {"lastCheckinExpiredAt": 0}, "verified": false, "stats": {"checkinsCount": 5, "usersCount": 2, "tipCount": 0}, "name": "خونه خانوادگيه اصفهان", "id": "58d2c9028ab03f3e3a7356ef", "venueChains": [], "venueRatingBlacklisted": true, "location": {"state": "H", "lng": 51.586586, "address": "Esfahan", "lat": 32.648764, "labeledLatLngs": [{"label": "display", "lng": 51.586586, "lat": 32.648764}], "cc": "IR", "country": "ایران", "city": "Esfahan", "formattedAddress": ["Esfahan (Navab)", "Esfahan, H H", "ایران"], "crossStreet": "Navab", "postalCode": "H"}}, {"referralId": "v-1505909487", "specials": {"items": [], "count": 0}, "categories": [{"name": "Persian Restaurant", "pluralName": "Persian Restaurants", "id": "52e81612bcbc57f1066b79f7", "icon": {"prefix": "https://ss3.4sqi.net/img/categories_v2/food/middleeastern_", "suffix": ".png"}, "primary": true, "shortName": "Persian"}], "hasPerk": false, "contact": {}, "beenHere": {"lastCheckinExpiredAt": 0}, "verified": false, "stats": {"checkinsCount": 12, "usersCount": 8, "tipCount": 3}, "name": "Atashgah Dizi | آبگوشت سنتی آتشگاه", "id": "549d4aed498e3a87329afc4b", "allowMenuUrlEdit": true, "venueChains": [], "location": {"cc": "IR", "address": "Atashgah St.", "lat": 32.64569228164657, "labeledLatLngs": [{"label": "display", "lng": 51.56817098602095, "lat": 32.64569228164657}], "lng": 51.56817098602095, "country": "ایران", "city": "اصفهان", "formattedAddress": ["Atashgah St.", "اصفهان, اصفهان", "ایران"], "state": "اصفهان"}}, {"referralId": "v-1505909487", "specials": {"items": [], "count": 0}, "categories": [{"name": "Restaurant", "pluralName": "Restaurants", "id": "4bf58dd8d48988d1c4941735", "icon": {"prefix": "https://ss3.4sqi.net/img/categories_v2/food/default_", "suffix": ".png"}, "primary": true, "shortName": "Restaurant"}], "hasPerk": false, "contact": {}, "beenHere": {"lastCheckinExpiredAt": 0}, "verified": false, "stats": {"checkinsCount": 5, "usersCount": 5, "tipCount": 0}, "name": "سفره سراي سيد", "id": "58848c5e951e7d6cfbd85673", "allowMenuUrlEdit": true, "venueChains": [], "location": {"cc": "IR", "address": "فلكه آتشگاه", "lat": 32.645099, "labeledLatLngs": [{"label": "display", "lng": 51.564056, "lat": 32.645099}], "lng": 51.564056, "country": "ایران", "city": "اصفهان", "formattedAddress": ["فلكه آتشگاه", "اصفهان, اصفهان", "ایران"], "state": "اصفهان"}}, {"referralId": "v-1505909487", "specials": {"items": [], "count": 0}, "categories": [{"name": "Historic Site", "pluralName": "Historic Sites", "id": "4deefb944765f83613cdba6e", "icon": {"prefix": "https://ss3.4sqi.net/img/categories_v2/arts_entertainment/historicsite_", "suffix": ".png"}, "primary": true, "shortName": "Historic Site"}], "hasPerk": false, "contact": {}, "beenHere": {"lastCheckinExpiredAt": 0}, "verified": false, "stats": {"checkinsCount": 1, "usersCount": 1, "tipCount": 0}, "name": "Zoroastrian Houses", "id": "59789d7c603d2a03f18cfffa", "venueChains": [], "location": {"cc": "IR", "lat": 32.643901, "lng": 51.570577, "labeledLatLngs": [{"label": "display", "lng": 51.570577, "lat": 32.643901}], "state": "اصفهان", "country": "ایران", "city": "(خانه هاي زرتشتي)", "formattedAddress": ["(خانه هاي زرتشتي), اصفهان", "ایران"]}}, {"referralId": "v-1505909487", "specials": {"items": [], "count": 0}, "categories": [{"name": "Sculpture Garden", "pluralName": "Sculpture Gardens", "id": "4bf58dd8d48988d166941735", "icon": {"prefix": "https://ss3.4sqi.net/img/categories_v2/parks_outdoors/sculpture_", "suffix": ".png"}, "primary": true, "shortName": "Sculpture"}], "hasPerk": false, "contact": {}, "beenHere": {"lastCheckinExpiredAt": 0}, "verified": false, "stats": {"checkinsCount": 77, "usersCount": 26, "tipCount": 1}, "name": "Ferdows Garden | مجموعه فرهنگی باغ فردوس", "id": "51ac821a498eee8ac67467b2", "allowMenuUrlEdit": true, "venueChains": [], "location": {"cc": "IR", "lat": 32.65370187278262, "lng": 51.57220394354778, "labeledLatLngs": [{"label": "display", "lng": 51.57220394354778, "lat": 32.65370187278262}], "state": "Ostān-e Eşfahān", "country": "ایران", "city": "Isfahan", "formattedAddress": ["Isfahan, Ostān-e Eşfahān", "ایران"]}}, {"referralId": "v-1505909487", "specials": {"items": [], "count": 0}, "categories": [{"name": "Juice Bar", "pluralName": "Juice Bars", "id": "4bf58dd8d48988d112941735", "icon": {"prefix": "https://ss3.4sqi.net/img/categories_v2/food/juicebar_", "suffix": ".png"}, "primary": true, "shortName": "Juice Bar"}], "hasPerk": false, "contact": {}, "beenHere": {"lastCheckinExpiredAt": 0}, "verified": false, "stats": {"checkinsCount": 8, "usersCount": 5, "tipCount": 1}, "name": "Del Neshin | دل نشین", "id": "54e74ff3498ef7be104ae1d1", "allowMenuUrlEdit": true, "venueChains": [], "location": {"cc": "IR", "address": "Atashgah St.", "lat": 32.64544, "labeledLatLngs": [{"label": "display", "lng": 51.564742, "lat": 32.64544}], "lng": 51.564742, "country": "ایران", "city": "اصفهان", "formattedAddress": ["Atashgah St.", "اصفهان, اصفهان", "ایران"], "state": "اصفهان"}}, {"referralId": "v-1505909487", "specials": {"items": [], "count": 0}, "categories": [{"name": "Historic Site", "pluralName": "Historic Sites", "id": "4deefb944765f83613cdba6e", "icon": {"prefix": "https://ss3.4sqi.net/img/categories_v2/arts_entertainment/historicsite_", "suffix": ".png"}, "primary": true, "shortName": "Historic Site"}], "hasPerk": false, "contact": {}, "beenHere": {"lastCheckinExpiredAt": 0}, "verified": false, "stats": {"checkinsCount": 1, "usersCount": 1, "tipCount": 0}, "name": "Kabotar Tower", "id": "597899fa08815866c3014377", "venueChains": [], "location": {"cc": "IR", "lat": 32.653912, "lng": 51.578967, "labeledLatLngs": [{"label": "display", "lng": 51.578967, "lat": 32.653912}], "state": "اصفهان", "country": "ایران", "city": "(برج كبوتر)", "formattedAddress": ["(برج كبوتر), اصفهان", "ایران"]}}, {"referralId": "v-1505909487", "specials": {"items": [], "count": 0}, "categories": [{"name": "Road", "pluralName": "Roads", "id": "4bf58dd8d48988d1f9931735", "icon": {"prefix": "https://ss3.4sqi.net/img/categories_v2/travel/highway_", "suffix": ".png"}, "primary": true, "shortName": "Road"}], "hasPerk": false, "contact": {}, "beenHere": {"lastCheckinExpiredAt": 0}, "verified": false, "stats": {"checkinsCount": 3, "usersCount": 2, "tipCount": 0}, "name": "سه راه آتشگاه", "id": "59268b835a2c910f652c4884", "venueChains": [], "venueRatingBlacklisted": true, "location": {"state": "اصفهان", "lng": 51.561709, "address": "Isfahan-Najaf Abad Road", "lat": 32.645319, "labeledLatLngs": [{"label": "display", "lng": 51.561709, "lat": 32.645319}], "cc": "IR", "country": "ایران", "city": "Khomeini Shahr", "formattedAddress": ["Isfahan-Najaf Abad Road (After Atashgah Hill)", "Khomeini Shahr, اصفهان", "ایران"], "crossStreet": "After Atashgah Hill"}}, {"referralId": "v-1505909487", "specials": {"items": [], "count": 0}, "categories": [{"name": "Restaurant", "pluralName": "Restaurants", "id": "4bf58dd8d48988d1c4941735", "icon": {"prefix": "https://ss3.4sqi.net/img/categories_v2/food/default_", "suffix": ".png"}, "primary": true, "shortName": "Restaurant"}], "hasPerk": false, "contact": {}, "beenHere": {"lastCheckinExpiredAt": 0}, "verified": false, "stats": {"checkinsCount": 35, "usersCount": 28, "tipCount": 5}, "name": "Fanoos Restaurant | رستوران فانوس", "id": "5228a2bc11d2e491a2a34b88", "allowMenuUrlEdit": true, "venueChains": [], "location": {"cc": "IR", "address": "Atashgah Rd.", "lat": 32.64549831861693, "labeledLatLngs": [{"label": "display", "lng": 51.565720506123476, "lat": 32.64549831861693}], "lng": 51.565720506123476, "country": "ایران", "city": "اصفهان", "formattedAddress": ["Atashgah Rd.", "اصفهان, اصفهان", "ایران"], "state": "اصفهان"}}, {"referralId": "v-1505909487", "specials": {"items": [], "count": 0}, "categories": [{"name": "Turkish Home Cooking Restaurant", "pluralName": "Turkish Home Cooking Restaurants", "id": "5283c7b4e4b094cb91ec88d4", "icon": {"prefix": "https://ss3.4sqi.net/img/categories_v2/food/turkish_", "suffix": ".png"}, "primary": true, "shortName": "Turkish Home Cooking"}], "hasPerk": false, "contact": {}, "beenHere": {"lastCheckinExpiredAt": 0}, "verified": false, "stats": {"checkinsCount": 6, "usersCount": 6, "tipCount": 0}, "name": "Arta Azerbaijani Restaurant | رستوران آذرى آرتا", "id": "57078a59498e04ec29455548", "allowMenuUrlEdit": true, "venueChains": [], "location": {"cc": "IR", "address": "Atashgah Blvd", "lat": 32.645825, "labeledLatLngs": [{"label": "display", "lng": 51.567871, "lat": 32.645825}], "lng": 51.567871, "country": "ایران", "city": "اصفهان", "formattedAddress": ["Atashgah Blvd", "اصفهان, اصفهان", "ایران"], "state": "اصفهان"}}, {"referralId": "v-1505909487", "specials": {"items": [], "count": 0}, "categories": [{"name": "Persian Restaurant", "pluralName": "Persian Restaurants", "id": "52e81612bcbc57f1066b79f7", "icon": {"prefix": "https://ss3.4sqi.net/img/categories_v2/food/middleeastern_", "suffix": ".png"}, "primary": true, "shortName": "Persian"}], "hasPerk": false, "contact": {}, "beenHere": {"lastCheckinExpiredAt": 0}, "verified": false, "stats": {"checkinsCount": 3, "usersCount": 3, "tipCount": 1}, "name": "رستوران خانه معلم", "id": "58e20bb7b3cdc853097a68fc", "allowMenuUrlEdit": true, "venueChains": [], "location": {"cc": "IR", "address": "Atashgah", "lat": 32.651348, "labeledLatLngs": [{"label": "display", "lng": 51.567693, "lat": 32.651348}], "lng": 51.567693, "country": "ایران", "city": "اصفهان", "formattedAddress": ["Atashgah", "اصفهان, اصفهان", "ایران"], "state": "اصفهان"}}, {"referralId": "v-1505909487", "specials": {"items": [], "count": 0}, "categories": [{"name": "Restaurant", "pluralName": "Restaurants", "id": "4bf58dd8d48988d1c4941735", "icon": {"prefix": "https://ss3.4sqi.net/img/categories_v2/food/default_", "suffix": ".png"}, "primary": true, "shortName": "Restaurant"}], "hasPerk": false, "contact": {}, "beenHere": {"lastCheckinExpiredAt": 0}, "verified": false, "stats": {"checkinsCount": 16, "usersCount": 15, "tipCount": 4}, "name": "رستوران قیطران", "id": "5809f02038fab0f7de70e30e", "allowMenuUrlEdit": true, "venueChains": [], "location": {"lng": 51.590355, "address": "Atashgah St.", "lat": 32.649698, "labeledLatLngs": [{"label": "display", "lng": 51.590355, "lat": 32.649698}], "cc": "IR", "country": "ایران", "state": "اصفهان", "formattedAddress": ["Atashgah St. (Next to Nabavimanesh St.)", "Esfahan, اصفهان", "ایران"], "crossStreet": "Next to Nabavimanesh St."}}, {"referralId": "v-1505909487", "specials": {"items": [], "count": 0}, "categories": [{"name": "Restaurant", "pluralName": "Restaurants", "id": "4bf58dd8d48988d1c4941735", "icon": {"prefix": "https://ss3.4sqi.net/img/categories_v2/food/default_", "suffix": ".png"}, "primary": true, "shortName": "Restaurant"}], "hasPerk": false, "contact": {}, "beenHere": {"lastCheckinExpiredAt": 0}, "verified": false, "stats": {"checkinsCount": 1, "usersCount": 1, "tipCount": 0}, "name": "مجتمع اردیبهشت", "id": "59a05fefeacf4560fc3a065e", "allowMenuUrlEdit": true, "venueChains": [], "location": {"cc": "IR", "lat": 32.649685, "lng": 51.574028, "labeledLatLngs": [{"label": "display", "lng": 51.574028, "lat": 32.649685}], "state": "اصفهان", "country": "ایران", "city": "اصفهان", "formattedAddress": ["اصفهان, اصفهان ۰۳۱", "ایران"], "postalCode": "۰۳۱"}}, {"referralId": "v-1505909487", "specials": {"items": [], "count": 0}, "categories": [{"name": "Persian Restaurant", "pluralName": "Persian Restaurants", "id": "52e81612bcbc57f1066b79f7", "icon": {"prefix": "https://ss3.4sqi.net/img/categories_v2/food/middleeastern_", "suffix": ".png"}, "primary": true, "shortName": "Persian"}], "hasPerk": false, "contact": {}, "beenHere": {"lastCheckinExpiredAt": 0}, "verified": false, "stats": {"checkinsCount": 48, "usersCount": 41, "tipCount": 5}, "name": "Atashgah Restaurant | رستوران آتشگاه", "id": "5117d349e4b0cd236ea5f922", "allowMenuUrlEdit": true, "venueChains": [], "location": {"cc": "IR", "address": "Atashgah", "lat": 32.64631121791416, "labeledLatLngs": [{"label": "display", "lng": 51.56681473438567, "lat": 32.64631121791416}], "lng": 51.56681473438567, "country": "ایران", "city": "Isfahan", "formattedAddress": ["Atashgah", "Isfahan, Ostān-e Eşfahān", "ایران"], "state": "Ostān-e Eşfahān"}}, {"referralId": "v-1505909487", "specials": {"items": [], "count": 0}, "categories": [{"name": "Historic Site", "pluralName": "Historic Sites", "id": "4deefb944765f83613cdba6e", "icon": {"prefix": "https://ss3.4sqi.net/img/categories_v2/arts_entertainment/historicsite_", "suffix": ".png"}, "primary": true, "shortName": "Historic Site"}], "hasPerk": false, "contact": {}, "beenHere": {"lastCheckinExpiredAt": 0}, "verified": false, "stats": {"checkinsCount": 109, "usersCount": 97, "tipCount": 2}, "name": "Atashgah | آتشگاه", "id": "507fe783e4b0d2369047936c", "venueChains": [], "location": {"cc": "IR", "lat": 32.6422521237249, "lng": 51.57858011288652, "labeledLatLngs": [{"label": "display", "lng": 51.57858011288652, "lat": 32.6422521237249}], "state": "اصفهان", "country": "ایران", "city": "اصفهان", "formattedAddress": ["اصفهان, اصفهان", "ایران"]}}, {"referralId": "v-1505909487", "specials": {"items": [], "count": 0}, "categories": [{"name": "Restaurant", "pluralName": "Restaurants", "id": "4bf58dd8d48988d1c4941735", "icon": {"prefix": "https://ss3.4sqi.net/img/categories_v2/food/default_", "suffix": ".png"}, "primary": true, "shortName": "Restaurant"}], "hasPerk": false, "contact": {}, "beenHere": {"lastCheckinExpiredAt": 0}, "verified": false, "stats": {"checkinsCount": 277, "usersCount": 260, "tipCount": 41}, "name": "Shab Neshin Restaurant | باغ رستوران شب نشین", "id": "4f7833c4e4b01af713974c4c", "allowMenuUrlEdit": true, "venueChains": [], "location": {"cc": "IR", "address": "Atashgah", "lat": 32.64592362147652, "labeledLatLngs": [{"label": "display", "lng": 51.56462629591675, "lat": 32.64592362147652}], "lng": 51.56462629591675, "country": "ایران", "city": "اصفهان", "formattedAddress": ["Atashgah", "اصفهان, اصفهان", "ایران"], "state": "اصفهان"}}, {"referralId": "v-1505909489", "specials": {"items": [], "count": 0}, "categories": [{"name": "Credit Union", "pluralName": "Credit Unions", "id": "5032850891d4c4b30a586d62", "icon": {"prefix": "https://ss3.4sqi.net/img/categories_v2/shops/financial_", "suffix": ".png"}, "primary": true, "shortName": "Credit Union"}], "hasPerk": false, "contact": {}, "beenHere": {"lastCheckinExpiredAt": 0}, "verified": false, "stats": {"checkinsCount": 2, "usersCount": 2, "tipCount": 0}, "name": "Kowsar Credit Union | صندوق قرض الحسنه کوثر", "id": "53fc848c498e0e417ffd5755", "allowMenuUrlEdit": true, "venueChains": [], "location": {"cc": "IR", "address": "Montazeri St", "lat": 32.678306579589844, "labeledLatLngs": [{"label": "display", "lng": 51.53058624267578, "lat": 32.678306579589844}], "lng": 51.53058624267578, "country": "ایران", "city": "Khomeynī Shahr", "formattedAddress": ["Montazeri St", "Khomeynī Shahr, Ostān-e Eşfahān", "ایران"], "state": "Ostān-e Eşfahān"}}, {"referralId": "v-1505909489", "specials": {"items": [], "count": 0}, "categories": [{"name": "Falafel Restaurant", "pluralName": "Falafel Restaurants", "id": "4bf58dd8d48988d10b941735", "icon": {"prefix": "https://ss3.4sqi.net/img/categories_v2/food/falafel_", "suffix": ".png"}, "primary": true, "shortName": "Falafel"}], "hasPerk": false, "contact": {}, "beenHere": {"lastCheckinExpiredAt": 0}, "verified": false, "stats": {"checkinsCount": 9, "usersCount": 9, "tipCount": 1}, "name": "فلافل لنبان", "id": "57ae07d8498e768f8b39d3f6", "allowMenuUrlEdit": true, "venueChains": [], "location": {"cc": "IR", "lat": 32.672943, "lng": 51.53374, "labeledLatLngs": [{"label": "display", "lng": 51.53374, "lat": 32.672943}], "country": "ایران", "city": "Khomeini Shahr", "formattedAddress": ["Khomeini Shahr", "ایران"]}}, {"referralId": "v-1505909489", "specials": {"items": [], "count": 0}, "categories": [{"name": "Auto Garage", "pluralName": "Auto Garages", "id": "52f2ab2ebcbc57f1066b8b44", "icon": {"prefix": "https://ss3.4sqi.net/img/categories_v2/shops/automotive_", "suffix": ".png"}, "primary": true, "shortName": "Auto Garage"}], "hasPerk": false, "contact": {}, "beenHere": {"lastCheckinExpiredAt": 0}, "verified": false, "stats": {"checkinsCount": 1, "usersCount": 1, "tipCount": 0}, "name": "Pars Peugeot Auto Garage", "id": "57d40af6498e462efe16d7e1", "allowMenuUrlEdit": true, "venueChains": [], "location": {"cc": "IR", "address": "Ashrafi Esfahani Blvd.", "lat": 32.682939, "labeledLatLngs": [{"label": "display", "lng": 51.556149, "lat": 32.682939}], "lng": 51.556149, "country": "ایران", "state": "اصفهان", "formattedAddress": ["Ashrafi Esfahani Blvd.", "Khomeini Shahr, اصفهان", "ایران"]}}, {"referralId": "v-1505909489", "specials": {"items": [], "count": 0}, "categories": [{"name": "Cemetery", "pluralName": "Cemeteries", "id": "4bf58dd8d48988d15c941735", "icon": {"prefix": "https://ss3.4sqi.net/img/categories_v2/parks_outdoors/cemetery_", "suffix": ".png"}, "primary": true, "shortName": "Cemetery"}], "hasPerk": false, "contact": {}, "beenHere": {"lastCheckinExpiredAt": 0}, "verified": false, "stats": {"checkinsCount": 3, "usersCount": 3, "tipCount": 0}, "name": "Darbe Seyed Cemetery | قبرستان درب سيد", "id": "514ad212e4b0462db438fd9d", "venueChains": [], "venueRatingBlacklisted": true, "location": {"cc": "IR", "lat": 32.68013000488281, "lng": 51.53327178955078, "labeledLatLngs": [{"label": "display", "lng": 51.53327178955078, "lat": 32.68013000488281}], "state": "Ostān-e Eşfahān", "country": "ایران", "city": "Khomeynī Shahr", "formattedAddress": ["Khomeynī Shahr, Ostān-e Eşfahān", "ایران"]}}, {"referralId": "v-1505909489", "specials": {"items": [], "count": 0}, "categories": [{"name": "Bank", "pluralName": "Banks", "id": "4bf58dd8d48988d10a951735", "icon": {"prefix": "https://ss3.4sqi.net/img/categories_v2/shops/financial_", "suffix": ".png"}, "primary": true, "shortName": "Bank"}], "hasPerk": false, "contact": {}, "beenHere": {"lastCheckinExpiredAt": 0}, "verified": false, "stats": {"checkinsCount": 5, "usersCount": 1, "tipCount": 0}, "name": "بانک سپه | Sepah Bank", "id": "55f3cafb498eff896533bccd", "allowMenuUrlEdit": true, "venueChains": [], "location": {"cc": "IR", "address": "Taleghqani Blvd. , Khomeyni Shahr", "lat": 32.67431317019402, "labeledLatLngs": [{"label": "display", "lng": 51.53858120709406, "lat": 32.67431317019402}], "lng": 51.53858120709406, "country": "ایران", "formattedAddress": ["Taleghqani Blvd. , Khomeyni Shahr", "ایران"]}}, {"referralId": "v-1505909489", "specials": {"items": [], "count": 0}, "categories": [{"name": "Warehouse Store", "pluralName": "Warehouse Stores", "id": "52e816a6bcbc57f1066b7a54", "icon": {"prefix": "https://ss3.4sqi.net/img/categories_v2/shops/default_", "suffix": ".png"}, "primary": true, "shortName": "Warehouse Store"}], "hasPerk": false, "contact": {}, "beenHere": {"lastCheckinExpiredAt": 0}, "verified": false, "stats": {"checkinsCount": 1, "usersCount": 1, "tipCount": 0}, "name": "صنایع سنگ و آجر نمای آتشگران", "id": "57e6b486498e4eeaa7900c0e", "allowMenuUrlEdit": true, "venueChains": [], "location": {"cc": "IR", "lat": 32.682129, "lng": 51.552947, "labeledLatLngs": [{"label": "display", "lng": 51.552947, "lat": 32.682129}], "country": "ایران", "formattedAddress": ["ایران"]}}, {"referralId": "v-1505909489", "specials": {"items": [], "count": 0}, "categories": [{"name": "Sandwich Place", "pluralName": "Sandwich Places", "id": "4bf58dd8d48988d1c5941735", "icon": {"prefix": "https://ss3.4sqi.net/img/categories_v2/food/deli_", "suffix": ".png"}, "primary": true, "shortName": "Sandwiches"}], "hasPerk": false, "contact": {}, "beenHere": {"lastCheckinExpiredAt": 0}, "verified": false, "stats": {"checkinsCount": 4, "usersCount": 1, "tipCount": 0}, "name": "Tohid Sandwich | ساندویچ توحید", "id": "53499c8a498e84e240388a7b", "allowMenuUrlEdit": true, "venueChains": [], "location": {"state": "Ostān-e Eşfahān", "lng": 51.53135061264038, "address": "Tohid Blvd.", "lat": 32.67716748077012, "labeledLatLngs": [{"label": "display", "lng": 51.53135061264038, "lat": 32.67716748077012}], "cc": "IR", "country": "ایران", "city": "Khomeynī Shahr", "formattedAddress": ["Tohid Blvd. (Shahrdari Xrd.)", "Khomeynī Shahr, Ostān-e Eşfahān", "ایران"], "crossStreet": "Shahrdari Xrd."}}, {"referralId": "v-1505909489", "specials": {"items": [], "count": 0}, "categories": [{"name": "Road", "pluralName": "Roads", "id": "4bf58dd8d48988d1f9931735", "icon": {"prefix": "https://ss3.4sqi.net/img/categories_v2/travel/highway_", "suffix": ".png"}, "primary": true, "shortName": "Road"}], "hasPerk": false, "contact": {}, "beenHere": {"lastCheckinExpiredAt": 0}, "verified": false, "stats": {"checkinsCount": 1, "usersCount": 1, "tipCount": 0}, "name": "Asghar Abad Street", "id": "57e15788498e8c74c127e0cb", "venueChains": [], "venueRatingBlacklisted": true, "location": {"cc": "IR", "lat": 32.675831, "lng": 51.527894, "labeledLatLngs": [{"label": "display", "lng": 51.527894, "lat": 32.675831}], "state": "اصفهان", "country": "ایران", "city": "خمینی شهر", "formattedAddress": ["خمینی شهر, اصفهان", "ایران"]}}, {"referralId": "v-1505909489", "specials": {"items": [], "count": 0}, "categories": [{"name": "Neighborhood", "pluralName": "Neighborhoods", "id": "4f2a25ac4b909258e854f55f", "icon": {"prefix": "https://ss3.4sqi.net/img/categories_v2/parks_outdoors/neighborhood_", "suffix": ".png"}, "primary": true, "shortName": "Neighborhood"}], "hasPerk": false, "contact": {}, "beenHere": {"lastCheckinExpiredAt": 0}, "verified": false, "stats": {"checkinsCount": 4, "usersCount": 4, "tipCount": 0}, "name": "Mahale No | محله نو", "id": "5314d770e4b0e72a36d17b6b", "venueChains": [], "venueRatingBlacklisted": true, "location": {"cc": "IR", "lat": 32.67684, "lng": 51.53546, "labeledLatLngs": [{"label": "display", "lng": 51.53546, "lat": 32.67684}], "state": "Ostān-e Eşfahān", "country": "ایران", "city": "Khomeynī Shahr", "formattedAddress": ["Khomeynī Shahr, Ostān-e Eşfahān", "ایران"]}}, {"referralId": "v-1505909489", "specials": {"items": [], "count": 0}, "categories": [{"name": "Park", "pluralName": "Parks", "id": "4bf58dd8d48988d163941735", "icon": {"prefix": "https://ss3.4sqi.net/img/categories_v2/parks_outdoors/park_", "suffix": ".png"}, "primary": true, "shortName": "Park"}], "hasPerk": false, "contact": {}, "beenHere": {"lastCheckinExpiredAt": 0}, "verified": false, "stats": {"checkinsCount": 4, "usersCount": 2, "tipCount": 0}, "name": "Baghban Park | پارک باغبان", "id": "53fb7bd3498ec36819643948", "venueChains": [], "location": {"cc": "IR", "address": "Baghban St", "lat": 32.67042463639672, "labeledLatLngs": [{"label": "display", "lng": 51.52338826230227, "lat": 32.67042463639672}], "lng": 51.52338826230227, "country": "ایران", "city": "Khomeynī Shahr", "formattedAddress": ["Baghban St", "Khomeynī Shahr, Ostān-e Eşfahān", "ایران"], "state": "Ostān-e Eşfahān"}}, {"referralId": "v-1505909489", "specials": {"items": [], "count": 0}, "categories": [{"name": "Cemetery", "pluralName": "Cemeteries", "id": "4bf58dd8d48988d15c941735", "icon": {"prefix": "https://ss3.4sqi.net/img/categories_v2/parks_outdoors/cemetery_", "suffix": ".png"}, "primary": true, "shortName": "Cemetery"}], "hasPerk": false, "contact": {}, "beenHere": {"lastCheckinExpiredAt": 0}, "verified": false, "stats": {"checkinsCount": 4, "usersCount": 3, "tipCount": 0}, "name": "Shir Cemetery | قبرستان شیر", "id": "534d182b498e195d20a1c987", "venueChains": [], "venueRatingBlacklisted": true, "location": {"cc": "IR", "address": "Sadughi Blvd", "lat": 32.67498016357422, "labeledLatLngs": [{"label": "display", "lng": 51.529441833496094, "lat": 32.67498016357422}], "lng": 51.529441833496094, "country": "ایران", "city": "Khomeynī Shahr", "formattedAddress": ["Sadughi Blvd", "Khomeynī Shahr, Ostān-e Eşfahān", "ایران"], "state": "Ostān-e Eşfahān"}}, {"referralId": "v-1505909489", "specials": {"items": [], "count": 0}, "categories": [{"name": "Men's Store", "pluralName": "Men's Stores", "id": "4bf58dd8d48988d106951735", "icon": {"prefix": "https://ss3.4sqi.net/img/categories_v2/shops/apparel_men_", "suffix": ".png"}, "primary": true, "shortName": "Men's Store"}], "hasPerk": false, "contact": {}, "beenHere": {"lastCheckinExpiredAt": 0}, "verified": false, "stats": {"checkinsCount": 2, "usersCount": 2, "tipCount": 0}, "name": "بوتیک روژین | Rojin Boutique", "id": "55f3d9b6498e7d5ba92b7fa1", "allowMenuUrlEdit": true, "venueChains": [], "location": {"cc": "IR", "address": "Montazeri St. , Khomeyni Shahr", "lat": 32.68266296386719, "labeledLatLngs": [{"label": "display", "lng": 51.52785110473633, "lat": 32.68266296386719}], "lng": 51.52785110473633, "country": "ایران", "formattedAddress": ["Montazeri St. , Khomeyni Shahr", "ایران"]}}, {"referralId": "v-1505909489", "specials": {"items": [], "count": 0}, "categories": [{"name": "Doctor's Office", "pluralName": "Doctor's Offices", "id": "4bf58dd8d48988d177941735", "icon": {"prefix": "https://ss3.4sqi.net/img/categories_v2/building/medical_doctorsoffice_", "suffix": ".png"}, "primary": true, "shortName": "Doctor's Office"}], "hasPerk": false, "contact": {}, "beenHere": {"lastCheckinExpiredAt": 0}, "verified": false, "stats": {"checkinsCount": 3, "usersCount": 2, "tipCount": 0}, "name": "Dr Hajian Clinic | مطب دکتر حاجیان", "id": "57dccc97498ee2e74dcb7556", "allowMenuUrlEdit": true, "venueChains": [], "venueRatingBlacklisted": true, "location": {"cc": "IR", "address": "Boo ali st.", "lat": 32.68013, "labeledLatLngs": [{"label": "display", "lng": 51.537006, "lat": 32.68013}], "lng": 51.537006, "country": "ایران", "city": "خمینی شهر", "formattedAddress": ["Boo ali st.", "خمینی شهر, اصفهان", "ایران"], "state": "اصفهان"}}, {"referralId": "v-1505909489", "specials": {"items": [], "count": 0}, "categories": [{"name": "Diner", "pluralName": "Diners", "id": "4bf58dd8d48988d147941735", "icon": {"prefix": "https://ss3.4sqi.net/img/categories_v2/food/diner_", "suffix": ".png"}, "primary": true, "shortName": "Diner"}], "hasPerk": false, "contact": {}, "beenHere": {"lastCheckinExpiredAt": 0}, "verified": false, "stats": {"checkinsCount": 5, "usersCount": 5, "tipCount": 0}, "name": "چلو کبابی اذربایجان", "id": "55c9d035498e57c87fb22589", "allowMenuUrlEdit": true, "venueChains": [], "location": {"cc": "IR", "lat": 32.67479175448792, "lng": 51.54002417908484, "labeledLatLngs": [{"label": "display", "lng": 51.54002417908484, "lat": 32.67479175448792}], "country": "ایران", "formattedAddress": ["ایران"]}}, {"referralId": "v-1505909489", "specials": {"items": [], "count": 0}, "categories": [{"name": "Mosque", "pluralName": "Mosques", "id": "4bf58dd8d48988d138941735", "icon": {"prefix": "https://ss3.4sqi.net/img/categories_v2/building/religious_mosque_", "suffix": ".png"}, "primary": true, "shortName": "Mosque"}], "hasPerk": false, "contact": {}, "beenHere": {"lastCheckinExpiredAt": 0}, "verified": false, "stats": {"checkinsCount": 3, "usersCount": 3, "tipCount": 0}, "name": "مسجد ملاحیدر | Mola Heydar Mosque", "id": "56080bcc498e2b2f63e2a017", "venueChains": [], "venueRatingBlacklisted": true, "location": {"cc": "IR", "address": "Khomeyni Shahr", "lat": 32.67677688598633, "labeledLatLngs": [{"label": "display", "lng": 51.531124114990234, "lat": 32.67677688598633}], "lng": 51.531124114990234, "country": "ایران", "formattedAddress": ["Khomeyni Shahr", "ایران"]}}, {"referralId": "v-1505909489", "specials": {"items": [], "count": 0}, "categories": [{"name": "Neighborhood", "pluralName": "Neighborhoods", "id": "4f2a25ac4b909258e854f55f", "icon": {"prefix": "https://ss3.4sqi.net/img/categories_v2/parks_outdoors/neighborhood_", "suffix": ".png"}, "primary": true, "shortName": "Neighborhood"}], "hasPerk": false, "contact": {}, "beenHere": {"lastCheckinExpiredAt": 0}, "verified": false, "stats": {"checkinsCount": 3, "usersCount": 3, "tipCount": 0}, "name": "Shamsabad | شمس آباد", "id": "5314d770e4b0e72a36d17b8a", "venueChains": [], "venueRatingBlacklisted": true, "location": {"cc": "IR", "lat": 32.67945, "lng": 51.54066, "labeledLatLngs": [{"label": "display", "lng": 51.54066, "lat": 32.67945}], "state": "Ostān-e Eşfahān", "country": "ایران", "city": "Khomeynī Shahr", "formattedAddress": ["Khomeynī Shahr, Ostān-e Eşfahān", "ایران"]}}, {"referralId": "v-1505909490", "specials": {"items": [], "count": 0}, "categories": [{"name": "Sculpture Garden", "pluralName": "Sculpture Gardens", "id": "4bf58dd8d48988d166941735", "icon": {"prefix": "https://ss3.4sqi.net/img/categories_v2/parks_outdoors/sculpture_", "suffix": ".png"}, "primary": true, "shortName": "Sculpture"}], "hasPerk": false, "contact": {}, "beenHere": {"lastCheckinExpiredAt": 0}, "verified": false, "stats": {"checkinsCount": 1, "usersCount": 1, "tipCount": 0}, "name": "Family Garden", "id": "57e19f3b498e6a0318ad88bd", "venueChains": [], "location": {"cc": "IR", "address": "Asgharabad st.", "lat": 32.675182, "labeledLatLngs": [{"label": "display", "lng": 51.575787, "lat": 32.675182}], "lng": 51.575787, "country": "ایران", "city": "خمینی شهر", "formattedAddress": ["Asgharabad st.", "خمینی شهر, اصفهان", "ایران"], "state": "اصفهان"}}, {"referralId": "v-1505909490", "specials": {"items": [], "count": 0}, "categories": [{"name": "Auto Garage", "pluralName": "Auto Garages", "id": "52f2ab2ebcbc57f1066b8b44", "icon": {"prefix": "https://ss3.4sqi.net/img/categories_v2/shops/automotive_", "suffix": ".png"}, "primary": true, "shortName": "Auto Garage"}], "hasPerk": false, "contact": {}, "beenHere": {"lastCheckinExpiredAt": 0}, "verified": false, "stats": {"checkinsCount": 4, "usersCount": 1, "tipCount": 0}, "name": "Shahsanaei Garage  | تعمیرگاه شاهسنایی", "id": "57b46310498e1fd0a0ecae80", "allowMenuUrlEdit": true, "venueChains": [], "location": {"cc": "IR", "lat": 32.673038, "lng": 51.583926, "labeledLatLngs": [{"label": "display", "lng": 51.583926, "lat": 32.673038}], "country": "ایران", "formattedAddress": ["ایران"]}}, {"referralId": "v-1505909490", "specials": {"items": [], "count": 0}, "categories": [{"name": "Island", "pluralName": "Islands", "id": "50aaa4314b90af0d42d5de10", "icon": {"prefix": "https://ss3.4sqi.net/img/categories_v2/parks_outdoors/neighborhood_", "suffix": ".png"}, "primary": true, "shortName": "Island"}], "hasPerk": false, "contact": {}, "beenHere": {"lastCheckinExpiredAt": 0}, "verified": false, "stats": {"checkinsCount": 6, "usersCount": 4, "tipCount": 0}, "name": "جوي آباد", "id": "591161e05315936562d52743", "venueChains": [], "venueRatingBlacklisted": true, "location": {"cc": "IR", "lat": 32.680503, "lng": 51.569844, "labeledLatLngs": [{"label": "display", "lng": 51.569844, "lat": 32.680503}], "country": "ایران", "state": "اصفهان", "formattedAddress": ["اصفهان", "ایران"]}}, {"referralId": "v-1505909490", "specials": {"items": [], "count": 0}, "categories": [{"name": "University", "pluralName": "Universities", "id": "4bf58dd8d48988d1ae941735", "icon": {"prefix": "https://ss3.4sqi.net/img/categories_v2/education/default_", "suffix": ".png"}, "primary": true, "shortName": "University"}], "hasPerk": false, "contact": {}, "beenHere": {"lastCheckinExpiredAt": 0}, "verified": false, "stats": {"checkinsCount": 75, "usersCount": 21, "tipCount": 0}, "name": "Payam-e Noor University Of Isfahan | دانشگاه پيام نور مركز اصفهان", "id": "54d88815498eab4811687647", "venueChains": [], "venueRatingBlacklisted": true, "location": {"cc": "IR", "address": "Kohandezh St.", "lat": 32.67745443873291, "labeledLatLngs": [{"label": "display", "lng": 51.58862600591836, "lat": 32.67745443873291}], "lng": 51.58862600591836, "country": "ایران", "city": "اصفهان", "formattedAddress": ["Kohandezh St.", "اصفهان, اصفهان", "ایران"], "state": "اصفهان"}}, {"referralId": "v-1505909491", "specials": {"items": [], "count": 0}, "categories": [{"name": "University", "pluralName": "Universities", "id": "4bf58dd8d48988d1ae941735", "icon": {"prefix": "https://ss3.4sqi.net/img/categories_v2/education/default_", "suffix": ".png"}, "primary": true, "shortName": "University"}], "hasPerk": false, "contact": {}, "beenHere": {"lastCheckinExpiredAt": 0}, "verified": false, "stats": {"checkinsCount": 3, "usersCount": 1, "tipCount": 0}, "name": "موسسه آموزش عالی جهاد دانشگاهی اصفهان", "id": "58a18bec084be528bfe33f55", "venueChains": [], "venueRatingBlacklisted": true, "location": {"cc": "IR", "lat": 32.696445, "lng": 51.476048, "labeledLatLngs": [{"label": "display", "lng": 51.476048, "lat": 32.696445}], "state": "اصفهان", "country": "ایران", "city": "خمینی شهر", "formattedAddress": ["خمینی شهر, اصفهان", "ایران"]}}, {"referralId": "v-1505909491", "specials": {"items": [], "count": 0}, "categories": [{"name": "General College & University", "pluralName": "General Colleges & Universities", "id": "4bf58dd8d48988d1a8941735", "icon": {"prefix": "https://ss3.4sqi.net/img/categories_v2/education/other_", "suffix": ".png"}, "primary": true, "shortName": "Education"}], "hasPerk": false, "contact": {}, "beenHere": {"lastCheckinExpiredAt": 0}, "verified": false, "stats": {"checkinsCount": 9, "usersCount": 7, "tipCount": 0}, "name": "Jihad A.S.U. of Isfahan | دانشگاه علمی کاربردی جهاد دانشگاهی اصفهان", "id": "52cd047a498ebc8db444b1ab", "venueChains": [], "venueRatingBlacklisted": true, "location": {"cc": "IR", "lat": 32.69685745239258, "lng": 51.47687530517578, "labeledLatLngs": [{"label": "display", "lng": 51.47687530517578, "lat": 32.69685745239258}], "state": "Ostān-e Eşfahān", "country": "ایران", "city": "Khomeynī Shahr", "formattedAddress": ["Khomeynī Shahr, Ostān-e Eşfahān", "ایران"]}}, {"referralId": "v-1505909492", "specials": {"items": [], "count": 0}, "categories": [{"name": "Park", "pluralName": "Parks", "id": "4bf58dd8d48988d163941735", "icon": {"prefix": "https://ss3.4sqi.net/img/categories_v2/parks_outdoors/park_", "suffix": ".png"}, "primary": true, "shortName": "Park"}], "hasPerk": false, "contact": {}, "beenHere": {"lastCheckinExpiredAt": 0}, "verified": false, "stats": {"checkinsCount": 6, "usersCount": 6, "tipCount": 0}, "name": "پارک بهشت | Behesht Park", "id": "55f2b055498ef878133c93a1", "venueChains": [], "location": {"cc": "IR", "address": "North Baghban St. , Khomeyni Shahr", "lat": 32.696918048283834, "labeledLatLngs": [{"label": "display", "lng": 51.50063361507785, "lat": 32.696918048283834}], "lng": 51.50063361507785, "country": "ایران", "formattedAddress": ["North Baghban St. , Khomeyni Shahr", "ایران"]}}, {"referralId": "v-1505909492", "specials": {"items": [], "count": 0}, "categories": [{"name": "Park", "pluralName": "Parks", "id": "4bf58dd8d48988d163941735", "icon": {"prefix": "https://ss3.4sqi.net/img/categories_v2/parks_outdoors/park_", "suffix": ".png"}, "primary": true, "shortName": "Park"}], "hasPerk": false, "contact": {}, "beenHere": {"lastCheckinExpiredAt": 0}, "verified": false, "stats": {"checkinsCount": 3, "usersCount": 2, "tipCount": 0}, "name": "پارک بهشت | Behesht Park", "id": "55f2af7c498ed29b862c17a3", "venueChains": [], "location": {"cc": "IR", "address": "Baghban St. , Khomeyni Shahr", "lat": 32.697410583496094, "labeledLatLngs": [{"label": "display", "lng": 51.50078201293945, "lat": 32.697410583496094}], "lng": 51.50078201293945, "country": "ایران", "formattedAddress": ["Baghban St. , Khomeyni Shahr", "ایران"]}}, {"referralId": "v-1505909492", "specials": {"items": [], "count": 0}, "categories": [{"name": "Park", "pluralName": "Parks", "id": "4bf58dd8d48988d163941735", "icon": {"prefix": "https://ss3.4sqi.net/img/categories_v2/parks_outdoors/park_", "suffix": ".png"}, "primary": true, "shortName": "Park"}], "hasPerk": false, "contact": {}, "beenHere": {"lastCheckinExpiredAt": 0}, "verified": false, "stats": {"checkinsCount": 20, "usersCount": 16, "tipCount": 1}, "name": "Piroozi Park | پارک پیروزی", "id": "53e3baf3498e9b349bf119de", "venueChains": [], "location": {"cc": "IR", "address": "Namaz Sq", "lat": 32.69485012052583, "labeledLatLngs": [{"label": "display", "lng": 51.51348571711192, "lat": 32.69485012052583}], "lng": 51.51348571711192, "country": "ایران", "city": "Khomeynī Shahr", "formattedAddress": ["Namaz Sq", "Khomeynī Shahr, Ostān-e Eşfahān", "ایران"], "state": "Ostān-e Eşfahān"}}, {"referralId": "v-1505909492", "specials": {"items": [], "count": 0}, "categories": [{"name": "Road", "pluralName": "Roads", "id": "4bf58dd8d48988d1f9931735", "icon": {"prefix": "https://ss3.4sqi.net/img/categories_v2/travel/highway_", "suffix": ".png"}, "primary": true, "shortName": "Road"}], "hasPerk": false, "contact": {}, "beenHere": {"lastCheckinExpiredAt": 0}, "verified": false, "stats": {"checkinsCount": 22, "usersCount": 3, "tipCount": 0}, "name": "Shariati Street | خیابان شریعتی خمینی شهر", "id": "55a91323498eb193c1f8912f", "venueChains": [], "venueRatingBlacklisted": true, "location": {"cc": "IR", "lat": 32.68427318451805, "lng": 51.53424221036514, "labeledLatLngs": [{"label": "display", "lng": 51.53424221036514, "lat": 32.68427318451805}], "country": "ایران", "formattedAddress": ["ایران"]}}, {"referralId": "v-1505909492", "specials": {"items": [], "count": 0}, "categories": [{"name": "Fast Food Restaurant", "pluralName": "Fast Food Restaurants", "id": "4bf58dd8d48988d16e941735", "icon": {"prefix": "https://ss3.4sqi.net/img/categories_v2/food/fastfood_", "suffix": ".png"}, "primary": true, "shortName": "Fast Food"}], "hasPerk": false, "contact": {}, "beenHere": {"lastCheckinExpiredAt": 0}, "verified": false, "stats": {"checkinsCount": 2, "usersCount": 2, "tipCount": 0}, "name": "فست فود نيكو", "id": "57125d8e498e9fcbf8aabaf3", "allowMenuUrlEdit": true, "venueChains": [], "location": {"cc": "IR", "lat": 32.698251, "lng": 51.530863, "labeledLatLngs": [{"label": "display", "lng": 51.530863, "lat": 32.698251}], "country": "ایران", "formattedAddress": ["ایران"]}}, {"referralId": "v-1505909492", "specials": {"items": [], "count": 0}, "categories": [{"name": "Road", "pluralName": "Roads", "id": "4bf58dd8d48988d1f9931735", "icon": {"prefix": "https://ss3.4sqi.net/img/categories_v2/travel/highway_", "suffix": ".png"}, "primary": true, "shortName": "Road"}], "hasPerk": false, "contact": {}, "beenHere": {"lastCheckinExpiredAt": 0}, "verified": false, "stats": {"checkinsCount": 36, "usersCount": 3, "tipCount": 0}, "name": "Emam Shomali Street | خیابان امام شمالی", "id": "55a90f4c498e8b05f6350c1b", "venueChains": [], "venueRatingBlacklisted": true, "location": {"cc": "IR", "lat": 32.68427318451805, "lng": 51.53424221036514, "labeledLatLngs": [{"label": "display", "lng": 51.53424221036514, "lat": 32.68427318451805}], "country": "ایران", "formattedAddress": ["ایران"]}}, {"referralId": "v-1505909492", "specials": {"items": [], "count": 0}, "categories": [{"name": "Government Building", "pluralName": "Government Buildings", "id": "4bf58dd8d48988d126941735", "icon": {"prefix": "https://ss3.4sqi.net/img/categories_v2/building/government_", "suffix": ".png"}, "primary": true, "shortName": "Government"}], "hasPerk": false, "contact": {}, "beenHere": {"lastCheckinExpiredAt": 0}, "verified": false, "stats": {"checkinsCount": 4, "usersCount": 1, "tipCount": 0}, "name": "Document Registration Department | اداره ثبت اسناد", "id": "56023fa4498e90c30960e290", "venueChains": [], "venueRatingBlacklisted": true, "location": {"cc": "IR", "address": "Montazeri Blvd. , Khomeyni Shahr", "lat": 32.68598556518555, "labeledLatLngs": [{"label": "display", "lng": 51.526588439941406, "lat": 32.68598556518555}], "lng": 51.526588439941406, "country": "ایران", "formattedAddress": ["Montazeri Blvd. , Khomeyni Shahr", "ایران"]}}, {"referralId": "v-1505909492", "specials": {"items": [], "count": 0}, "categories": [{"name": "Dessert Shop", "pluralName": "Dessert Shops", "id": "4bf58dd8d48988d1d0941735", "icon": {"prefix": "https://ss3.4sqi.net/img/categories_v2/food/dessert_", "suffix": ".png"}, "primary": true, "shortName": "Desserts"}], "hasPerk": false, "contact": {}, "beenHere": {"lastCheckinExpiredAt": 0}, "verified": false, "stats": {"checkinsCount": 6, "usersCount": 4, "tipCount": 1}, "name": "BuoAli Gaz | گز بوعلی", "id": "5380cddb498ea6ffdcfda473", "allowMenuUrlEdit": true, "venueChains": [], "location": {"cc": "IR", "address": "North Shariati St", "lat": 32.685514092242144, "labeledLatLngs": [{"label": "display", "lng": 51.54047607713623, "lat": 32.685514092242144}], "lng": 51.54047607713623, "country": "ایران", "city": "Khomeynī Shahr", "formattedAddress": ["North Shariati St", "Khomeynī Shahr, Ostān-e Eşfahān", "ایران"], "state": "Ostān-e Eşfahān"}}, {"referralId": "v-1505909492", "specials": {"items": [], "count": 0}, "categories": [{"name": "Café", "pluralName": "Cafés", "id": "4bf58dd8d48988d16d941735", "icon": {"prefix": "https://ss3.4sqi.net/img/categories_v2/food/cafe_", "suffix": ".png"}, "primary": true, "shortName": "Café"}], "hasPerk": false, "contact": {}, "beenHere": {"lastCheckinExpiredAt": 0}, "verified": false, "stats": {"checkinsCount": 9, "usersCount": 8, "tipCount": 1}, "name": "Cinema Cafe | كافه سينما", "id": "51d57a1b498ef30e875644ee", "allowMenuUrlEdit": true, "venueChains": [], "location": {"state": "Ostān-e Eşfahān", "lng": 51.525801237773074, "address": "Chaharbagh Shopping Center", "lat": 32.685160491741335, "labeledLatLngs": [{"label": "display", "lng": 51.525801237773074, "lat": 32.685160491741335}], "cc": "IR", "country": "ایران", "city": "Isfahan", "formattedAddress": ["Chaharbagh Shopping Center (Amadegah St)", "Isfahan, Ostān-e Eşfahān", "ایران"], "crossStreet": "Amadegah St"}}, {"referralId": "v-1505909492", "specials": {"items": [], "count": 0}, "categories": [{"name": "Bank", "pluralName": "Banks", "id": "4bf58dd8d48988d10a951735", "icon": {"prefix": "https://ss3.4sqi.net/img/categories_v2/shops/financial_", "suffix": ".png"}, "primary": true, "shortName": "Bank"}], "hasPerk": false, "contact": {}, "beenHere": {"lastCheckinExpiredAt": 0}, "verified": false, "stats": {"checkinsCount": 8, "usersCount": 2, "tipCount": 0}, "name": "Saderat Bank | بانک صادرات خمینی شهر", "id": "55a91223498eeed91e14e7d0", "allowMenuUrlEdit": true, "venueChains": [], "location": {"cc": "IR", "lat": 32.68427318451805, "lng": 51.53424221036514, "labeledLatLngs": [{"label": "display", "lng": 51.53424221036514, "lat": 32.68427318451805}], "country": "ایران", "formattedAddress": ["ایران"]}}, {"referralId": "v-1505909492", "specials": {"items": [], "count": 0}, "categories": [{"name": "Island", "pluralName": "Islands", "id": "50aaa4314b90af0d42d5de10", "icon": {"prefix": "https://ss3.4sqi.net/img/categories_v2/parks_outdoors/neighborhood_", "suffix": ".png"}, "primary": true, "shortName": "Island"}], "hasPerk": false, "contact": {}, "beenHere": {"lastCheckinExpiredAt": 0}, "verified": false, "stats": {"checkinsCount": 20, "usersCount": 4, "tipCount": 0}, "name": "Gardar | گاردر", "id": "55d04a14498ed19251bdcd75", "venueChains": [], "venueRatingBlacklisted": true, "location": {"cc": "IR", "lat": 32.68427318451805, "lng": 51.53424221036514, "labeledLatLngs": [{"label": "display", "lng": 51.53424221036514, "lat": 32.68427318451805}], "country": "ایران", "formattedAddress": ["ایران"]}}, {"referralId": "v-1505909492", "specials": {"items": [], "count": 0}, "categories": [{"name": "Neighborhood", "pluralName": "Neighborhoods", "id": "4f2a25ac4b909258e854f55f", "icon": {"prefix": "https://ss3.4sqi.net/img/categories_v2/parks_outdoors/neighborhood_", "suffix": ".png"}, "primary": true, "shortName": "Neighborhood"}], "hasPerk": false, "contact": {}, "beenHere": {"lastCheckinExpiredAt": 0}, "verified": false, "stats": {"checkinsCount": 92, "usersCount": 12, "tipCount": 0}, "name": "Vareno Safaderan | ورنو سفادران", "id": "5314d6c3e4b0e72a36d108f0", "venueChains": [], "venueRatingBlacklisted": true, "location": {"cc": "IR", "lat": 32.684360937522975, "lng": 51.534160054591176, "labeledLatLngs": [{"label": "display", "lng": 51.534160054591176, "lat": 32.684360937522975}], "state": "Ostān-e Eşfahān", "country": "ایران", "city": "Khomeynī Shahr", "formattedAddress": ["Khomeynī Shahr, Ostān-e Eşfahān", "ایران"]}}, {"referralId": "v-1505909492", "specials": {"items": [], "count": 0}, "categories": [{"name": "City", "pluralName": "Cities", "id": "50aa9e094b90af0d42d5de0d", "icon": {"prefix": "https://ss3.4sqi.net/img/categories_v2/parks_outdoors/neighborhood_", "suffix": ".png"}, "primary": true, "shortName": "City"}], "hasPerk": false, "contact": {}, "beenHere": {"lastCheckinExpiredAt": 0}, "verified": false, "stats": {"checkinsCount": 189, "usersCount": 85, "tipCount": 1}, "name": "Khomeini Shahr | خمینی شهر", "id": "516bedd1e4b0a1721151ac72", "venueChains": [], "venueRatingBlacklisted": true, "location": {"cc": "IR", "lat": 32.68430766548749, "lng": 51.53410870728424, "labeledLatLngs": [{"label": "display", "lng": 51.53410870728424, "lat": 32.68430766548749}], "country": "ایران", "state": "Ostān-e Eşfahān", "formattedAddress": ["Ostān-e Eşfahān", "ایران"]}}, {"referralId": "v-1505909492", "specials": {"items": [], "count": 0}, "categories": [{"name": "Plaza", "pluralName": "Plazas", "id": "4bf58dd8d48988d164941735", "icon": {"prefix": "https://ss3.4sqi.net/img/categories_v2/parks_outdoors/plaza_", "suffix": ".png"}, "primary": true, "shortName": "Plaza"}], "hasPerk": false, "contact": {}, "beenHere": {"lastCheckinExpiredAt": 0}, "verified": false, "stats": {"checkinsCount": 36, "usersCount": 29, "tipCount": 0}, "name": "Square emam | میدان امام", "id": "55c8dae9498e846e870460a5", "venueChains": [], "location": {"cc": "IR", "lat": 32.684371442564974, "lng": 51.53412411147214, "labeledLatLngs": [{"label": "display", "lng": 51.53412411147214, "lat": 32.684371442564974}], "country": "ایران", "formattedAddress": ["ایران"]}}, {"referralId": "v-1505909494", "specials": {"items": [], "count": 0}, "categories": [{"name": "College Academic Building", "pluralName": "College Academic Buildings", "id": "4bf58dd8d48988d198941735", "icon": {"prefix": "https://ss3.4sqi.net/img/categories_v2/education/academicbuilding_", "suffix": ".png"}, "primary": true, "shortName": "Academic Building"}], "hasPerk": false, "contact": {}, "beenHere": {"lastCheckinExpiredAt": 0}, "verified": false, "stats": {"checkinsCount": 3, "usersCount": 1, "tipCount": 0}, "name": "دانشكده علوم انساني خميني شهر", "id": "58295b24089b7547a1ccce03", "venueChains": [], "venueRatingBlacklisted": true, "location": {"cc": "IR", "lat": 32.7173, "lng": 51.484148, "labeledLatLngs": [{"label": "display", "lng": 51.484148, "lat": 32.7173}], "country": "ایران", "formattedAddress": ["ایران"]}}, {"referralId": "v-1505909494", "specials": {"items": [], "count": 0}, "categories": [{"name": "University", "pluralName": "Universities", "id": "4bf58dd8d48988d1ae941735", "icon": {"prefix": "https://ss3.4sqi.net/img/categories_v2/education/default_", "suffix": ".png"}, "primary": true, "shortName": "University"}], "hasPerk": false, "contact": {}, "beenHere": {"lastCheckinExpiredAt": 0}, "verified": false, "stats": {"checkinsCount": 43, "usersCount": 24, "tipCount": 0}, "name": "Azad University of Khomeini Shahr | دانشگاه آزاد واحد خمینی شهر", "id": "53770be0498e3b70447602ad", "venueChains": [], "venueRatingBlacklisted": true, "location": {"cc": "IR", "lat": 32.7173362755261, "lng": 51.484294937320314, "labeledLatLngs": [{"label": "display", "lng": 51.484294937320314, "lat": 32.7173362755261}], "state": "Ostān-e Eşfahān", "country": "ایران", "city": "Khomeynī Shahr", "formattedAddress": ["Khomeynī Shahr, Ostān-e Eşfahān", "ایران"]}}, {"referralId": "v-1505909495", "specials": {"items": [], "count": 0}, "categories": [{"name": "Plaza", "pluralName": "Plazas", "id": "4bf58dd8d48988d164941735", "icon": {"prefix": "https://ss3.4sqi.net/img/categories_v2/parks_outdoors/plaza_", "suffix": ".png"}, "primary": true, "shortName": "Plaza"}], "hasPerk": false, "contact": {}, "beenHere": {"lastCheckinExpiredAt": 0}, "verified": false, "stats": {"checkinsCount": 6, "usersCount": 5, "tipCount": 0}, "name": "Daneshgah Square | میدان دانشگاه", "id": "534a018f498e53c7c1a9b986", "venueChains": [], "location": {"cc": "IR", "lat": 32.71498461649055, "lng": 51.49090894618322, "labeledLatLngs": [{"label": "display", "lng": 51.49090894618322, "lat": 32.71498461649055}], "state": "Ostān-e Eşfahān", "country": "ایران", "city": "Najafābād", "formattedAddress": ["Najafābād, Ostān-e Eşfahān", "ایران"]}}, {"referralId": "v-1505909495", "specials": {"items": [], "count": 0}, "categories": [{"name": "Café", "pluralName": "Cafés", "id": "4bf58dd8d48988d16d941735", "icon": {"prefix": "https://ss3.4sqi.net/img/categories_v2/food/cafe_", "suffix": ".png"}, "primary": true, "shortName": "Café"}], "hasPerk": false, "contact": {}, "beenHere": {"lastCheckinExpiredAt": 0}, "verified": false, "stats": {"checkinsCount": 2, "usersCount": 2, "tipCount": 0}, "name": "Tara Cafe & Restaurant | کافه رستوران تارا", "id": "5743fb04498ea922ead50751", "allowMenuUrlEdit": true, "venueChains": [], "location": {"cc": "IR", "lat": 32.70804, "lng": 51.50711, "labeledLatLngs": [{"label": "display", "lng": 51.50711, "lat": 32.70804}], "country": "ایران", "formattedAddress": ["ایران"]}}, {"referralId": "v-1505909495", "specials": {"items": [], "count": 0}, "categories": [{"name": "Well", "pluralName": "Wells", "id": "4fbc1be21983fc883593e321", "icon": {"prefix": "https://ss3.4sqi.net/img/categories_v2/parks_outdoors/well_", "suffix": ".png"}, "primary": true, "shortName": "Well"}], "hasPerk": false, "contact": {}, "beenHere": {"lastCheckinExpiredAt": 0}, "verified": false, "stats": {"checkinsCount": 12, "usersCount": 11, "tipCount": 0}, "name": "Lador Spring | چشمه لادر", "id": "534f8648498e00323cea5f5f", "venueChains": [], "venueRatingBlacklisted": true, "location": {"cc": "IR", "lat": 32.71460088574399, "lng": 51.487137494493055, "labeledLatLngs": [{"label": "display", "lng": 51.487137494493055, "lat": 32.71460088574399}], "state": "Ostān-e Eşfahān", "country": "ایران", "city": "Khomeynī Shahr", "formattedAddress": ["Khomeynī Shahr, Ostān-e Eşfahān", "ایران"]}}, {"referralId": "v-1505909495", "specials": {"items": [], "count": 0}, "categories": [{"name": "College Technology Building", "pluralName": "College Technology Buildings", "id": "4bf58dd8d48988d19f941735", "icon": {"prefix": "https://ss3.4sqi.net/img/categories_v2/education/collegeacademicbuildings_technology_", "suffix": ".png"}, "primary": true, "shortName": "Technology"}], "hasPerk": false, "contact": {}, "beenHere": {"lastCheckinExpiredAt": 0}, "verified": false, "stats": {"checkinsCount": 154, "usersCount": 45, "tipCount": 0}, "name": "Isfahan Science & Technology Town | شهرک علمی تحقیقاتی اصفهان", "id": "518f3028498ea99a7d2886cf", "venueChains": [], "venueRatingBlacklisted": true, "location": {"cc": "IR", "lat": 32.71641856418271, "lng": 51.512108090585514, "labeledLatLngs": [{"label": "display", "lng": 51.512108090585514, "lat": 32.71641856418271}], "state": "Ostān-e Eşfahān", "country": "ایران", "city": "Isfahan", "formattedAddress": ["Isfahan, Ostān-e Eşfahān", "ایران"]}}, {"referralId": "v-1505909496", "specials": {"items": [], "count": 0}, "categories": [{"name": "Nightclub", "pluralName": "Nightclubs", "id": "4bf58dd8d48988d11f941735", "icon": {"prefix": "https://ss3.4sqi.net/img/categories_v2/nightlife/nightclub_", "suffix": ".png"}, "primary": true, "shortName": "Nightclub"}], "hasPerk": false, "contact": {}, "beenHere": {"lastCheckinExpiredAt": 0}, "verified": false, "stats": {"checkinsCount": 5, "usersCount": 3, "tipCount": 0}, "name": "تالار الماس شهر | Almas-e Shahr Salon", "id": "56058353498e5cc56496a9cc", "allowMenuUrlEdit": true, "venueChains": [], "location": {"cc": "IR", "address": "Azadegan Blvd. , Khomeyni Shahr", "lat": 32.705963134765625, "labeledLatLngs": [{"label": "display", "lng": 51.53824234008789, "lat": 32.705963134765625}], "lng": 51.53824234008789, "country": "ایران", "formattedAddress": ["Azadegan Blvd. , Khomeyni Shahr", "ایران"]}}, {"referralId": "v-1505909496", "specials": {"items": [], "count": 0}, "categories": [{"name": "College Administrative Building", "pluralName": "College Administrative Buildings", "id": "4bf58dd8d48988d197941735", "icon": {"prefix": "https://ss3.4sqi.net/img/categories_v2/education/administrativebuilding_", "suffix": ".png"}, "primary": true, "shortName": "Administrative Building"}], "hasPerk": false, "contact": {}, "beenHere": {"lastCheckinExpiredAt": 0}, "verified": false, "stats": {"checkinsCount": 3, "usersCount": 3, "tipCount": 0}, "name": "ساختمان مرکزی دانشگاه صنعتی اصفهان", "id": "57a04c7f498e1d2a65b19b0f", "venueChains": [], "venueRatingBlacklisted": true, "location": {"cc": "IR", "lat": 32.71804, "lng": 51.525776, "labeledLatLngs": [{"label": "display", "lng": 51.525776, "lat": 32.71804}], "country": "ایران", "state": "اصفهان", "formattedAddress": ["اصفهان", "ایران"]}}, {"referralId": "v-1505909496", "specials": {"items": [], "count": 0}, "categories": [{"name": "College Lab", "pluralName": "College Labs", "id": "4bf58dd8d48988d1a5941735", "icon": {"prefix": "https://ss3.4sqi.net/img/categories_v2/education/lab_", "suffix": ".png"}, "primary": true, "shortName": "Lab"}], "hasPerk": false, "contact": {}, "beenHere": {"lastCheckinExpiredAt": 0}, "verified": false, "stats": {"checkinsCount": 6, "usersCount": 1, "tipCount": 0}, "name": "آزمایشگاه مکانیک سنگ دانشکده معدن | Rock Mechanic Laboratory", "id": "56cd7c15498eefc992d2ef3b", "venueChains": [], "venueRatingBlacklisted": true, "location": {"state": "اصفهان", "lng": 51.526853733369386, "address": "دانشکده معدن", "lat": 32.720171150353586, "labeledLatLngs": [{"label": "display", "lng": 51.526853733369386, "lat": 32.720171150353586}], "cc": "IR", "country": "ایران", "city": "اصفهان", "formattedAddress": ["دانشکده معدن (دانشگاه صنعتی اصفهان)", "اصفهان, اصفهان", "ایران"], "crossStreet": "دانشگاه صنعتی اصفهان"}}, {"referralId": "v-1505909496", "specials": {"items": [], "count": 0}, "categories": [{"name": "Music Venue", "pluralName": "Music Venues", "id": "4bf58dd8d48988d1e5931735", "icon": {"prefix": "https://ss3.4sqi.net/img/categories_v2/arts_entertainment/musicvenue_", "suffix": ".png"}, "primary": true, "shortName": "Music Venue"}], "hasPerk": false, "contact": {}, "beenHere": {"lastCheckinExpiredAt": 0}, "verified": false, "stats": {"checkinsCount": 2, "usersCount": 2, "tipCount": 0}, "name": "IUT's Music Club", "id": "56d5a657cd10d849bc48b665", "allowMenuUrlEdit": true, "venueChains": [], "location": {"cc": "IR", "lat": 32.721653, "lng": 51.533165, "labeledLatLngs": [{"label": "display", "lng": 51.533165, "lat": 32.721653}], "country": "ایران", "formattedAddress": ["ایران"]}}, {"referralId": "v-1505909496", "specials": {"items": [], "count": 0}, "categories": [{"name": "Pool", "pluralName": "Pools", "id": "4bf58dd8d48988d15e941735", "icon": {"prefix": "https://ss3.4sqi.net/img/categories_v2/parks_outdoors/pool_", "suffix": ".png"}, "primary": true, "shortName": "Pool"}], "hasPerk": false, "contact": {}, "beenHere": {"lastCheckinExpiredAt": 0}, "verified": false, "stats": {"checkinsCount": 11, "usersCount": 5, "tipCount": 0}, "name": "استخر دانشگاه صنعتی اصفهان", "id": "56addce4498e5b44c23f9d53", "venueChains": [], "location": {"cc": "IR", "lat": 32.71948226751492, "lng": 51.534052225292626, "labeledLatLngs": [{"label": "display", "lng": 51.534052225292626, "lat": 32.71948226751492}], "country": "ایران", "formattedAddress": ["ایران"]}}, {"referralId": "v-1505909496", "specials": {"items": [], "count": 0}, "categories": [{"name": "College Theater", "pluralName": "College Theaters", "id": "4bf58dd8d48988d1ac941735", "icon": {"prefix": "https://ss3.4sqi.net/img/categories_v2/arts_entertainment/performingarts_theater_", "suffix": ".png"}, "primary": true, "shortName": "Theater"}], "hasPerk": false, "contact": {}, "beenHere": {"lastCheckinExpiredAt": 0}, "verified": false, "stats": {"checkinsCount": 13, "usersCount": 2, "tipCount": 0}, "name": "كانون تئاتر دانشگاه صنعتي اصفهان|IUT's Theatre club", "id": "541557fe498ec4529018815d", "venueChains": [], "venueRatingBlacklisted": true, "location": {"cc": "IR", "lat": 32.720635, "lng": 51.535047, "labeledLatLngs": [{"label": "display", "lng": 51.535047, "lat": 32.720635}], "country": "ایران", "formattedAddress": ["ایران"]}}, {"referralId": "v-1505909496", "specials": {"items": [], "count": 0}, "categories": [{"name": "Gaming Cafe", "pluralName": "Gaming Cafes", "id": "4bf58dd8d48988d18d941735", "icon": {"prefix": "https://ss3.4sqi.net/img/categories_v2/shops/gamingcafe_", "suffix": ".png"}, "primary": true, "shortName": "Gaming Cafe"}], "hasPerk": false, "contact": {}, "beenHere": {"lastCheckinExpiredAt": 0}, "verified": false, "stats": {"checkinsCount": 22, "usersCount": 5, "tipCount": 0}, "name": "Game Box", "id": "566fe09e498e99280cdbe181", "allowMenuUrlEdit": true, "venueChains": [], "location": {"cc": "IR", "lat": 32.72011877409183, "lng": 51.535479694047844, "labeledLatLngs": [{"label": "display", "lng": 51.535479694047844, "lat": 32.72011877409183}], "country": "ایران", "formattedAddress": ["ایران"]}}, {"referralId": "v-1505909496", "specials": {"items": [], "count": 0}, "categories": [{"name": "Laboratory", "pluralName": "Laboratories", "id": "5744ccdfe4b0c0459246b4d6", "icon": {"prefix": "https://ss3.4sqi.net/img/categories_v2/education/lab_", "suffix": ".png"}, "primary": true, "shortName": "Laboratory"}], "hasPerk": false, "contact": {}, "beenHere": {"lastCheckinExpiredAt": 0}, "verified": false, "stats": {"checkinsCount": 12, "usersCount": 5, "tipCount": 0}, "name": "آزمايشگاه بيومواد دانشگاه صنعتي اصفهان", "id": "578b4154498e916cfc99cedd", "venueChains": [], "venueRatingBlacklisted": true, "location": {"cc": "IR", "lat": 32.717243, "lng": 51.527506, "labeledLatLngs": [{"label": "display", "lng": 51.527506, "lat": 32.717243}], "country": "ایران", "formattedAddress": ["ایران"]}}, {"referralId": "v-1505909496", "specials": {"items": [], "count": 0}, "categories": [{"name": "University", "pluralName": "Universities", "id": "4bf58dd8d48988d1ae941735", "icon": {"prefix": "https://ss3.4sqi.net/img/categories_v2/education/default_", "suffix": ".png"}, "primary": true, "shortName": "University"}], "hasPerk": false, "contact": {}, "beenHere": {"lastCheckinExpiredAt": 0}, "verified": false, "stats": {"checkinsCount": 27, "usersCount": 3, "tipCount": 0}, "name": "E-Learning Center | مركز آموزش الكترونيكى", "id": "53e1af3f498e03e4b6766b25", "venueChains": [], "venueRatingBlacklisted": true, "location": {"cc": "IR", "address": "Isfahan University of Technology", "lat": 32.71902128624217, "labeledLatLngs": [{"label": "display", "lng": 51.53142843318129, "lat": 32.71902128624217}], "lng": 51.53142843318129, "country": "ایران", "city": "اصفهان", "formattedAddress": ["Isfahan University of Technology", "اصفهان, اصفهان", "ایران"], "state": "اصفهان"}}, {"referralId": "v-1505909496", "specials": {"items": [], "count": 0}, "categories": [{"name": "Market", "pluralName": "Markets", "id": "50be8ee891d4fa8dcc7199a7", "icon": {"prefix": "https://ss3.4sqi.net/img/categories_v2/shops/market_", "suffix": ".png"}, "primary": true, "shortName": "Market"}], "hasPerk": false, "contact": {}, "beenHere": {"lastCheckinExpiredAt": 0}, "verified": false, "stats": {"checkinsCount": 2, "usersCount": 1, "tipCount": 0}, "name": "تعاونی دانشگاه صنعتی اصفهان", "id": "57567af3498ef6dec2ccc9ac", "allowMenuUrlEdit": true, "venueChains": [], "location": {"cc": "IR", "lat": 32.72074, "lng": 51.53332, "labeledLatLngs": [{"label": "display", "lng": 51.53332, "lat": 32.72074}], "country": "ایران", "formattedAddress": ["ایران"]}}, {"referralId": "v-1505909496", "specials": {"items": [], "count": 0}, "categories": [{"name": "College Administrative Building", "pluralName": "College Administrative Buildings", "id": "4bf58dd8d48988d197941735", "icon": {"prefix": "https://ss3.4sqi.net/img/categories_v2/education/administrativebuilding_", "suffix": ".png"}, "primary": true, "shortName": "Administrative Building"}], "hasPerk": false, "contact": {}, "beenHere": {"lastCheckinExpiredAt": 0}, "verified": false, "stats": {"checkinsCount": 7, "usersCount": 2, "tipCount": 0}, "name": "Office of Cultural Affairs | اداره امور فرهنگی", "id": "5385c6bd498ec790563add27", "venueChains": [], "venueRatingBlacklisted": true, "location": {"cc": "IR", "address": "Isfahan University of Technology", "lat": 32.721084889323855, "labeledLatLngs": [{"label": "display", "lng": 51.53299448053603, "lat": 32.721084889323855}], "lng": 51.53299448053603, "country": "ایران", "city": "Khomeynī Shahr", "formattedAddress": ["Isfahan University of Technology", "Khomeynī Shahr, Ostān-e Eşfahān", "ایران"], "state": "Ostān-e Eşfahān"}}, {"referralId": "v-1505909496", "specials": {"items": [], "count": 0}, "categories": [{"name": "College Engineering Building", "pluralName": "College Engineering Buildings", "id": "4bf58dd8d48988d19e941735", "icon": {"prefix": "https://ss3.4sqi.net/img/categories_v2/education/collegeacademicbuildings_engineering_", "suffix": ".png"}, "primary": true, "shortName": "Engineering"}], "hasPerk": false, "contact": {}, "beenHere": {"lastCheckinExpiredAt": 0}, "verified": false, "stats": {"checkinsCount": 81, "usersCount": 3, "tipCount": 0}, "name": "Faculty of Mining Engineering | دانشکده مهندسی معدن", "id": "53147b63498e0a4ae973533c", "venueChains": [], "venueRatingBlacklisted": true, "location": {"cc": "IR", "address": "Isfahan University of Technology", "lat": 32.71970328418526, "labeledLatLngs": [{"label": "display", "lng": 51.527182320790644, "lat": 32.71970328418526}], "lng": 51.527182320790644, "country": "ایران", "city": "Khomeynī Shahr", "formattedAddress": ["Isfahan University of Technology", "Khomeynī Shahr, Ostān-e Eşfahān", "ایران"], "state": "Ostān-e Eşfahān"}}, {"referralId": "v-1505909496", "specials": {"items": [], "count": 0}, "categories": [{"name": "College Academic Building", "pluralName": "College Academic Buildings", "id": "4bf58dd8d48988d198941735", "icon": {"prefix": "https://ss3.4sqi.net/img/categories_v2/education/academicbuilding_", "suffix": ".png"}, "primary": true, "shortName": "Academic Building"}], "hasPerk": false, "contact": {}, "beenHere": {"lastCheckinExpiredAt": 0}, "verified": false, "stats": {"checkinsCount": 21, "usersCount": 4, "tipCount": 0}, "name": "Faculty of Natural Resources | دانشکده منابع طبیعی", "id": "533fbd40498e3aec80988497", "venueChains": [], "venueRatingBlacklisted": true, "location": {"cc": "IR", "address": "Isfahan University of Technology", "lat": 32.71815356897492, "labeledLatLngs": [{"label": "display", "lng": 51.52577556735798, "lat": 32.71815356897492}], "lng": 51.52577556735798, "country": "ایران", "city": "Khomeynī Shahr", "formattedAddress": ["Isfahan University of Technology", "Khomeynī Shahr, Ostān-e Eşfahān", "ایران"], "state": "Ostān-e Eşfahān"}}, {"referralId": "v-1505909496", "specials": {"items": [], "count": 0}, "categories": [{"name": "College Residence Hall", "pluralName": "College Residence Halls", "id": "4bf58dd8d48988d1a3941735", "icon": {"prefix": "https://ss3.4sqi.net/img/categories_v2/education/residencehall_", "suffix": ".png"}, "primary": true, "shortName": "Residence Hall"}], "hasPerk": false, "contact": {}, "beenHere": {"lastCheckinExpiredAt": 0}, "verified": false, "stats": {"checkinsCount": 12, "usersCount": 3, "tipCount": 0}, "name": "خوابگاه ۲", "id": "56ade8d5498e0fa65815c020", "venueChains": [], "venueRatingBlacklisted": true, "location": {"cc": "IR", "lat": 32.72184463843842, "lng": 51.52979567573425, "labeledLatLngs": [{"label": "display", "lng": 51.52979567573425, "lat": 32.72184463843842}], "country": "ایران", "formattedAddress": ["ایران"]}}, {"referralId": "v-1505909496", "specials": {"items": [], "count": 0}, "categories": [{"name": "College Classroom", "pluralName": "College Classrooms", "id": "4bf58dd8d48988d1a0941735", "icon": {"prefix": "https://ss3.4sqi.net/img/categories_v2/education/classroom_", "suffix": ".png"}, "primary": true, "shortName": "Classroom"}], "hasPerk": false, "contact": {}, "beenHere": {"lastCheckinExpiredAt": 0}, "verified": false, "stats": {"checkinsCount": 3, "usersCount": 1, "tipCount": 0}, "name": "Faculty Of Textile Engineering | دانشکده مهندسی نساجی", "id": "57380240498e9fc2757c66d9", "venueChains": [], "venueRatingBlacklisted": true, "location": {"cc": "IR", "lat": 32.718914, "lng": 51.524845, "labeledLatLngs": [{"label": "display", "lng": 51.524845, "lat": 32.718914}], "country": "ایران", "formattedAddress": ["ایران"]}}, {"referralId": "v-1505909496", "specials": {"items": [], "count": 0}, "categories": [{"name": "College Academic Building", "pluralName": "College Academic Buildings", "id": "4bf58dd8d48988d198941735", "icon": {"prefix": "https://ss3.4sqi.net/img/categories_v2/education/academicbuilding_", "suffix": ".png"}, "primary": true, "shortName": "Academic Building"}], "hasPerk": false, "contact": {}, "beenHere": {"lastCheckinExpiredAt": 0}, "verified": false, "stats": {"checkinsCount": 7, "usersCount": 4, "tipCount": 0}, "name": "Islamic Studies & Literature Center | مرکز معارف اسلامی و ادبیات فارسی", "id": "534391b2498e597e9d2c2f21", "venueChains": [], "venueRatingBlacklisted": true, "location": {"cc": "IR", "address": "Isfahan University of Technology", "lat": 32.71665321287724, "labeledLatLngs": [{"label": "display", "lng": 51.533477138667585, "lat": 32.71665321287724}], "lng": 51.533477138667585, "country": "ایران", "city": "Khomeynī Shahr", "formattedAddress": ["Isfahan University of Technology", "Khomeynī Shahr, Ostān-e Eşfahān", "ایران"], "state": "Ostān-e Eşfahān"}}, {"referralId": "v-1505909496", "specials": {"items": [], "count": 0}, "categories": [{"name": "College Cafeteria", "pluralName": "College Cafeterias", "id": "4bf58dd8d48988d1a1941735", "icon": {"prefix": "https://ss3.4sqi.net/img/categories_v2/education/cafeteria_", "suffix": ".png"}, "primary": true, "shortName": "Cafeteria"}], "hasPerk": false, "contact": {}, "beenHere": {"lastCheckinExpiredAt": 0}, "verified": false, "stats": {"checkinsCount": 3, "usersCount": 3, "tipCount": 0}, "name": "Open Cafeteria | سلف آزاد", "id": "53561c5e498ee5c3c013282c", "venueChains": [], "venueRatingBlacklisted": true, "location": {"cc": "IR", "address": "Isfahan University of Technology", "lat": 32.72199, "labeledLatLngs": [{"label": "display", "lng": 51.533758, "lat": 32.72199}], "lng": 51.533758, "country": "ایران", "city": "Khomeynī Shahr", "formattedAddress": ["Isfahan University of Technology", "Khomeynī Shahr, Ostān-e Eşfahān", "ایران"], "state": "Ostān-e Eşfahān"}}, {"referralId": "v-1505909496", "specials": {"items": [], "count": 0}, "categories": [{"name": "College Cafeteria", "pluralName": "College Cafeterias", "id": "4bf58dd8d48988d1a1941735", "icon": {"prefix": "https://ss3.4sqi.net/img/categories_v2/education/cafeteria_", "suffix": ".png"}, "primary": true, "shortName": "Cafeteria"}], "hasPerk": false, "contact": {}, "beenHere": {"lastCheckinExpiredAt": 0}, "verified": false, "stats": {"checkinsCount": 63, "usersCount": 13, "tipCount": 0}, "name": "سلف مرکزی دانشگاه صنعتی اصفهان", "id": "56ae2e00498ee7b0fb704173", "venueChains": [], "venueRatingBlacklisted": true, "location": {"cc": "IR", "lat": 32.719403159889545, "lng": 51.53380575898424, "labeledLatLngs": [{"label": "display", "lng": 51.53380575898424, "lat": 32.719403159889545}], "country": "ایران", "formattedAddress": ["ایران"]}}, {"referralId": "v-1505909496", "specials": {"items": [], "count": 0}, "categories": [{"name": "College Residence Hall", "pluralName": "College Residence Halls", "id": "4bf58dd8d48988d1a3941735", "icon": {"prefix": "https://ss3.4sqi.net/img/categories_v2/education/residencehall_", "suffix": ".png"}, "primary": true, "shortName": "Residence Hall"}], "hasPerk": false, "contact": {}, "beenHere": {"lastCheckinExpiredAt": 0}, "verified": false, "stats": {"checkinsCount": 14, "usersCount": 11, "tipCount": 0}, "name": "خوابگاه ۲", "id": "56ad89cd498eabd73ee53f6a", "venueChains": [], "venueRatingBlacklisted": true, "location": {"lng": 51.529976, "address": "دانشگاه صنعتی اصفهان", "lat": 32.721786, "labeledLatLngs": [{"label": "display", "lng": 51.529976, "lat": 32.721786}], "cc": "IR", "country": "ایران", "formattedAddress": ["دانشگاه صنعتی اصفهان (خوابگاه ۲)", "ایران"], "crossStreet": "خوابگاه ۲"}}, {"referralId": "v-1505909496", "specials": {"items": [], "count": 0}, "categories": [{"name": "Fast Food Restaurant", "pluralName": "Fast Food Restaurants", "id": "4bf58dd8d48988d16e941735", "icon": {"prefix": "https://ss3.4sqi.net/img/categories_v2/food/fastfood_", "suffix": ".png"}, "primary": true, "shortName": "Fast Food"}], "hasPerk": false, "contact": {}, "beenHere": {"lastCheckinExpiredAt": 0}, "verified": false, "stats": {"checkinsCount": 6, "usersCount": 1, "tipCount": 0}, "name": "فست فود خانواده", "id": "584576e52ec3646c1149c68d", "allowMenuUrlEdit": true, "venueChains": [], "location": {"cc": "IR", "lat": 32.71114, "lng": 51.536858, "labeledLatLngs": [{"label": "display", "lng": 51.536858, "lat": 32.71114}], "country": "ایران", "formattedAddress": ["ایران"]}}, {"referralId": "v-1505909496", "specials": {"items": [], "count": 0}, "categories": [{"name": "College Residence Hall", "pluralName": "College Residence Halls", "id": "4bf58dd8d48988d1a3941735", "icon": {"prefix": "https://ss3.4sqi.net/img/categories_v2/education/residencehall_", "suffix": ".png"}, "primary": true, "shortName": "Residence Hall"}], "hasPerk": false, "contact": {}, "beenHere": {"lastCheckinExpiredAt": 0}, "verified": false, "stats": {"checkinsCount": 291, "usersCount": 25, "tipCount": 1}, "name": "IUT Dormitory | خوابگاه دانشگاه", "id": "534bc8e9498e5aefd70e375a", "venueChains": [], "venueRatingBlacklisted": true, "location": {"cc": "IR", "address": "Isfahan University of Technology", "lat": 32.72095539805341, "labeledLatLngs": [{"label": "display", "lng": 51.53407276419309, "lat": 32.72095539805341}], "lng": 51.53407276419309, "country": "ایران", "city": "Khomeynī Shahr", "formattedAddress": ["Isfahan University of Technology", "Khomeynī Shahr, Ostān-e Eşfahān", "ایران"], "state": "Ostān-e Eşfahān"}}, {"referralId": "v-1505909496", "specials": {"items": [], "count": 0}, "categories": [{"name": "Gas Station", "pluralName": "Gas Stations", "id": "4bf58dd8d48988d113951735", "icon": {"prefix": "https://ss3.4sqi.net/img/categories_v2/shops/gas_", "suffix": ".png"}, "primary": true, "shortName": "Gas Station"}], "hasPerk": false, "contact": {}, "beenHere": {"lastCheckinExpiredAt": 0}, "verified": false, "stats": {"checkinsCount": 5, "usersCount": 4, "tipCount": 0}, "name": "Daneshgah Gas Station | جایگاه سوخت بلوار دانشگاه", "id": "538ece0d498e126875627e3f", "allowMenuUrlEdit": true, "venueChains": [], "location": {"cc": "IR", "address": "Daneshgah Blvd", "lat": 32.704969, "labeledLatLngs": [{"label": "display", "lng": 51.53245, "lat": 32.704969}], "lng": 51.53245, "country": "ایران", "state": "اصفهان", "formattedAddress": ["Daneshgah Blvd", "Khomeini Shahr, اصفهان", "ایران"]}}, {"referralId": "v-1505909496", "specials": {"items": [], "count": 0}, "categories": [{"name": "Bus Station", "pluralName": "Bus Stations", "id": "4bf58dd8d48988d1fe931735", "icon": {"prefix": "https://ss3.4sqi.net/img/categories_v2/travel/busstation_", "suffix": ".png"}, "primary": true, "shortName": "Bus Station"}], "hasPerk": false, "contact": {}, "beenHere": {"lastCheckinExpiredAt": 0}, "verified": false, "stats": {"checkinsCount": 14, "usersCount": 6, "tipCount": 0}, "name": "نقلیه دانشگاه صنعتی اصفهان", "id": "56864abf498ebdabbc08f657", "venueChains": [], "location": {"cc": "IR", "lat": 32.7211587143383, "lng": 51.53117170764274, "labeledLatLngs": [{"label": "display", "lng": 51.53117170764274, "lat": 32.7211587143383}], "country": "ایران", "formattedAddress": ["ایران"]}}, {"referralId": "v-1505909496", "specials": {"items": [], "count": 0}, "categories": [{"name": "College Library", "pluralName": "College Libraries", "id": "4bf58dd8d48988d1a7941735", "icon": {"prefix": "https://ss3.4sqi.net/img/categories_v2/building/library_", "suffix": ".png"}, "primary": true, "shortName": "Library"}], "hasPerk": false, "contact": {}, "beenHere": {"lastCheckinExpiredAt": 0}, "verified": false, "stats": {"checkinsCount": 39, "usersCount": 19, "tipCount": 0}, "name": "Central Library | کتابخانه مرکزی دانشگاه", "id": "534a5524498ec546ebdd27eb", "venueChains": [], "venueRatingBlacklisted": true, "location": {"cc": "IR", "address": "Isfahan University of Technology", "lat": 32.71905743103124, "labeledLatLngs": [{"label": "display", "lng": 51.53161327618582, "lat": 32.71905743103124}], "lng": 51.53161327618582, "country": "ایران", "city": "Khomeynī Shahr", "formattedAddress": ["Isfahan University of Technology", "Khomeynī Shahr, Ostān-e Eşfahān", "ایران"], "state": "Ostān-e Eşfahān"}}, {"referralId": "v-1505909496", "specials": {"items": [], "count": 0}, "categories": [{"name": "Grocery Store", "pluralName": "Grocery Stores", "id": "4bf58dd8d48988d118951735", "icon": {"prefix": "https://ss3.4sqi.net/img/categories_v2/shops/food_grocery_", "suffix": ".png"}, "primary": true, "shortName": "Grocery Store"}], "hasPerk": false, "contact": {}, "beenHere": {"lastCheckinExpiredAt": 0}, "verified": false, "stats": {"checkinsCount": 54, "usersCount": 7, "tipCount": 0}, "name": "Pardis Market | بازارچه پردیس دانشگاه", "id": "534944bd11d286a99058f9bc", "allowMenuUrlEdit": true, "venueChains": [], "location": {"cc": "IR", "address": "Isfahan University of Technology", "lat": 32.71968264889287, "labeledLatLngs": [{"label": "display", "lng": 51.526905075046365, "lat": 32.71968264889287}], "lng": 51.526905075046365, "country": "ایران", "city": "Khomeynī Shahr", "formattedAddress": ["Isfahan University of Technology", "Khomeynī Shahr, Ostān-e Eşfahān", "ایران"], "state": "Ostān-e Eşfahān"}}, {"referralId": "v-1505909496", "specials": {"items": [], "count": 0}, "categories": [{"name": "College Engineering Building", "pluralName": "College Engineering Buildings", "id": "4bf58dd8d48988d19e941735", "icon": {"prefix": "https://ss3.4sqi.net/img/categories_v2/education/collegeacademicbuildings_engineering_", "suffix": ".png"}, "primary": true, "shortName": "Engineering"}], "hasPerk": false, "contact": {}, "beenHere": {"lastCheckinExpiredAt": 0}, "verified": false, "stats": {"checkinsCount": 35, "usersCount": 14, "tipCount": 0}, "name": "Faculty of Mechanical Engineering | دانشکده مهندسی مکانیک", "id": "534232e411d20069383c49f3", "venueChains": [], "venueRatingBlacklisted": true, "location": {"cc": "IR", "address": "Isfahan University of Technology", "lat": 32.71688369708202, "labeledLatLngs": [{"label": "display", "lng": 51.52890743153, "lat": 32.71688369708202}], "lng": 51.52890743153, "country": "ایران", "city": "Khomeynī Shahr", "formattedAddress": ["Isfahan University of Technology", "Khomeynī Shahr, Ostān-e Eşfahān", "ایران"], "state": "Ostān-e Eşfahān"}}, {"referralId": "v-1505909496", "specials": {"items": [], "count": 0}, "categories": [{"name": "Field", "pluralName": "Fields", "id": "4bf58dd8d48988d15f941735", "icon": {"prefix": "https://ss3.4sqi.net/img/categories_v2/parks_outdoors/field_", "suffix": ".png"}, "primary": true, "shortName": "Field"}], "hasPerk": false, "contact": {}, "beenHere": {"lastCheckinExpiredAt": 0}, "verified": false, "stats": {"checkinsCount": 8, "usersCount": 5, "tipCount": 0}, "name": "خوشاب", "id": "56fe5eb3498ebc302848ee61", "venueChains": [], "venueRatingBlacklisted": true, "location": {"cc": "IR", "lat": 32.704937, "lng": 51.54783, "labeledLatLngs": [{"label": "display", "lng": 51.54783, "lat": 32.704937}], "country": "ایران", "formattedAddress": ["ایران"]}}, {"referralId": "v-1505909496", "specials": {"items": [], "count": 0}, "categories": [{"name": "College Lab", "pluralName": "College Labs", "id": "4bf58dd8d48988d1a5941735", "icon": {"prefix": "https://ss3.4sqi.net/img/categories_v2/education/lab_", "suffix": ".png"}, "primary": true, "shortName": "Lab"}], "hasPerk": false, "contact": {}, "beenHere": {"lastCheckinExpiredAt": 0}, "verified": false, "stats": {"checkinsCount": 74, "usersCount": 3, "tipCount": 0}, "name": "DKR Lab", "id": "56d2a076cd1043e8e80c521c", "venueChains": [], "venueRatingBlacklisted": true, "location": {"cc": "IR", "lat": 32.71785341082472, "lng": 51.53419086299446, "labeledLatLngs": [{"label": "display", "lng": 51.53419086299446, "lat": 32.71785341082472}], "country": "ایران", "formattedAddress": ["ایران"]}}, {"referralId": "v-1505909496", "specials": {"items": [], "count": 0}, "categories": [{"name": "Department Store", "pluralName": "Department Stores", "id": "4bf58dd8d48988d1f6941735", "icon": {"prefix": "https://ss3.4sqi.net/img/categories_v2/shops/departmentstore_", "suffix": ".png"}, "primary": true, "shortName": "Department Store"}], "hasPerk": false, "contact": {}, "beenHere": {"lastCheckinExpiredAt": 0}, "verified": false, "stats": {"checkinsCount": 15, "usersCount": 2, "tipCount": 0}, "name": "Shayan Mall/سوپر مارکت شایان", "id": "56d4558f498e02f907461034", "allowMenuUrlEdit": true, "venueChains": [], "location": {"cc": "IR", "lat": 32.72097557579585, "lng": 51.53413438093273, "labeledLatLngs": [{"label": "display", "lng": 51.53413438093273, "lat": 32.72097557579585}], "country": "ایران", "formattedAddress": ["ایران"]}}, {"referralId": "v-1505909496", "specials": {"items": [], "count": 0}, "categories": [{"name": "University", "pluralName": "Universities", "id": "4bf58dd8d48988d1ae941735", "icon": {"prefix": "https://ss3.4sqi.net/img/categories_v2/education/default_", "suffix": ".png"}, "primary": true, "shortName": "University"}], "hasPerk": false, "contact": {}, "beenHere": {"lastCheckinExpiredAt": 0}, "verified": false, "stats": {"checkinsCount": 210, "usersCount": 10, "tipCount": 0}, "name": "School  of Electrical and Computer engineering/Isfahan University of Technology", "id": "56062141498ef5a8169eea71", "venueChains": [], "venueRatingBlacklisted": true, "location": {"cc": "IR", "address": "Isfahan university of Technology,khomeinishahr", "lat": 32.720967070428266, "labeledLatLngs": [{"label": "display", "lng": 51.53406358394376, "lat": 32.720967070428266}], "lng": 51.53406358394376, "country": "ایران", "formattedAddress": ["Isfahan university of Technology,khomeinishahr", "ایران"]}}, {"referralId": "v-1505909496", "specials": {"items": [], "count": 0}, "categories": [{"name": "Laboratory", "pluralName": "Laboratories", "id": "5744ccdfe4b0c0459246b4d6", "icon": {"prefix": "https://ss3.4sqi.net/img/categories_v2/education/lab_", "suffix": ".png"}, "primary": true, "shortName": "Laboratory"}], "hasPerk": false, "contact": {}, "beenHere": {"lastCheckinExpiredAt": 0}, "verified": false, "stats": {"checkinsCount": 4, "usersCount": 2, "tipCount": 0}, "name": "پژوهشکده مواد و انرژی", "id": "58959bc8266c11561922b58b", "venueChains": [], "venueRatingBlacklisted": true, "location": {"cc": "IR", "lat": 32.719017, "lng": 51.59138, "labeledLatLngs": [{"label": "display", "lng": 51.59138, "lat": 32.719017}], "state": "اصفهان", "country": "ایران", "city": "اصفهان", "formattedAddress": ["اصفهان, اصفهان", "ایران"]}}, {"referralId": "v-1505909496", "specials": {"items": [], "count": 0}, "categories": [{"name": "Factory", "pluralName": "Factories", "id": "4eb1bea83b7b6f98df247e06", "icon": {"prefix": "https://ss3.4sqi.net/img/categories_v2/building/factory_", "suffix": ".png"}, "primary": true, "shortName": "Factory"}], "hasPerk": false, "contact": {}, "beenHere": {"lastCheckinExpiredAt": 0}, "verified": false, "stats": {"checkinsCount": 4, "usersCount": 4, "tipCount": 0}, "name": "كارخانه سنگ بري نيكو| Nikoo factory", "id": "58159fd338fada27f6dcc7ed", "venueChains": [], "venueRatingBlacklisted": true, "location": {"cc": "IR", "lat": 32.72521, "lng": 51.587829, "labeledLatLngs": [{"label": "display", "lng": 51.587829, "lat": 32.72521}], "country": "ایران", "formattedAddress": ["ایران"]}}, {"referralId": "v-1505909496", "specials": {"items": [], "count": 0}, "categories": [{"name": "Motel", "pluralName": "Motels", "id": "4bf58dd8d48988d1fb931735", "icon": {"prefix": "https://ss3.4sqi.net/img/categories_v2/travel/hotel_", "suffix": ".png"}, "primary": true, "shortName": "Motel"}], "hasPerk": false, "contact": {}, "beenHere": {"lastCheckinExpiredAt": 0}, "verified": false, "stats": {"checkinsCount": 10, "usersCount": 4, "tipCount": 0}, "name": "هتل هخامنشي", "id": "58d38feae9efba56c0f06d4a", "allowMenuUrlEdit": true, "venueChains": [], "location": {"cc": "IR", "lat": 32.716367, "lng": 51.582994, "labeledLatLngs": [{"label": "display", "lng": 51.582994, "lat": 32.716367}], "country": "ایران", "formattedAddress": ["ایران"]}}, {"referralId": "v-1505909496", "specials": {"items": [], "count": 0}, "categories": [{"name": "Factory", "pluralName": "Factories", "id": "4eb1bea83b7b6f98df247e06", "icon": {"prefix": "https://ss3.4sqi.net/img/categories_v2/building/factory_", "suffix": ".png"}, "primary": true, "shortName": "Factory"}], "hasPerk": false, "contact": {}, "beenHere": {"lastCheckinExpiredAt": 0}, "verified": false, "stats": {"checkinsCount": 29, "usersCount": 3, "tipCount": 0}, "name": "كارگاه چوب سبز green wood", "id": "5753f0c0498e12f18f1840e3", "venueChains": [], "venueRatingBlacklisted": true, "location": {"cc": "IR", "lat": 32.711994, "lng": 51.572615, "labeledLatLngs": [{"label": "display", "lng": 51.572615, "lat": 32.711994}], "country": "ایران", "state": "اصفهان", "formattedAddress": ["اصفهان", "ایران"]}}, {"referralId": "v-1505909496", "specials": {"items": [], "count": 0}, "categories": [{"name": "Tech Startup", "pluralName": "Tech Startups", "id": "4bf58dd8d48988d125941735", "icon": {"prefix": "https://ss3.4sqi.net/img/categories_v2/shops/technology_", "suffix": ".png"}, "primary": true, "shortName": "Tech Startup"}], "hasPerk": false, "contact": {}, "beenHere": {"lastCheckinExpiredAt": 0}, "verified": false, "stats": {"checkinsCount": 117, "usersCount": 6, "tipCount": 0}, "name": "آتليه چوب سبز", "id": "5769122f498e5250f7358175", "venueChains": [], "venueRatingBlacklisted": true, "location": {"cc": "IR", "lat": 32.71211273408526, "lng": 51.572548121054886, "labeledLatLngs": [{"label": "display", "lng": 51.572548121054886, "lat": 32.71211273408526}], "country": "ایران", "formattedAddress": ["ایران"]}}, {"referralId": "v-1505909497", "specials": {"items": [], "count": 0}, "categories": [{"name": "Nightclub", "pluralName": "Nightclubs", "id": "4bf58dd8d48988d11f941735", "icon": {"prefix": "https://ss3.4sqi.net/img/categories_v2/nightlife/nightclub_", "suffix": ".png"}, "primary": true, "shortName": "Nightclub"}], "hasPerk": false, "contact": {}, "beenHere": {"lastCheckinExpiredAt": 0}, "verified": false, "stats": {"checkinsCount": 5, "usersCount": 3, "tipCount": 0}, "name": "تالار الماس شهر | Almas-e Shahr Salon", "id": "56058353498e5cc56496a9cc", "allowMenuUrlEdit": true, "venueChains": [], "location": {"cc": "IR", "address": "Azadegan Blvd. , Khomeyni Shahr", "lat": 32.705963134765625, "labeledLatLngs": [{"label": "display", "lng": 51.53824234008789, "lat": 32.705963134765625}], "lng": 51.53824234008789, "country": "ایران", "formattedAddress": ["Azadegan Blvd. , Khomeyni Shahr", "ایران"]}}, {"referralId": "v-1505909497", "specials": {"items": [], "count": 0}, "categories": [{"name": "Fast Food Restaurant", "pluralName": "Fast Food Restaurants", "id": "4bf58dd8d48988d16e941735", "icon": {"prefix": "https://ss3.4sqi.net/img/categories_v2/food/fastfood_", "suffix": ".png"}, "primary": true, "shortName": "Fast Food"}], "hasPerk": false, "contact": {}, "beenHere": {"lastCheckinExpiredAt": 0}, "verified": false, "stats": {"checkinsCount": 6, "usersCount": 1, "tipCount": 0}, "name": "فست فود خانواده", "id": "584576e52ec3646c1149c68d", "allowMenuUrlEdit": true, "venueChains": [], "location": {"cc": "IR", "lat": 32.71114, "lng": 51.536858, "labeledLatLngs": [{"label": "display", "lng": 51.536858, "lat": 32.71114}], "country": "ایران", "formattedAddress": ["ایران"]}}, {"referralId": "v-1505909497", "specials": {"items": [], "count": 0}, "categories": [{"name": "Gas Station", "pluralName": "Gas Stations", "id": "4bf58dd8d48988d113951735", "icon": {"prefix": "https://ss3.4sqi.net/img/categories_v2/shops/gas_", "suffix": ".png"}, "primary": true, "shortName": "Gas Station"}], "hasPerk": false, "contact": {}, "beenHere": {"lastCheckinExpiredAt": 0}, "verified": false, "stats": {"checkinsCount": 5, "usersCount": 4, "tipCount": 0}, "name": "Daneshgah Gas Station | جایگاه سوخت بلوار دانشگاه", "id": "538ece0d498e126875627e3f", "allowMenuUrlEdit": true, "venueChains": [], "location": {"cc": "IR", "address": "Daneshgah Blvd", "lat": 32.704969, "labeledLatLngs": [{"label": "display", "lng": 51.53245, "lat": 32.704969}], "lng": 51.53245, "country": "ایران", "state": "اصفهان", "formattedAddress": ["Daneshgah Blvd", "Khomeini Shahr, اصفهان", "ایران"]}}, {"referralId": "v-1505909497", "specials": {"items": [], "count": 0}, "categories": [{"name": "University", "pluralName": "Universities", "id": "4bf58dd8d48988d1ae941735", "icon": {"prefix": "https://ss3.4sqi.net/img/categories_v2/education/default_", "suffix": ".png"}, "primary": true, "shortName": "University"}], "hasPerk": false, "contact": {"formattedPhone": "+98 31 1391 3110", "phone": "+983113913110"}, "beenHere": {"lastCheckinExpiredAt": 0}, "verified": false, "url": "http://www.iut.ac.ir", "stats": {"checkinsCount": 522, "usersCount": 172, "tipCount": 6}, "name": "Isfahan University of Technology | دانشگاه صنعتی اصفهان", "id": "4e744225d4c09344715a2980", "venueChains": [], "venueRatingBlacklisted": true, "location": {"cc": "IR", "lat": 32.71905287374054, "lng": 51.534031686398535, "labeledLatLngs": [{"label": "display", "lng": 51.534031686398535, "lat": 32.71905287374054}], "state": "اصفهان", "country": "ایران", "city": "Khomeinishahr", "formattedAddress": ["Khomeinishahr, اصفهان 8415683111", "ایران"], "postalCode": "8415683111"}}, {"referralId": "v-1505909498", "specials": {"items": [], "count": 0}, "categories": [{"name": "College Administrative Building", "pluralName": "College Administrative Buildings", "id": "4bf58dd8d48988d197941735", "icon": {"prefix": "https://ss3.4sqi.net/img/categories_v2/education/administrativebuilding_", "suffix": ".png"}, "primary": true, "shortName": "Administrative Building"}], "hasPerk": false, "contact": {}, "beenHere": {"lastCheckinExpiredAt": 0}, "verified": false, "stats": {"checkinsCount": 7, "usersCount": 2, "tipCount": 0}, "name": "Office of Cultural Affairs | اداره امور فرهنگی", "id": "5385c6bd498ec790563add27", "venueChains": [], "venueRatingBlacklisted": true, "location": {"cc": "IR", "address": "Isfahan University of Technology", "lat": 32.721084889323855, "labeledLatLngs": [{"label": "display", "lng": 51.53299448053603, "lat": 32.721084889323855}], "lng": 51.53299448053603, "country": "ایران", "city": "Khomeynī Shahr", "formattedAddress": ["Isfahan University of Technology", "Khomeynī Shahr, Ostān-e Eşfahān", "ایران"], "state": "Ostān-e Eşfahān"}}, {"referralId": "v-1505909498", "specials": {"items": [], "count": 0}, "categories": [{"name": "College Academic Building", "pluralName": "College Academic Buildings", "id": "4bf58dd8d48988d198941735", "icon": {"prefix": "https://ss3.4sqi.net/img/categories_v2/education/academicbuilding_", "suffix": ".png"}, "primary": true, "shortName": "Academic Building"}], "hasPerk": false, "contact": {}, "beenHere": {"lastCheckinExpiredAt": 0}, "verified": false, "stats": {"checkinsCount": 21, "usersCount": 4, "tipCount": 0},