[{"referralId": "v-1505904613", "specials": {"items": [], "count": 0}, "categories": [{"name": "Cemetery", "pluralName": "Cemeteries", "id": "4bf58dd8d48988d15c941735", "icon": {"prefix": "https://ss3.4sqi.net/img/categories_v2/parks_outdoors/cemetery_", "suffix": ".png"}, "primary": true, "shortName": "Cemetery"}], "hasPerk": false, "contact": {}, "beenHere": {"lastCheckinExpiredAt": 0}, "verified": false, "stats": {"checkinsCount": 4, "usersCount": 4, "tipCount": 1}, "name": "Shahzadeh Mohammad | امامزاده شاهزاده محمد", "id": "50952e06e4b07ae1b7389ffe", "venueChains": [], "venueRatingBlacklisted": true, "location": {"cc": "IR", "lat": 35.324247683638276, "lng": 51.63376647523849, "labeledLatLngs": [{"label": "display", "lng": 51.63376647523849, "lat": 35.324247683638276}], "state": "تهران", "country": "ایران", "city": "ورامين", "formattedAddress": ["ورامين, تهران", "ایران"]}}, {"referralId": "v-1505904613", "specials": {"items": [], "count": 0}, "categories": [{"name": "Factory", "pluralName": "Factories", "id": "4eb1bea83b7b6f98df247e06", "icon": {"prefix": "https://ss3.4sqi.net/img/categories_v2/building/factory_", "suffix": ".png"}, "primary": true, "shortName": "Factory"}], "hasPerk": false, "contact": {}, "beenHere": {"lastCheckinExpiredAt": 0}, "verified": false, "stats": {"checkinsCount": 2, "usersCount": 1, "tipCount": 0}, "name": "كارخانه نشاسته ممتاز", "id": "57d44e02498e8267c10a6197", "venueChains": [], "venueRatingBlacklisted": true, "location": {"cc": "IR", "lat": 35.32, "lng": 51.64, "labeledLatLngs": [{"label": "display", "lng": 51.64, "lat": 35.32}], "state": "تهران", "country": "ایران", "city": "ورامين", "formattedAddress": ["ورامين, تهران", "ایران"]}}, {"referralId": "v-1505904613", "specials": {"items": [], "count": 0}, "categories": [{"name": "Cemetery", "pluralName": "Cemeteries", "id": "4bf58dd8d48988d15c941735", "icon": {"prefix": "https://ss3.4sqi.net/img/categories_v2/parks_outdoors/cemetery_", "suffix": ".png"}, "primary": true, "shortName": "Cemetery"}], "hasPerk": false, "contact": {}, "beenHere": {"lastCheckinExpiredAt": 0}, "verified": false, "stats": {"checkinsCount": 8, "usersCount": 8, "tipCount": 1}, "name": "Imamzadeh Jafar | بارگاه امام‌زاده جعفر پیشوا", "id": "5092737ae4b092855edaf460", "venueChains": [], "venueRatingBlacklisted": true, "location": {"cc": "IR", "address": "Pishva", "lat": 35.32698700167359, "labeledLatLngs": [{"label": "display", "lng": 51.642426910815686, "lat": 35.32698700167359}], "lng": 51.642426910815686, "country": "ایران", "city": "ورامين", "formattedAddress": ["Pishva", "ورامين, تهران", "ایران"], "state": "تهران"}}, {"referralId": "v-1505904613", "specials": {"items": [], "count": 0}, "categories": [{"name": "Pizza Place", "pluralName": "Pizza Places", "id": "4bf58dd8d48988d1ca941735", "icon": {"prefix": "https://ss3.4sqi.net/img/categories_v2/food/pizza_", "suffix": ".png"}, "primary": true, "shortName": "Pizza"}], "hasPerk": false, "contact": {}, "beenHere": {"lastCheckinExpiredAt": 0}, "verified": false, "stats": {"checkinsCount": 5, "usersCount": 4, "tipCount": 1}, "name": "Iran Pizza | پیتزا ایران", "id": "509453c7e4b08367d92a7d4a", "allowMenuUrlEdit": true, "venueChains": [], "location": {"cc": "IR", "address": "Ghods St.", "lat": 35.32413159013508, "labeledLatLngs": [{"label": "display", "lng": 51.63372533571373, "lat": 35.32413159013508}], "lng": 51.63372533571373, "country": "ایران", "city": "ورامين", "formattedAddress": ["Ghods St.", "ورامين, تهران", "ایران"], "state": "تهران"}}, {"referralId": "v-1505904613", "specials": {"items": [], "count": 0}, "categories": [{"name": "Park", "pluralName": "Parks", "id": "4bf58dd8d48988d163941735", "icon": {"prefix": "https://ss3.4sqi.net/img/categories_v2/parks_outdoors/park_", "suffix": ".png"}, "primary": true, "shortName": "Park"}], "hasPerk": false, "contact": {}, "beenHere": {"lastCheckinExpiredAt": 0}, "verified": false, "stats": {"checkinsCount": 9, "usersCount": 7, "tipCount": 0}, "name": "Shaghayegh Park | پارک شقایق", "id": "504a1aa0e4b08c4805528aaf", "venueChains": [], "location": {"cc": "IR", "lat": 35.32413159013508, "lng": 51.63372533571373, "labeledLatLngs": [{"label": "display", "lng": 51.63372533571373, "lat": 35.32413159013508}], "state": "تهران", "country": "ایران", "city": "ورامين", "formattedAddress": ["ورامين, تهران", "ایران"]}}, {"referralId": "v-1505904613", "specials": {"items": [], "count": 0}, "categories": [{"name": "Cemetery", "pluralName": "Cemeteries", "id": "4bf58dd8d48988d15c941735", "icon": {"prefix": "https://ss3.4sqi.net/img/categories_v2/parks_outdoors/cemetery_", "suffix": ".png"}, "primary": true, "shortName": "Cemetery"}], "hasPerk": false, "contact": {}, "beenHere": {"lastCheckinExpiredAt": 0}, "verified": false, "stats": {"checkinsCount": 6, "usersCount": 6, "tipCount": 0}, "name": "Kokab Al-Din | امامزاده کوکب الدین", "id": "5095397be4b024b7d7c75490", "venueChains": [], "venueRatingBlacklisted": true, "location": {"cc": "IR", "lat": 35.32422227253795, "lng": 51.63367391134351, "labeledLatLngs": [{"label": "display", "lng": 51.63367391134351, "lat": 35.32422227253795}], "state": "تهران", "country": "ایران", "city": "ورامين", "formattedAddress": ["ورامين, تهران", "ایران"]}}, {"referralId": "v-1505904613", "specials": {"items": [], "count": 0}, "categories": [{"name": "Medical Center", "pluralName": "Medical Centers", "id": "4bf58dd8d48988d104941735", "icon": {"prefix": "https://ss3.4sqi.net/img/categories_v2/building/medical_", "suffix": ".png"}, "primary": true, "shortName": "Medical"}], "hasPerk": false, "contact": {}, "beenHere": {"lastCheckinExpiredAt": 0}, "verified": false, "stats": {"checkinsCount": 2, "usersCount": 2, "tipCount": 0}, "name": "Heydariha Clinic | درمانگاه خیریه حیدری‌ها", "id": "5467124f498e9e5bff78baa1", "allowMenuUrlEdit": true, "venueChains": [], "venueRatingBlacklisted": true, "location": {"cc": "IR", "address": "Beheshti St", "lat": 35.326285, "labeledLatLngs": [{"label": "display", "lng": 51.641831, "lat": 35.326285}], "lng": 51.641831, "country": "ایران", "city": "ورامين", "formattedAddress": ["Beheshti St", "ورامين, تهران", "ایران"], "state": "تهران"}}, {"referralId": "v-1505904613", "specials": {"items": [], "count": 0}, "categories": [{"name": "Historic Site", "pluralName": "Historic Sites", "id": "4deefb944765f83613cdba6e", "icon": {"prefix": "https://ss3.4sqi.net/img/categories_v2/arts_entertainment/historicsite_", "suffix": ".png"}, "primary": true, "shortName": "Historic Site"}], "hasPerk": false, "contact": {}, "beenHere": {"lastCheckinExpiredAt": 0}, "verified": false, "stats": {"checkinsCount": 24, "usersCount": 13, "tipCount": 1}, "name": "Alladin Tower | برج علاء الدوله", "id": "509d4842e4b09c8921e0420a", "venueChains": [], "location": {"cc": "IR", "address": "Imam Khomeini Sq", "lat": 35.32427043650875, "labeledLatLngs": [{"label": "display", "lng": 51.63375619035491, "lat": 35.32427043650875}], "lng": 51.63375619035491, "country": "ایران", "city": "ورامين", "formattedAddress": ["Imam Khomeini Sq", "ورامين, تهران", "ایران"], "state": "تهران"}}, {"referralId": "v-1505904613", "specials": {"items": [], "count": 0}, "categories": [{"name": "Shrine", "pluralName": "Shrines", "id": "4eb1d80a4b900d56c88a45ff", "icon": {"prefix": "https://ss3.4sqi.net/img/categories_v2/building/religious_shrine_", "suffix": ".png"}, "primary": true, "shortName": "Shrine"}], "hasPerk": false, "contact": {}, "beenHere": {"lastCheckinExpiredAt": 0}, "verified": false, "stats": {"checkinsCount": 6, "usersCount": 5, "tipCount": 1}, "name": "Imam Azadeh Yahya Shrine | امامزاده یحیی", "id": "5094fc99e4b0038a5fdb56ce", "venueChains": [], "venueRatingBlacklisted": true, "location": {"cc": "IR", "lat": 35.32424339764748, "lng": 51.63373047815293, "labeledLatLngs": [{"label": "display", "lng": 51.63373047815293, "lat": 35.32424339764748}], "state": "تهران", "country": "ایران", "city": "ورامين", "formattedAddress": ["ورامين, تهران", "ایران"]}}, {"referralId": "v-1505904613", "specials": {"items": [], "count": 0}, "categories": [{"name": "Mosque", "pluralName": "Mosques", "id": "4bf58dd8d48988d138941735", "icon": {"prefix": "https://ss3.4sqi.net/img/categories_v2/building/religious_mosque_", "suffix": ".png"}, "primary": true, "shortName": "Mosque"}], "hasPerk": false, "contact": {}, "beenHere": {"lastCheckinExpiredAt": 0}, "verified": false, "stats": {"checkinsCount": 23, "usersCount": 14, "tipCount": 1}, "name": "Grand Mosque | مسجد جامع ورامین", "id": "5091498fe4b0e0de796a7495", "venueChains": [], "venueRatingBlacklisted": true, "location": {"cc": "IR", "lat": 35.32426910136296, "lng": 51.63374590547293, "labeledLatLngs": [{"label": "display", "lng": 51.63374590547293, "lat": 35.32426910136296}], "state": "تهران", "country": "ایران", "city": "ورامين", "formattedAddress": ["ورامين, تهران", "ایران"]}}, {"referralId": "v-1505904614", "specials": {"items": [], "count": 0}, "categories": [{"name": "Hookah Bar", "pluralName": "Hookah Bars", "id": "4bf58dd8d48988d119941735", "icon": {"prefix": "https://ss3.4sqi.net/img/categories_v2/nightlife/hookahbar_", "suffix": ".png"}, "primary": true, "shortName": "Hookah Bar"}], "hasPerk": false, "contact": {}, "beenHere": {"lastCheckinExpiredAt": 0}, "verified": false, "stats": {"checkinsCount": 5, "usersCount": 4, "tipCount": 0}, "name": "Bagh-e Nosrat Restaurant | سفره سرای سنتی باغ نصرت", "id": "509950dde4b0d4befe0acbcc", "allowMenuUrlEdit": true, "venueChains": [], "location": {"cc": "IR", "address": "Choob Bori", "lat": 35.318789, "labeledLatLngs": [{"label": "display", "lng": 51.653751, "lat": 35.318789}], "lng": 51.653751, "country": "ایران", "city": "ورامين", "formattedAddress": ["Choob Bori", "ورامين, تهران", "ایران"], "state": "تهران"}}, {"referralId": "v-1505904614", "specials": {"items": [], "count": 0}, "categories": [{"name": "Baby Store", "pluralName": "Baby Stores", "id": "52f2ab2ebcbc57f1066b8b32", "icon": {"prefix": "https://ss3.4sqi.net/img/categories_v2/shops/apparel_kids_", "suffix": ".png"}, "primary": true, "shortName": "Baby Store"}], "hasPerk": false, "contact": {"formattedPhone": "+98 21 3629 0057", "phone": "+982136290057", "twitter": "ninoland"}, "beenHere": {"lastCheckinExpiredAt": 0}, "verified": false, "stats": {"checkinsCount": 7, "usersCount": 3, "tipCount": 1}, "name": "Nino | نینو", "id": "535a9c22498efcaba5d0b9ae", "allowMenuUrlEdit": true, "venueChains": [], "location": {"cc": "IR", "address": "Chob Bori Sq", "lat": 35.322043, "labeledLatLngs": [{"label": "display", "lng": 51.653513, "lat": 35.322043}], "lng": 51.653513, "country": "ایران", "city": "ورامين", "formattedAddress": ["Chob Bori Sq", "ورامين, تهران", "ایران"], "state": "تهران"}}, {"referralId": "v-1505904614", "specials": {"items": [], "count": 0}, "categories": [{"name": "Fried Chicken Joint", "pluralName": "Fried Chicken Joints", "id": "4d4ae6fc7a7b7dea34424761", "icon": {"prefix": "https://ss3.4sqi.net/img/categories_v2/food/friedchicken_", "suffix": ".png"}, "primary": true, "shortName": "Fried Chicken"}], "hasPerk": false, "contact": {}, "beenHere": {"lastCheckinExpiredAt": 0}, "verified": false, "stats": {"checkinsCount": 10, "usersCount": 8, "tipCount": 0}, "name": "Startak | استارتک", "id": "509808b3e4b03f1e92dead47", "allowMenuUrlEdit": true, "venueChains": [], "location": {"cc": "IR", "address": "Daneshsara St", "lat": 35.324385042298566, "labeledLatLngs": [{"label": "display", "lng": 51.650183173083164, "lat": 35.324385042298566}], "lng": 51.650183173083164, "country": "ایران", "city": "ورامين", "formattedAddress": ["Daneshsara St", "ورامين, تهران", "ایران"], "state": "تهران"}}, {"referralId": "v-1505904614", "specials": {"items": [], "count": 0}, "categories": [{"name": "Hookah Bar", "pluralName": "Hookah Bars", "id": "4bf58dd8d48988d119941735", "icon": {"prefix": "https://ss3.4sqi.net/img/categories_v2/nightlife/hookahbar_", "suffix": ".png"}, "primary": true, "shortName": "Hookah Bar"}], "hasPerk": false, "contact": {}, "beenHere": {"lastCheckinExpiredAt": 0}, "verified": false, "stats": {"checkinsCount": 7, "usersCount": 2, "tipCount": 0}, "name": "Baran Hookah Bar | سفره خانه سنتی باران", "id": "53974785498e97c3af5fb9b4", "allowMenuUrlEdit": true, "venueChains": [], "location": {"cc": "IR", "lat": 35.323677, "lng": 51.657951, "labeledLatLngs": [{"label": "display", "lng": 51.657951, "lat": 35.323677}], "state": "تهران", "country": "ایران", "city": "ورامين", "formattedAddress": ["ورامين, تهران", "ایران"]}}, {"referralId": "v-1505904614", "specials": {"items": [], "count": 0}, "categories": [{"name": "Café", "pluralName": "Cafés", "id": "4bf58dd8d48988d16d941735", "icon": {"prefix": "https://ss3.4sqi.net/img/categories_v2/food/cafe_", "suffix": ".png"}, "primary": true, "shortName": "Café"}], "hasPerk": false, "contact": {}, "beenHere": {"lastCheckinExpiredAt": 0}, "verified": false, "stats": {"checkinsCount": 2, "usersCount": 2, "tipCount": 0}, "name": "Setareh Shab Café | کافه ستاره شب", "id": "53f0d67f498eddd22118e600", "allowMenuUrlEdit": true, "venueChains": [], "location": {"cc": "IR", "address": "Pishva", "lat": 35.32651251141434, "labeledLatLngs": [{"label": "display", "lng": 51.64865036535291, "lat": 35.32651251141434}], "lng": 51.64865036535291, "country": "ایران", "city": "ورامين", "formattedAddress": ["Pishva", "ورامين, تهران", "ایران"], "state": "تهران"}}, {"referralId": "v-1505904614", "specials": {"items": [], "count": 0}, "categories": [{"name": "Road", "pluralName": "Roads", "id": "4bf58dd8d48988d1f9931735", "icon": {"prefix": "https://ss3.4sqi.net/img/categories_v2/travel/highway_", "suffix": ".png"}, "primary": true, "shortName": "Road"}], "hasPerk": false, "contact": {}, "beenHere": {"lastCheckinExpiredAt": 0}, "verified": false, "stats": {"checkinsCount": 3, "usersCount": 3, "tipCount": 0}, "name": "Basij Plaza | میدان بسیج", "id": "54096ff3498e35cae22afa54", "venueChains": [], "venueRatingBlacklisted": true, "location": {"cc": "IR", "lat": 35.3265380859375, "lng": 51.64859390258789, "labeledLatLngs": [{"label": "display", "lng": 51.64859390258789, "lat": 35.3265380859375}], "state": "تهران", "country": "ایران", "city": "ورامين", "formattedAddress": ["ورامين, تهران", "ایران"]}}, {"referralId": "v-1505904614", "specials": {"items": [], "count": 0}, "categories": [{"name": "Medical Center", "pluralName": "Medical Centers", "id": "4bf58dd8d48988d104941735", "icon": {"prefix": "https://ss3.4sqi.net/img/categories_v2/building/medical_", "suffix": ".png"}, "primary": true, "shortName": "Medical"}], "hasPerk": false, "contact": {}, "beenHere": {"lastCheckinExpiredAt": 0}, "verified": false, "stats": {"checkinsCount": 2, "usersCount": 1, "tipCount": 0}, "name": "Al-mahdi medical center | ساختمان پزشكان المهدي", "id": "5768164a498edaf26ec3f606", "allowMenuUrlEdit": true, "venueChains": [], "venueRatingBlacklisted": true, "location": {"state": "تهران", "lng": 51.647517, "address": "Varamin", "lat": 35.324431, "labeledLatLngs": [{"label": "display", "lng": 51.647517, "lat": 35.324431}], "cc": "IR", "country": "ایران", "city": "ورامين", "formattedAddress": ["Varamin (15-khordad street)", "ورامين, تهران", "ایران"], "crossStreet": "15-khordad street"}}, {"referralId": "v-1505904614", "specials": {"items": [], "count": 0}, "categories": [{"name": "Park", "pluralName": "Parks", "id": "4bf58dd8d48988d163941735", "icon": {"prefix": "https://ss3.4sqi.net/img/categories_v2/parks_outdoors/park_", "suffix": ".png"}, "primary": true, "shortName": "Park"}], "hasPerk": false, "contact": {}, "beenHere": {"lastCheckinExpiredAt": 0}, "verified": false, "stats": {"checkinsCount": 48, "usersCount": 18, "tipCount": 0}, "name": "Mashahir Park | پارک مشاهیر", "id": "50ade01be4b0d4508a39dcb3", "venueChains": [], "location": {"cc": "IR", "lat": 35.31787843719035, "lng": 51.65375814683509, "labeledLatLngs": [{"label": "display", "lng": 51.65375814683509, "lat": 35.31787843719035}], "state": "تهران", "country": "ایران", "city": "ورامين", "formattedAddress": ["ورامين, تهران", "ایران"]}}, {"referralId": "v-1505904614", "specials": {"items": [], "count": 0}, "categories": [{"name": "College Library", "pluralName": "College Libraries", "id": "4bf58dd8d48988d1a7941735", "icon": {"prefix": "https://ss3.4sqi.net/img/categories_v2/building/library_", "suffix": ".png"}, "primary": true, "shortName": "Library"}], "hasPerk": false, "contact": {}, "beenHere": {"lastCheckinExpiredAt": 0}, "verified": false, "stats": {"checkinsCount": 1, "usersCount": 1, "tipCount": 0}, "name": "كتابخانه رازى الدين علامه بيكارورامينى و دوستان آبادى", "id": "58db5369f68d8d3265294704", "venueChains": [], "venueRatingBlacklisted": true, "location": {"cc": "IR", "lat": 35.319509, "lng": 51.653201, "labeledLatLngs": [{"label": "display", "lng": 51.653201, "lat": 35.319509}], "country": "ایران", "formattedAddress": ["ایران"]}}, {"referralId": "v-1505904614", "specials": {"items": [], "count": 0}, "categories": [{"name": "Persian Restaurant", "pluralName": "Persian Restaurants", "id": "52e81612bcbc57f1066b79f7", "icon": {"prefix": "https://ss3.4sqi.net/img/categories_v2/food/middleeastern_", "suffix": ".png"}, "primary": true, "shortName": "Persian"}], "hasPerk": false, "contact": {}, "beenHere": {"lastCheckinExpiredAt": 0}, "verified": false, "stats": {"checkinsCount": 15, "usersCount": 10, "tipCount": 0}, "name": "Farahzad Restaurant | سفره خانه فرحزاد", "id": "539176e4498e4fea487ecd3c", "allowMenuUrlEdit": true, "venueChains": [], "location": {"cc": "IR", "lat": 35.323664, "lng": 51.657955, "labeledLatLngs": [{"label": "display", "lng": 51.657955, "lat": 35.323664}], "state": "تهران", "country": "ایران", "city": "ورامين", "formattedAddress": ["ورامين, تهران", "ایران"]}}, {"referralId": "v-1505904614", "specials": {"items": [], "count": 0}, "categories": [{"name": "Prayer Room", "pluralName": "Prayer Rooms", "id": "52e81612bcbc57f1066b7a41", "icon": {"prefix": "https://ss3.4sqi.net/img/categories_v2/building/religious_", "suffix": ".png"}, "primary": true, "shortName": "Prayer Room"}], "hasPerk": false, "contact": {}, "beenHere": {"lastCheckinExpiredAt": 0}, "verified": false, "stats": {"checkinsCount": 2, "usersCount": 2, "tipCount": 0}, "name": "حرم مطهر حضرت معصومه (ص)", "id": "58da3ca12896a2753d2dc302", "venueChains": [], "venueRatingBlacklisted": true, "location": {"cc": "IR", "address": "استان تهران", "lat": 35.32432, "labeledLatLngs": [{"label": "display", "lng": 51.64566, "lat": 35.32432}], "lng": 51.64566, "country": "ایران", "city": "ورامين", "formattedAddress": ["استان تهران", "ورامين, استان تهران", "ایران"], "state": "استان تهران"}}, {"referralId": "v-1505904615", "specials": {"items": [], "count": 0}, "categories": [{"name": "Coffee Shop", "pluralName": "Coffee Shops", "id": "4bf58dd8d48988d1e0931735", "icon": {"prefix": "https://ss3.4sqi.net/img/categories_v2/food/coffeeshop_", "suffix": ".png"}, "primary": true, "shortName": "Coffee Shop"}], "hasPerk": false, "contact": {}, "beenHere": {"lastCheckinExpiredAt": 0}, "verified": false, "stats": {"checkinsCount": 10, "usersCount": 8, "tipCount": 0}, "name": "Chocolate Coffee Shop | کافی شاپ شکلات", "id": "5339580e11d23a99a216d3d8", "allowMenuUrlEdit": true, "venueChains": [], "location": {"cc": "IR", "address": "Bahonar St", "lat": 35.31968242917458, "labeledLatLngs": [{"label": "display", "lng": 51.660229593928584, "lat": 35.31968242917458}], "lng": 51.660229593928584, "country": "ایران", "city": "ورامين", "formattedAddress": ["Bahonar St", "ورامين, تهران", "ایران"], "state": "تهران"}}, {"referralId": "v-1505904615", "specials": {"items": [], "count": 0}, "categories": [{"name": "Neighborhood", "pluralName": "Neighborhoods", "id": "4f2a25ac4b909258e854f55f", "icon": {"prefix": "https://ss3.4sqi.net/img/categories_v2/parks_outdoors/neighborhood_", "suffix": ".png"}, "primary": true, "shortName": "Neighborhood"}], "hasPerk": false, "contact": {}, "beenHere": {"lastCheckinExpiredAt": 0}, "verified": false, "stats": {"checkinsCount": 20, "usersCount": 7, "tipCount": 0}, "name": "Kohneh Gol | كهنه گل", "id": "5314d684e4b0e72a36d0e014", "venueChains": [], "venueRatingBlacklisted": true, "location": {"cc": "IR", "lat": 35.31968434846919, "lng": 51.6602347384129, "labeledLatLngs": [{"label": "display", "lng": 51.6602347384129, "lat": 35.31968434846919}], "state": "تهران", "country": "ایران", "city": "ورامين", "formattedAddress": ["ورامين, تهران", "ایران"]}}, {"referralId": "v-1505904615", "specials": {"items": [], "count": 0}, "categories": [{"name": "Park", "pluralName": "Parks", "id": "4bf58dd8d48988d163941735", "icon": {"prefix": "https://ss3.4sqi.net/img/categories_v2/parks_outdoors/park_", "suffix": ".png"}, "primary": true, "shortName": "Park"}], "hasPerk": false, "contact": {}, "beenHere": {"lastCheckinExpiredAt": 0}, "verified": false, "stats": {"checkinsCount": 38, "usersCount": 12, "tipCount": 0}, "name": "Shaghayegh Park | پارک شقایق", "id": "53536a10498e26a65f108267", "venueChains": [], "location": {"cc": "IR", "lat": 35.32467727901573, "lng": 51.67261351619668, "labeledLatLngs": [{"label": "display", "lng": 51.67261351619668, "lat": 35.32467727901573}], "state": "تهران", "country": "ایران", "city": "ورامين", "formattedAddress": ["ورامين, تهران", "ایران"]}}, {"referralId": "v-1505904615", "specials": {"items": [], "count": 0}, "categories": [{"name": "Shrine", "pluralName": "Shrines", "id": "4eb1d80a4b900d56c88a45ff", "icon": {"prefix": "https://ss3.4sqi.net/img/categories_v2/building/religious_shrine_", "suffix": ".png"}, "primary": true, "shortName": "Shrine"}], "hasPerk": false, "contact": {}, "beenHere": {"lastCheckinExpiredAt": 0}, "verified": false, "stats": {"checkinsCount": 3, "usersCount": 3, "tipCount": 0}, "name": "Sakineh Banou Tomb | مقبره سكينه بانو", "id": "53af948e498e4c69d758c30c", "venueChains": [], "venueRatingBlacklisted": true, "location": {"cc": "IR", "address": "Sakineh Banoo St", "lat": 35.31968242917458, "labeledLatLngs": [{"label": "display", "lng": 51.660229593928584, "lat": 35.31968242917458}], "lng": 51.660229593928584, "country": "ایران", "city": "ورامين", "formattedAddress": ["Sakineh Banoo St", "ورامين, تهران", "ایران"], "state": "تهران"}}, {"referralId": "v-1505904615", "specials": {"items": [], "count": 0}, "categories": [{"name": "College Academic Building", "pluralName": "College Academic Buildings", "id": "4bf58dd8d48988d198941735", "icon": {"prefix": "https://ss3.4sqi.net/img/categories_v2/education/academicbuilding_", "suffix": ".png"}, "primary": true, "shortName": "Academic Building"}], "hasPerk": false, "contact": {}, "beenHere": {"lastCheckinExpiredAt": 0}, "verified": false, "stats": {"checkinsCount": 31, "usersCount": 13, "tipCount": 0}, "name": "Faculty of Agriculture | دانشکده کشاورزی", "id": "50adcab6e4b0ca5999298963", "venueChains": [], "venueRatingBlacklisted": true, "location": {"cc": "IR", "address": "Azad University of Varamin", "lat": 35.31873368175301, "labeledLatLngs": [{"label": "display", "lng": 51.65920070503964, "lat": 35.31873368175301}], "lng": 51.65920070503964, "country": "ایران", "city": "ورامين", "formattedAddress": ["Azad University of Varamin", "ورامين, تهران", "ایران"], "state": "تهران"}}, {"referralId": "v-1505904616", "specials": {"items": [], "count": 0}, "categories": [{"name": "Fast Food Restaurant", "pluralName": "Fast Food Restaurants", "id": "4bf58dd8d48988d16e941735", "icon": {"prefix": "https://ss3.4sqi.net/img/categories_v2/food/fastfood_", "suffix": ".png"}, "primary": true, "shortName": "Fast Food"}], "hasPerk": false, "contact": {}, "beenHere": {"lastCheckinExpiredAt": 0}, "verified": false, "stats": {"checkinsCount": 4, "usersCount": 4, "tipCount": 0}, "name": "Traffic FastFood | فست فود ترافیک", "id": "54048d69498ec35533a0c5cd", "allowMenuUrlEdit": true, "venueChains": [], "location": {"cc": "IR", "address": "Shohada St", "lat": 35.32851028442383, "labeledLatLngs": [{"label": "display", "lng": 51.64240264892578, "lat": 35.32851028442383}], "lng": 51.64240264892578, "country": "ایران", "city": "ورامين", "formattedAddress": ["Shohada St", "ورامين, تهران", "ایران"], "state": "تهران"}}, {"referralId": "v-1505904616", "specials": {"items": [], "count": 0}, "categories": [{"name": "Persian Restaurant", "pluralName": "Persian Restaurants", "id": "52e81612bcbc57f1066b79f7", "icon": {"prefix": "https://ss3.4sqi.net/img/categories_v2/food/middleeastern_", "suffix": ".png"}, "primary": true, "shortName": "Persian"}], "hasPerk": false, "contact": {"formattedPhone": "+98 912 190 2350", "phone": "+989121902350"}, "beenHere": {"lastCheckinExpiredAt": 0}, "verified": false, "stats": {"checkinsCount": 11, "usersCount": 10, "tipCount": 0}, "name": "Golpaygani Restaurant | رستوران گلپایگانی", "id": "538ee437498e7134205f1021", "allowMenuUrlEdit": true, "venueChains": [], "location": {"cc": "IR", "lat": 35.336681, "lng": 51.637826, "labeledLatLngs": [{"label": "display", "lng": 51.637826, "lat": 35.336681}], "state": "تهران", "country": "ایران", "city": "ورامين", "formattedAddress": ["ورامين, تهران", "ایران"]}}, {"referralId": "v-1505904616", "specials": {"items": [], "count": 0}, "categories": [{"name": "Road", "pluralName": "Roads", "id": "4bf58dd8d48988d1f9931735", "icon": {"prefix": "https://ss3.4sqi.net/img/categories_v2/travel/highway_", "suffix": ".png"}, "primary": true, "shortName": "Road"}], "hasPerk": false, "contact": {}, "beenHere": {"lastCheckinExpiredAt": 0}, "verified": false, "stats": {"checkinsCount": 4, "usersCount": 4, "tipCount": 0}, "name": "Mahdiyeh Street | خيابان مهديه", "id": "53213fdc498e04b5d9d5c907", "venueChains": [], "venueRatingBlacklisted": true, "location": {"cc": "IR", "lat": 35.33975413876391, "lng": 51.64170687920405, "labeledLatLngs": [{"label": "display", "lng": 51.64170687920405, "lat": 35.33975413876391}], "state": "تهران", "country": "ایران", "city": "ورامين", "formattedAddress": ["ورامين, تهران", "ایران"]}}, {"referralId": "v-1505904616", "specials": {"items": [], "count": 0}, "categories": [{"name": "Café", "pluralName": "Cafés", "id": "4bf58dd8d48988d16d941735", "icon": {"prefix": "https://ss3.4sqi.net/img/categories_v2/food/cafe_", "suffix": ".png"}, "primary": true, "shortName": "Café"}], "hasPerk": false, "contact": {}, "beenHere": {"lastCheckinExpiredAt": 0}, "verified": false, "stats": {"checkinsCount": 2, "usersCount": 1, "tipCount": 0}, "name": "tameshk cafe | كافه تمشك", "id": "56ec0e00cd10c4efe0d7cd25", "allowMenuUrlEdit": true, "venueChains": [], "location": {"cc": "IR", "lat": 35.330773, "lng": 51.641335, "labeledLatLngs": [{"label": "display", "lng": 51.641335, "lat": 35.330773}], "state": "تهران", "country": "ایران", "city": "ورامين", "formattedAddress": ["ورامين, تهران", "ایران"]}}, {"referralId": "v-1505904616", "specials": {"items": [], "count": 0}, "categories": [{"name": "Persian Restaurant", "pluralName": "Persian Restaurants", "id": "52e81612bcbc57f1066b79f7", "icon": {"prefix": "https://ss3.4sqi.net/img/categories_v2/food/middleeastern_", "suffix": ".png"}, "primary": true, "shortName": "Persian"}], "hasPerk": false, "contact": {}, "beenHere": {"lastCheckinExpiredAt": 0}, "verified": false, "stats": {"checkinsCount": 9, "usersCount": 9, "tipCount": 0}, "name": "Darisuh Restaurant | رستوران داریوش", "id": "5335bbc4498ec4f414efb9e1", "allowMenuUrlEdit": true, "venueChains": [], "location": {"cc": "IR", "lat": 35.33623606670813, "lng": 51.63632231804017, "labeledLatLngs": [{"label": "display", "lng": 51.63632231804017, "lat": 35.33623606670813}], "state": "تهران", "country": "ایران", "city": "ورامين", "formattedAddress": ["ورامين, تهران", "ایران"]}}, {"referralId": "v-1505904616", "specials": {"items": [], "count": 0}, "categories": [{"name": "Internet Cafe", "pluralName": "Internet Cafes", "id": "4bf58dd8d48988d1f0941735", "icon": {"prefix": "https://ss3.4sqi.net/img/categories_v2/shops/internetcafe_", "suffix": ".png"}, "primary": true, "shortName": "Internet Cafe"}], "hasPerk": false, "contact": {}, "beenHere": {"lastCheckinExpiredAt": 0}, "verified": false, "stats": {"checkinsCount": 3, "usersCount": 3, "tipCount": 1}, "name": "Payam Internet Cafe | کافی نت پیام", "id": "50953c1fe4b07b04aaf7e451", "allowMenuUrlEdit": true, "venueChains": [], "location": {"cc": "IR", "lat": 35.332758, "lng": 51.641524, "labeledLatLngs": [{"label": "display", "lng": 51.641524, "lat": 35.332758}], "state": "تهران", "country": "ایران", "city": "ورامين", "formattedAddress": ["ورامين, تهران", "ایران"]}}, {"referralId": "v-1505904616", "specials": {"items": [], "count": 0}, "categories": [{"name": "Doctor's Office", "pluralName": "Doctor's Offices", "id": "4bf58dd8d48988d177941735", "icon": {"prefix": "https://ss3.4sqi.net/img/categories_v2/building/medical_doctorsoffice_", "suffix": ".png"}, "primary": true, "shortName": "Doctor's Office"}], "hasPerk": false, "contact": {}, "beenHere": {"lastCheckinExpiredAt": 0}, "verified": false, "stats": {"checkinsCount": 1, "usersCount": 1, "tipCount": 0}, "name": "مطب دكتر مهناز شادافزا", "id": "570d2923cd10eecd0e54750d", "allowMenuUrlEdit": true, "venueChains": [], "venueRatingBlacklisted": true, "location": {"cc": "IR", "lat": 35.329887, "lng": 51.641628, "labeledLatLngs": [{"label": "display", "lng": 51.641628, "lat": 35.329887}], "country": "ایران", "formattedAddress": ["ایران"]}}, {"referralId": "v-1505904616", "specials": {"items": [], "count": 0}, "categories": [{"name": "IT Services", "pluralName": "IT Services", "id": "52f2ab2ebcbc57f1066b8b36", "icon": {"prefix": "https://ss3.4sqi.net/img/categories_v2/shops/technology_", "suffix": ".png"}, "primary": true, "shortName": "IT Services"}], "hasPerk": false, "contact": {}, "beenHere": {"lastCheckinExpiredAt": 0}, "verified": false, "stats": {"checkinsCount": 4, "usersCount": 3, "tipCount": 0}, "name": "فروشگاه بابیج رایانه", "id": "58f39448419a9e1e24215cf1", "allowMenuUrlEdit": true, "venueChains": [], "location": {"cc": "IR", "lat": 35.332394, "lng": 51.640667, "labeledLatLngs": [{"label": "display", "lng": 51.640667, "lat": 35.332394}], "state": "Tehran Province", "country": "ایران", "city": "Varamin", "formattedAddress": ["Varamin, Tehran Province", "ایران"]}}, {"referralId": "v-1505904616", "specials": {"items": [], "count": 0}, "categories": [{"name": "Mosque", "pluralName": "Mosques", "id": "4bf58dd8d48988d138941735", "icon": {"prefix": "https://ss3.4sqi.net/img/categories_v2/building/religious_mosque_", "suffix": ".png"}, "primary": true, "shortName": "Mosque"}], "hasPerk": false, "contact": {}, "beenHere": {"lastCheckinExpiredAt": 0}, "verified": false, "stats": {"checkinsCount": 1, "usersCount": 1, "tipCount": 0}, "name": "مسجد قبا", "id": "58f3a393a8792166c482dc5a", "venueChains": [], "venueRatingBlacklisted": true, "location": {"cc": "IR", "lat": 35.332, "lng": 51.640397, "labeledLatLngs": [{"label": "display", "lng": 51.640397, "lat": 35.332}], "state": "تهران", "country": "ایران", "city": "ورامين", "formattedAddress": ["ورامين, تهران", "ایران"]}}, {"referralId": "v-1505904616", "specials": {"items": [], "count": 0}, "categories": [{"name": "Coffee Shop", "pluralName": "Coffee Shops", "id": "4bf58dd8d48988d1e0931735", "icon": {"prefix": "https://ss3.4sqi.net/img/categories_v2/food/coffeeshop_", "suffix": ".png"}, "primary": true, "shortName": "Coffee Shop"}], "hasPerk": false, "contact": {"formattedPhone": "+98 935 294 2915", "phone": "+989352942915"}, "beenHere": {"lastCheckinExpiredAt": 0}, "verified": false, "stats": {"checkinsCount": 5, "usersCount": 5, "tipCount": 1}, "name": "TootFarangi Coffee Shop | کافی‌شاپ توت‌فرنگی", "id": "509807c3e4b0a7ac72b79887", "allowMenuUrlEdit": true, "venueChains": [], "location": {"cc": "IR", "address": "Panzdah-e Khordad St", "lat": 35.33372738184061, "labeledLatLngs": [{"label": "display", "lng": 51.63376647523849, "lat": 35.33372738184061}], "lng": 51.63376647523849, "country": "ایران", "city": "ورامين", "formattedAddress": ["Panzdah-e Khordad St", "ورامين, تهران", "ایران"], "state": "تهران"}}, {"referralId": "v-1505904616", "specials": {"items": [], "count": 0}, "categories": [{"name": "Fast Food Restaurant", "pluralName": "Fast Food Restaurants", "id": "4bf58dd8d48988d16e941735", "icon": {"prefix": "https://ss3.4sqi.net/img/categories_v2/food/fastfood_", "suffix": ".png"}, "primary": true, "shortName": "Fast Food"}], "hasPerk": false, "contact": {}, "beenHere": {"lastCheckinExpiredAt": 0}, "verified": false, "stats": {"checkinsCount": 13, "usersCount": 8, "tipCount": 0}, "name": "Kudu | كودو", "id": "4e61abe1ae60e9edf56d66f7", "allowMenuUrlEdit": true, "venueChains": [], "location": {"cc": "IR", "lat": 35.331138610839844, "lng": 51.627952575683594, "labeledLatLngs": [{"label": "display", "lng": 51.627952575683594, "lat": 35.331138610839844}], "state": "تهران", "country": "ایران", "city": "ورامين", "formattedAddress": ["ورامين, تهران", "ایران"]}}, {"referralId": "v-1505904616", "specials": {"items": [], "count": 0}, "categories": [{"name": "Tea Room", "pluralName": "Tea Rooms", "id": "4bf58dd8d48988d1dc931735", "icon": {"prefix": "https://ss3.4sqi.net/img/categories_v2/food/tearoom_", "suffix": ".png"}, "primary": true, "shortName": "Tea Room"}], "hasPerk": false, "contact": {}, "beenHere": {"lastCheckinExpiredAt": 0}, "verified": false, "stats": {"checkinsCount": 8, "usersCount": 3, "tipCount": 0}, "name": "سفره خانه پاتوق", "id": "58f39d48e65d0c4b18c4ab68", "allowMenuUrlEdit": true, "venueChains": [], "location": {"cc": "IR", "lat": 35.329945, "lng": 51.640583, "labeledLatLngs": [{"label": "display", "lng": 51.640583, "lat": 35.329945}], "country": "ایران", "formattedAddress": ["ایران"]}}, {"referralId": "v-1505904616", "specials": {"items": [], "count": 0}, "categories": [{"name": "Government Building", "pluralName": "Government Buildings", "id": "4bf58dd8d48988d126941735", "icon": {"prefix": "https://ss3.4sqi.net/img/categories_v2/building/government_", "suffix": ".png"}, "primary": true, "shortName": "Government"}], "hasPerk": false, "contact": {}, "beenHere": {"lastCheckinExpiredAt": 0}, "verified": false, "stats": {"checkinsCount": 5, "usersCount": 5, "tipCount": 0}, "name": "شهرداری ورامین", "id": "584e61698cb34e50edffdb34", "venueChains": [], "venueRatingBlacklisted": true, "location": {"cc": "IR", "lat": 35.328033, "lng": 51.64033, "labeledLatLngs": [{"label": "display", "lng": 51.64033, "lat": 35.328033}], "state": "Tehran Province", "country": "ایران", "city": "Varamin", "formattedAddress": ["Varamin, Tehran Province", "ایران"]}}, {"referralId": "v-1505904616", "specials": {"items": [], "count": 0}, "categories": [{"name": "Hotel", "pluralName": "Hotels", "id": "4bf58dd8d48988d1fa931735", "icon": {"prefix": "https://ss3.4sqi.net/img/categories_v2/travel/hotel_", "suffix": ".png"}, "primary": true, "shortName": "Hotel"}], "hasPerk": false, "contact": {}, "beenHere": {"lastCheckinExpiredAt": 0}, "verified": false, "url": "http://www.seepinoodcomplex.com", "stats": {"checkinsCount": 28, "usersCount": 9, "tipCount": 0}, "name": "Sepinood Hotel | هتل سپينود", "id": "53b38a44498e86aa3d158c90", "allowMenuUrlEdit": true, "venueChains": [], "location": {"cc": "IR", "lat": 35.32857872881731, "lng": 51.62994060815134, "labeledLatLngs": [{"label": "display", "lng": 51.62994060815134, "lat": 35.32857872881731}], "state": "تهران", "country": "ایران", "city": "ورامين", "formattedAddress": ["ورامين, تهران", "ایران"]}}, {"referralId": "v-1505904616", "specials": {"items": [], "count": 0}, "categories": [{"name": "Factory", "pluralName": "Factories", "id": "4eb1bea83b7b6f98df247e06", "icon": {"prefix": "https://ss3.4sqi.net/img/categories_v2/building/factory_", "suffix": ".png"}, "primary": true, "shortName": "Factory"}], "hasPerk": false, "contact": {}, "beenHere": {"lastCheckinExpiredAt": 0}, "verified": false, "stats": {"checkinsCount": 19, "usersCount": 18, "tipCount": 0}, "name": "Varamin Sugar Factory | كارخانه قند ورامين", "id": "5301abc0498e8f5b4435fc60", "venueChains": [], "venueRatingBlacklisted": true, "location": {"cc": "IR", "lat": 35.344342841942485, "lng": 51.63402874030618, "labeledLatLngs": [{"label": "display", "lng": 51.63402874030618, "lat": 35.344342841942485}], "state": "تهران", "country": "ایران", "city": "ورامين", "formattedAddress": ["ورامين, تهران", "ایران"]}}, {"referralId": "v-1505904616", "specials": {"items": [], "count": 0}, "categories": [{"name": "Candy Store", "pluralName": "Candy Stores", "id": "4bf58dd8d48988d117951735", "icon": {"prefix": "https://ss3.4sqi.net/img/categories_v2/shops/candystore_", "suffix": ".png"}, "primary": true, "shortName": "Candy Store"}], "hasPerk": false, "contact": {}, "beenHere": {"lastCheckinExpiredAt": 0}, "verified": false, "stats": {"checkinsCount": 2, "usersCount": 1, "tipCount": 0}, "name": "شیرین رطب امین", "id": "58ff4eb409e2837ef9e8890e", "allowMenuUrlEdit": true, "venueChains": [], "location": {"cc": "IR", "lat": 35.33138, "lng": 51.63795, "labeledLatLngs": [{"label": "display", "lng": 51.63795, "lat": 35.33138}], "state": "Tehran Province", "country": "ایران", "city": "Varamin", "formattedAddress": ["Varamin, Tehran Province", "ایران"]}}, {"referralId": "v-1505904617", "specials": {"items": [], "count": 0}, "categories": [{"name": "Dentist's Office", "pluralName": "Dentist's Offices", "id": "4bf58dd8d48988d178941735", "icon": {"prefix": "https://ss3.4sqi.net/img/categories_v2/building/medical_dentist_", "suffix": ".png"}, "primary": true, "shortName": "Dentist's Office"}], "hasPerk": false, "contact": {}, "beenHere": {"lastCheckinExpiredAt": 0}, "verified": false, "stats": {"checkinsCount": 1, "usersCount": 1, "tipCount": 0}, "name": "دندانپزشكي دكتر فياضي منفرد", "id": "56593850498e511a27c00de9", "allowMenuUrlEdit": true, "venueChains": [], "venueRatingBlacklisted": true, "location": {"cc": "IR", "lat": 35.327955, "lng": 51.642993, "labeledLatLngs": [{"label": "display", "lng": 51.642993, "lat": 35.327955}], "country": "ایران", "formattedAddress": ["ایران"]}}, {"referralId": "v-1505904617", "specials": {"items": [], "count": 0}, "categories": [{"name": "Road", "pluralName": "Roads", "id": "4bf58dd8d48988d1f9931735", "icon": {"prefix": "https://ss3.4sqi.net/img/categories_v2/travel/highway_", "suffix": ".png"}, "primary": true, "shortName": "Road"}], "hasPerk": false, "contact": {}, "beenHere": {"lastCheckinExpiredAt": 0}, "verified": false, "stats": {"checkinsCount": 14, "usersCount": 3, "tipCount": 0}, "name": "Resalat Boulevard | بلوار رسالت", "id": "5409e59e498e69614725b670", "venueChains": [], "venueRatingBlacklisted": true, "location": {"cc": "IR", "lat": 35.3278238949642, "lng": 51.642951510174626, "labeledLatLngs": [{"label": "display", "lng": 51.642951510174626, "lat": 35.3278238949642}], "state": "تهران", "country": "ایران", "city": "ورامين", "formattedAddress": ["ورامين, تهران", "ایران"]}}, {"referralId": "v-1505904617", "specials": {"items": [], "count": 0}, "categories": [{"name": "Office", "pluralName": "Offices", "id": "4bf58dd8d48988d124941735", "icon": {"prefix": "https://ss3.4sqi.net/img/categories_v2/building/default_", "suffix": ".png"}, "primary": true, "shortName": "Office"}], "hasPerk": false, "contact": {}, "beenHere": {"lastCheckinExpiredAt": 0}, "verified": false, "stats": {"checkinsCount": 8, "usersCount": 8, "tipCount": 0}, "name": "چرمشهر تهران", "id": "56e6b7f0498e00f87a14cbdf", "venueChains": [], "venueRatingBlacklisted": true, "location": {"cc": "IR", "address": "چرمشهر تهران", "lat": 35.33734, "labeledLatLngs": [{"label": "display", "lng": 51.648888, "lat": 35.33734}], "lng": 51.648888, "country": "ایران", "city": "ورامين", "formattedAddress": ["چرمشهر تهران", "ورامين, تهران", "ایران"], "state": "تهران"}}, {"referralId": "v-1505904617", "specials": {"items": [], "count": 0}, "categories": [{"name": "Cemetery", "pluralName": "Cemeteries", "id": "4bf58dd8d48988d15c941735", "icon": {"prefix": "https://ss3.4sqi.net/img/categories_v2/parks_outdoors/cemetery_", "suffix": ".png"}, "primary": true, "shortName": "Cemetery"}], "hasPerk": false, "contact": {}, "beenHere": {"lastCheckinExpiredAt": 0}, "verified": false, "stats": {"checkinsCount": 10, "usersCount": 6, "tipCount": 0}, "name": "Hossein Reza Cemetery | آرامستان حسين رضا", "id": "53216d45498e72496f5e704f", "venueChains": [], "venueRatingBlacklisted": true, "location": {"cc": "IR", "lat": 35.33607377736437, "lng": 51.64941676481287, "labeledLatLngs": [{"label": "display", "lng": 51.64941676481287, "lat": 35.33607377736437}], "state": "تهران", "country": "ایران", "city": "ورامين", "formattedAddress": ["ورامين, تهران", "ایران"]}}, {"referralId": "v-1505904617", "specials": {"items": [], "count": 0}, "categories": [{"name": "Accessories Store", "pluralName": "Accessories Stores", "id": "4bf58dd8d48988d102951735", "icon": {"prefix": "https://ss3.4sqi.net/img/categories_v2/shops/apparel_accessories_", "suffix": ".png"}, "primary": true, "shortName": "Accessories"}], "hasPerk": false, "contact": {}, "beenHere": {"lastCheckinExpiredAt": 0}, "verified": false, "stats": {"checkinsCount": 31, "usersCount": 25, "tipCount": 1}, "name": "Gol-e Narges Shopping Center | پاساژ گل نرگس", "id": "50ae13a7e4b099c5492a0c1c", "allowMenuUrlEdit": true, "venueChains": [], "location": {"cc": "IR", "lat": 35.33069776273323, "lng": 51.64439675133645, "labeledLatLngs": [{"label": "display", "lng": 51.64439675133645, "lat": 35.33069776273323}], "state": "تهران", "country": "ایران", "city": "ورامين", "formattedAddress": ["ورامين, تهران", "ایران"]}}, {"referralId": "v-1505904617", "specials": {"items": [], "count": 0}, "categories": [{"name": "Kebab Restaurant", "pluralName": "Kebab Restaurants", "id": "5283c7b4e4b094cb91ec88d7", "icon": {"prefix": "https://ss3.4sqi.net/img/categories_v2/food/middleeastern_", "suffix": ".png"}, "primary": true, "shortName": "Kebab"}], "hasPerk": false, "contact": {}, "beenHere": {"lastCheckinExpiredAt": 0}, "verified": false, "stats": {"checkinsCount": 5, "usersCount": 4, "tipCount": 0}, "name": "کبابی بناب", "id": "58f7b530c876c847e4e273a9", "allowMenuUrlEdit": true, "venueChains": [], "location": {"cc": "IR", "lat": 35.3304, "lng": 51.64906, "labeledLatLngs": [{"label": "display", "lng": 51.64906, "lat": 35.3304}], "state": "Tehran Province", "country": "ایران", "city": "Varamin", "formattedAddress": ["Varamin, Tehran Province", "ایران"]}}, {"referralId": "v-1505904617", "specials": {"items": [], "count": 0}, "categories": [{"name": "Movie Theater", "pluralName": "Movie Theaters", "id": "4bf58dd8d48988d17f941735", "icon": {"prefix": "https://ss3.4sqi.net/img/categories_v2/arts_entertainment/movietheater_", "suffix": ".png"}, "primary": true, "shortName": "Movie Theater"}], "hasPerk": false, "contact": {}, "beenHere": {"lastCheckinExpiredAt": 0}, "verified": false, "stats": {"checkinsCount": 2, "usersCount": 2, "tipCount": 0}, "name": "Qods Cinema | سینما قدس", "id": "50953b72e4b0a7ac71026d77", "allowMenuUrlEdit": true, "venueChains": [], "location": {"cc": "IR", "lat": 35.33294340965748, "lng": 51.6443916080739, "labeledLatLngs": [{"label": "display", "lng": 51.6443916080739, "lat": 35.33294340965748}], "state": "تهران", "country": "ایران", "city": "ورامين", "formattedAddress": ["ورامين, تهران", "ایران"]}}, {"referralId": "v-1505904617", "specials": {"items": [], "count": 0}, "categories": [{"name": "Train Station", "pluralName": "Train Stations", "id": "4bf58dd8d48988d129951735", "icon": {"prefix": "https://ss3.4sqi.net/img/categories_v2/travel/trainstation_", "suffix": ".png"}, "primary": true, "shortName": "Train Station"}], "hasPerk": false, "contact": {}, "beenHere": {"lastCheckinExpiredAt": 0}, "verified": false, "stats": {"checkinsCount": 206, "usersCount": 176, "tipCount": 0}, "name": "Varamin Railway Station | ایستگاه راه آهن ورامین", "id": "50c23ce8e4b078191bbae81b", "venueChains": [], "location": {"cc": "IR", "lat": 35.334882129428294, "lng": 51.644371035027675, "labeledLatLngs": [{"label": "display", "lng": 51.644371035027675, "lat": 35.334882129428294}], "state": "تهران", "country": "ایران", "city": "ورامين", "formattedAddress": ["ورامين, تهران", "ایران"]}}, {"referralId": "v-1505904617", "specials": {"items": [], "count": 0}, "categories": [{"name": "City", "pluralName": "Cities", "id": "50aa9e094b90af0d42d5de0d", "icon": {"prefix": "https://ss3.4sqi.net/img/categories_v2/parks_outdoors/neighborhood_", "suffix": ".png"}, "primary": true, "shortName": "City"}], "hasPerk": false, "contact": {}, "beenHere": {"lastCheckinExpiredAt": 0}, "verified": false, "stats": {"checkinsCount": 402, "usersCount": 285, "tipCount": 1}, "name": "Varamin | ورامین", "id": "53535dfe498e5f99824298c7", "venueChains": [], "venueRatingBlacklisted": true, "location": {"cc": "IR", "lat": 35.32864111613392, "lng": 51.64578437805176, "labeledLatLngs": [{"label": "display", "lng": 51.64578437805176, "lat": 35.32864111613392}], "country": "ایران", "state": "تهران", "formattedAddress": ["تهران", "ایران"]}}, {"referralId": "v-1505904619", "specials": {"items": [], "count": 0}, "categories": [{"name": "Campground", "pluralName": "Campgrounds", "id": "4bf58dd8d48988d1e4941735", "icon": {"prefix": "https://ss3.4sqi.net/img/categories_v2/parks_outdoors/campground_", "suffix": ".png"}, "primary": true, "shortName": "Campground"}], "hasPerk": false, "contact": {}, "beenHere": {"lastCheckinExpiredAt": 0}, "verified": false, "stats": {"checkinsCount": 5, "usersCount": 3, "tipCount": 0}, "name": "Yousef Reza | یوسف رضا", "id": "5427157b498ec21e37c37688", "venueChains": [], "location": {"cc": "IR", "lat": 35.35486157463677, "lng": 51.62675255349029, "labeledLatLngs": [{"label": "display", "lng": 51.62675255349029, "lat": 35.35486157463677}], "state": "تهران", "country": "ایران", "city": "ورامين", "formattedAddress": ["ورامين, تهران", "ایران"]}}, {"referralId": "v-1505904619", "specials": {"items": [], "count": 0}, "categories": [{"name": "Housing Development", "pluralName": "Housing Developments", "id": "4f2a210c4b9023bd5841ed28", "icon": {"prefix": "https://ss3.4sqi.net/img/categories_v2/building/housingdevelopment_", "suffix": ".png"}, "primary": true, "shortName": "Housing Development"}], "hasPerk": false, "contact": {}, "beenHere": {"lastCheckinExpiredAt": 0}, "verified": false, "stats": {"checkinsCount": 6, "usersCount": 6, "tipCount": 0}, "name": "Baagh Khavas | باغخواص", "id": "53a27328498ee8842b34e6d4", "venueChains": [], "venueRatingBlacklisted": true, "location": {"cc": "IR", "address": "Gol Tappeh", "lat": 35.354848298097636, "labeledLatLngs": [{"label": "display", "lng": 51.62677826299793, "lat": 35.354848298097636}], "lng": 51.62677826299793, "country": "ایران", "city": "ورامين", "formattedAddress": ["Gol Tappeh", "ورامين, تهران", "ایران"], "state": "تهران"}}, {"referralId": "v-1505904619", "specials": {"items": [], "count": 0}, "categories": [{"name": "High School", "pluralName": "High Schools", "id": "4bf58dd8d48988d13d941735", "icon": {"prefix": "https://ss3.4sqi.net/img/categories_v2/building/school_", "suffix": ".png"}, "primary": true, "shortName": "High School"}], "hasPerk": false, "contact": {}, "beenHere": {"lastCheckinExpiredAt": 0}, "verified": false, "stats": {"checkinsCount": 3, "usersCount": 2, "tipCount": 0}, "name": "دبيرستان نمونه دكتر حسابي", "id": "565c0efd498ef429af9e2f7c", "venueChains": [], "venueRatingBlacklisted": true, "location": {"cc": "IR", "lat": 35.3531303554494, "lng": 51.63016686299294, "labeledLatLngs": [{"label": "display", "lng": 51.63016686299294, "lat": 35.3531303554494}], "country": "ایران", "formattedAddress": ["ایران"]}}, {"referralId": "v-1505904619", "specials": {"items": [], "count": 0}, "categories": [{"name": "Hospital", "pluralName": "Hospitals", "id": "4bf58dd8d48988d196941735", "icon": {"prefix": "https://ss3.4sqi.net/img/categories_v2/building/medical_", "suffix": ".png"}, "primary": true, "shortName": "Hospital"}], "hasPerk": false, "contact": {}, "beenHere": {"lastCheckinExpiredAt": 0}, "verified": false, "stats": {"checkinsCount": 12, "usersCount": 10, "tipCount": 0}, "name": "Panzdah-e Khordad Hospital | بیمارستان پانزده خرداد", "id": "53a2c167498e15b7e62738e8", "venueChains": [], "venueRatingBlacklisted": true, "location": {"cc": "IR", "lat": 35.345822625714334, "lng": 51.637242856873065, "labeledLatLngs": [{"label": "display", "lng": 51.637242856873065, "lat": 35.345822625714334}], "state": "تهران", "country": "ایران", "city": "ورامين", "formattedAddress": ["ورامين, تهران", "ایران"]}}, {"referralId": "v-1505904622", "specials": {"items": [], "count": 0}, "categories": [{"name": "Auto Garage", "pluralName": "Auto Garages", "id": "52f2ab2ebcbc57f1066b8b44", "icon": {"prefix": "https://ss3.4sqi.net/img/categories_v2/shops/automotive_", "suffix": ".png"}, "primary": true, "shortName": "Auto Garage"}], "hasPerk": false, "contact": {}, "beenHere": {"lastCheckinExpiredAt": 0}, "verified": false, "stats": {"checkinsCount": 22, "usersCount": 5, "tipCount": 0}, "name": "نمايندگي ايران خودرو ١٢٥٣", "id": "57009a33498ee24b9a7b4bca", "allowMenuUrlEdit": true, "venueChains": [], "location": {"cc": "IR", "lat": 35.374765, "lng": 51.616116, "labeledLatLngs": [{"label": "display", "lng": 51.616116, "lat": 35.374765}], "country": "ایران", "formattedAddress": ["ایران"]}}, {"referralId": "v-1505904622", "specials": {"items": [], "count": 0}, "categories": [{"name": "Amphitheater", "pluralName": "Amphitheaters", "id": "56aa371be4b08b9a8d5734db", "icon": {"prefix": "https://ss3.4sqi.net/img/categories_v2/arts_entertainment/default_", "suffix": ".png"}, "primary": true, "shortName": "Amphitheater"}], "hasPerk": false, "contact": {}, "beenHere": {"lastCheckinExpiredAt": 0}, "verified": false, "stats": {"checkinsCount": 1, "usersCount": 1, "tipCount": 0}, "name": "Artin", "id": "58f4ab42ee628b62e19a2a3c", "private": true, "venueChains": [], "location": {"cc": "IR", "lat": 35.367832, "lng": 51.617245, "labeledLatLngs": [{"label": "display", "lng": 51.617245, "lat": 35.367832}], "state": "تهران", "country": "ایران", "city": "تهران", "formattedAddress": ["تهران, تهران", "ایران"]}}, {"referralId": "v-1505904622", "specials": {"items": [], "count": 0}, "categories": [{"name": "Hotel", "pluralName": "Hotels", "id": "4bf58dd8d48988d1fa931735", "icon": {"prefix": "https://ss3.4sqi.net/img/categories_v2/travel/hotel_", "suffix": ".png"}, "primary": true, "shortName": "Hotel"}], "hasPerk": false, "contact": {}, "beenHere": {"lastCheckinExpiredAt": 0}, "verified": false, "stats": {"checkinsCount": 45, "usersCount": 30, "tipCount": 1}, "name": "Shayan Hotel | هتل شايان", "id": "54040970498e29ccd50b92fc", "allowMenuUrlEdit": true, "venueChains": [], "location": {"cc": "IR", "lat": 35.36892001578754, "lng": 51.62138976726531, "labeledLatLngs": [{"label": "display", "lng": 51.62138976726531, "lat": 35.36892001578754}], "state": "تهران", "country": "ایران", "city": "ورامين", "formattedAddress": ["ورامين, تهران", "ایران"]}}, {"referralId": "v-1505904622", "specials": {"items": [], "count": 0}, "categories": [{"name": "Campaign Office", "pluralName": "Campaign Offices", "id": "5032764e91d4c4b30a586d5a", "icon": {"prefix": "https://ss3.4sqi.net/img/categories_v2/building/default_", "suffix": ".png"}, "primary": true, "shortName": "Campaign"}], "hasPerk": false, "contact": {}, "beenHere": {"lastCheckinExpiredAt": 0}, "verified": false, "stats": {"checkinsCount": 8, "usersCount": 8, "tipCount": 0}, "name": "CEO of Varamin | سازمان نظام مهندسى ورامين", "id": "5301d5ff498eed30cf1198d4", "venueChains": [], "venueRatingBlacklisted": true, "location": {"cc": "IR", "lat": 35.36373296695457, "lng": 51.620587700240705, "labeledLatLngs": [{"label": "display", "lng": 51.620587700240705, "lat": 35.36373296695457}], "state": "تهران", "country": "ایران", "city": "ورامين", "formattedAddress": ["ورامين, تهران", "ایران"]}}, {"referralId": "v-1505904623", "specials": {"items": [], "count": 0}, "categories": [{"name": "Coffee Shop", "pluralName": "Coffee Shops", "id": "4bf58dd8d48988d1e0931735", "icon": {"prefix": "https://ss3.4sqi.net/img/categories_v2/food/coffeeshop_", "suffix": ".png"}, "primary": true, "shortName": "Coffee Shop"}], "hasPerk": false, "contact": {}, "beenHere": {"lastCheckinExpiredAt": 0}, "verified": false, "stats": {"checkinsCount": 6, "usersCount": 6, "tipCount": 0}, "name": "caffee shop Baran", "id": "5815bb9938fa62c38c31b49f", "allowMenuUrlEdit": true, "venueChains": [], "location": {"cc": "IR", "lat": 35.364264, "lng": 51.631368, "labeledLatLngs": [{"label": "display", "lng": 51.631368, "lat": 35.364264}], "country": "ایران", "formattedAddress": ["ایران"]}}]