[{"referralId": "v-1505910101", "specials": {"items": [], "count": 0}, "categories": [{"name": "Sports Club", "pluralName": "Sports Clubs", "id": "52e81612bcbc57f1066b7a2e", "icon": {"prefix": "https://ss3.4sqi.net/img/categories_v2/shops/sports_outdoors_", "suffix": ".png"}, "primary": true, "shortName": "Sports Club"}], "hasPerk": false, "contact": {}, "beenHere": {"lastCheckinExpiredAt": 0}, "verified": false, "stats": {"checkinsCount": 2, "usersCount": 1, "tipCount": 0}, "name": "Bank Saderat Complex", "id": "55c5e62d498e847c9c2587bd", "allowMenuUrlEdit": true, "venueChains": [], "location": {"state": "ایلام", "lng": 46.384185791015625, "address": "Ilam Beheshti Blvr", "lat": 33.627716064453125, "labeledLatLngs": [{"label": "display", "lng": 46.384185791015625, "lat": 33.627716064453125}], "cc": "IR", "country": "ایران", "city": "Īlām", "formattedAddress": ["Ilam Beheshti Blvr (Beheshti Blvr)", "Īlām, ایلام", "ایران"], "crossStreet": "Beheshti Blvr"}}, {"referralId": "v-1505910101", "specials": {"items": [], "count": 0}, "categories": [{"name": "Rest Area", "pluralName": "Rest Areas", "id": "4d954b16a243a5684b65b473", "icon": {"prefix": "https://ss3.4sqi.net/img/categories_v2/travel/restarea_", "suffix": ".png"}, "primary": true, "shortName": "Rest Areas"}], "hasPerk": false, "contact": {}, "beenHere": {"lastCheckinExpiredAt": 0}, "verified": false, "stats": {"checkinsCount": 2, "usersCount": 2, "tipCount": 0}, "name": "طبيعت", "id": "56f40c32498ed026ee729724", "venueChains": [], "location": {"cc": "IR", "address": "ilam", "lat": 33.62837, "labeledLatLngs": [{"label": "display", "lng": 46.387738, "lat": 33.62837}], "lng": 46.387738, "country": "ایران", "formattedAddress": ["ilam", "ایران"]}}, {"referralId": "v-1505910101", "specials": {"items": [], "count": 0}, "categories": [{"name": "Building", "pluralName": "Buildings", "id": "4bf58dd8d48988d130941735", "icon": {"prefix": "https://ss3.4sqi.net/img/categories_v2/building/default_", "suffix": ".png"}, "primary": true, "shortName": "Building"}], "hasPerk": false, "contact": {}, "beenHere": {"lastCheckinExpiredAt": 0}, "verified": false, "stats": {"checkinsCount": 1, "usersCount": 1, "tipCount": 0}, "name": "نمایندگی ایران خودرو | Representative of Iran khodro", "id": "58cb90bc951e7d6dae123324", "venueChains": [], "venueRatingBlacklisted": true, "location": {"cc": "IR", "lat": 33.62766, "lng": 46.38919, "labeledLatLngs": [{"label": "display", "lng": 46.38919, "lat": 33.62766}], "state": "Ilam Province", "country": "ایران", "city": "Ilam", "formattedAddress": ["Ilam, Ilam Province", "ایران"]}}, {"referralId": "v-1505910101", "specials": {"items": [], "count": 0}, "categories": [{"name": "Club House", "pluralName": "Club Houses", "id": "52e81612bcbc57f1066b7a35", "icon": {"prefix": "https://ss3.4sqi.net/img/categories_v2/building/default_", "suffix": ".png"}, "primary": true, "shortName": "Club"}], "hasPerk": false, "contact": {}, "beenHere": {"lastCheckinExpiredAt": 0}, "verified": false, "stats": {"checkinsCount": 17, "usersCount": 2, "tipCount": 0}, "name": "Sadra's home", "id": "58c892b952893072be61d63b", "venueChains": [], "venueRatingBlacklisted": true, "location": {"cc": "IR", "lat": 33.625026, "lng": 46.392645, "labeledLatLngs": [{"label": "display", "lng": 46.392645, "lat": 33.625026}], "country": "ایران", "formattedAddress": ["ایران"]}}, {"referralId": "v-1505910102", "specials": {"items": [], "count": 0}, "categories": [{"name": "Plaza", "pluralName": "Plazas", "id": "4bf58dd8d48988d164941735", "icon": {"prefix": "https://ss3.4sqi.net/img/categories_v2/parks_outdoors/plaza_", "suffix": ".png"}, "primary": true, "shortName": "Plaza"}], "hasPerk": false, "contact": {}, "beenHere": {"lastCheckinExpiredAt": 0}, "verified": false, "stats": {"checkinsCount": 13, "usersCount": 11, "tipCount": 0}, "name": "Keshvari Square | میدان کشوری", "id": "53727c47498e7892c51f7e04", "venueChains": [], "location": {"cc": "IR", "lat": 33.626425915164084, "lng": 46.40997797853662, "labeledLatLngs": [{"label": "display", "lng": 46.40997797853662, "lat": 33.626425915164084}], "state": "ایلام", "country": "ایران", "city": "Īlām", "formattedAddress": ["Īlām, ایلام", "ایران"]}}, {"referralId": "v-1505910102", "specials": {"items": [], "count": 0}, "categories": [{"name": "Pool", "pluralName": "Pools", "id": "4bf58dd8d48988d15e941735", "icon": {"prefix": "https://ss3.4sqi.net/img/categories_v2/parks_outdoors/pool_", "suffix": ".png"}, "primary": true, "shortName": "Pool"}], "hasPerk": false, "contact": {}, "beenHere": {"lastCheckinExpiredAt": 0}, "verified": false, "stats": {"checkinsCount": 1, "usersCount": 1, "tipCount": 0}, "name": "Estakhr Assreh", "id": "5975c566eacf453223ee030c", "private": true, "venueChains": [], "location": {"state": "ایلام", "lng": 46.397604, "address": "Ilam", "lat": 33.622529, "labeledLatLngs": [{"label": "display", "lng": 46.397604, "lat": 33.622529}], "cc": "IR", "country": "ایران", "city": "Īlām", "formattedAddress": ["Ilam (Madar)", "Īlām, ایلام", "ایران"], "crossStreet": "Madar"}}, {"referralId": "v-1505910102", "specials": {"items": [], "count": 0}, "categories": [{"name": "Club House", "pluralName": "Club Houses", "id": "52e81612bcbc57f1066b7a35", "icon": {"prefix": "https://ss3.4sqi.net/img/categories_v2/building/default_", "suffix": ".png"}, "primary": true, "shortName": "Club"}], "hasPerk": false, "contact": {}, "beenHere": {"lastCheckinExpiredAt": 0}, "verified": false, "stats": {"checkinsCount": 4, "usersCount": 2, "tipCount": 0}, "name": "سازمان فنی و حرفه ای استان", "id": "56cbeaf5498e223a0ddb5b40", "venueChains": [], "venueRatingBlacklisted": true, "location": {"cc": "IR", "lat": 33.624209588503085, "lng": 46.40386648714529, "labeledLatLngs": [{"label": "display", "lng": 46.40386648714529, "lat": 33.624209588503085}], "country": "ایران", "formattedAddress": ["ایران"]}}, {"referralId": "v-1505910102", "specials": {"items": [], "count": 0}, "categories": [{"name": "Bus Station", "pluralName": "Bus Stations", "id": "4bf58dd8d48988d1fe931735", "icon": {"prefix": "https://ss3.4sqi.net/img/categories_v2/travel/busstation_", "suffix": ".png"}, "primary": true, "shortName": "Bus Station"}], "hasPerk": false, "contact": {}, "beenHere": {"lastCheckinExpiredAt": 0}, "verified": false, "stats": {"checkinsCount": 34, "usersCount": 23, "tipCount": 0}, "name": "Ilam Bus Terminal | ترمینال ایلام", "id": "5294d408498eeedfcd0c37cc", "venueChains": [], "location": {"cc": "IR", "lat": 33.624081363330895, "lng": 46.40159656365671, "labeledLatLngs": [{"label": "display", "lng": 46.40159656365671, "lat": 33.624081363330895}], "state": "ایلام", "country": "ایران", "city": "Īlām", "formattedAddress": ["Īlām, ایلام", "ایران"]}}, {"referralId": "v-1505910103", "specials": {"items": [], "count": 0}, "categories": [{"name": "Country Dance Club", "pluralName": "Country Dance Clubs", "id": "52e81612bcbc57f1066b79ef", "icon": {"prefix": "https://ss3.4sqi.net/img/categories_v2/arts_entertainment/performingarts_dancestudio_", "suffix": ".png"}, "primary": true, "shortName": "Country Dance Club"}], "hasPerk": false, "contact": {}, "beenHere": {"lastCheckinExpiredAt": 0}, "verified": false, "stats": {"checkinsCount": 1, "usersCount": 1, "tipCount": 0}, "name": "Shabash Hall", "id": "59a4396775cb8c64da22c886", "allowMenuUrlEdit": true, "private": true, "venueChains": [], "location": {"cc": "IR", "lat": 33.62384, "lng": 46.414894, "labeledLatLngs": [{"label": "display", "lng": 46.414894, "lat": 33.62384}], "state": "Ilam Province", "country": "ایران", "city": "Ilam", "formattedAddress": ["Ilam, Ilam Province", "ایران"]}}, {"referralId": "v-1505910106", "specials": {"items": [], "count": 0}, "categories": [{"name": "Multiplex", "pluralName": "Multiplexes", "id": "4bf58dd8d48988d180941735", "icon": {"prefix": "https://ss3.4sqi.net/img/categories_v2/arts_entertainment/movietheater_", "suffix": ".png"}, "primary": true, "shortName": "Cineplex"}], "hasPerk": false, "contact": {}, "beenHere": {"lastCheckinExpiredAt": 0}, "verified": false, "stats": {"checkinsCount": 1, "usersCount": 1, "tipCount": 0}, "name": "Cinema Farhang | سینما فرهنگ", "id": "589b81f75490d31503ec60b7", "allowMenuUrlEdit": true, "private": true, "venueChains": [], "location": {"cc": "IR", "lat": 33.63372, "lng": 46.394768, "labeledLatLngs": [{"label": "display", "lng": 46.394768, "lat": 33.63372}], "state": "Ilam Province", "country": "ایران", "city": "Ilam", "formattedAddress": ["Ilam, Ilam Province", "ایران"]}}, {"referralId": "v-1505910106", "specials": {"items": [], "count": 0}, "categories": [{"name": "Concert Hall", "pluralName": "Concert Halls", "id": "5032792091d4c4b30a586d5c", "icon": {"prefix": "https://ss3.4sqi.net/img/categories_v2/arts_entertainment/musicvenue_", "suffix": ".png"}, "primary": true, "shortName": "Concert Hall"}], "hasPerk": false, "contact": {}, "beenHere": {"lastCheckinExpiredAt": 0}, "verified": false, "stats": {"checkinsCount": 9, "usersCount": 5, "tipCount": 0}, "name": "Ershad Cultural Complex | مجتمع فرهنگی هنری ارشاد", "id": "54ef56ae498e6f1f6d781c21", "allowMenuUrlEdit": true, "venueChains": [], "location": {"cc": "IR", "address": "Namaaz St.", "lat": 33.633801, "labeledLatLngs": [{"label": "display", "lng": 46.395303, "lat": 33.633801}], "lng": 46.395303, "country": "ایران", "city": "Īlām", "formattedAddress": ["Namaaz St.", "Īlām, ایلام", "ایران"], "state": "ایلام"}}, {"referralId": "v-1505910106", "specials": {"items": [], "count": 0}, "categories": [{"name": "Coffee Shop", "pluralName": "Coffee Shops", "id": "4bf58dd8d48988d1e0931735", "icon": {"prefix": "https://ss3.4sqi.net/img/categories_v2/food/coffeeshop_", "suffix": ".png"}, "primary": true, "shortName": "Coffee Shop"}], "hasPerk": false, "contact": {}, "beenHere": {"lastCheckinExpiredAt": 0}, "verified": false, "stats": {"checkinsCount": 1, "usersCount": 1, "tipCount": 0}, "name": "کافه پازل", "id": "588ddecd65be58175b7fff4d", "allowMenuUrlEdit": true, "private": true, "venueChains": [], "location": {"cc": "IR", "lat": 33.636528, "lng": 46.380653, "labeledLatLngs": [{"label": "display", "lng": 46.380653, "lat": 33.636528}], "state": "Ilam Province", "country": "ایران", "city": "Ilam", "formattedAddress": ["Ilam, Ilam Province", "ایران"]}}, {"referralId": "v-1505910106", "specials": {"items": [], "count": 0}, "categories": [{"name": "Chocolate Shop", "pluralName": "Chocolate Shops", "id": "52f2ab2ebcbc57f1066b8b31", "icon": {"prefix": "https://ss3.4sqi.net/img/categories_v2/shops/candystore_", "suffix": ".png"}, "primary": true, "shortName": "Chocolate Shop"}], "hasPerk": false, "contact": {}, "beenHere": {"lastCheckinExpiredAt": 0}, "verified": false, "stats": {"checkinsCount": 1, "usersCount": 1, "tipCount": 0}, "name": "شيريني السا", "id": "58cbc2fea8b759134ec75fdb", "allowMenuUrlEdit": true, "venueChains": [], "location": {"cc": "IR", "lat": 33.635697, "lng": 46.387706, "labeledLatLngs": [{"label": "display", "lng": 46.387706, "lat": 33.635697}], "country": "ایران", "formattedAddress": ["ایران"]}}, {"referralId": "v-1505910106", "specials": {"items": [], "count": 0}, "categories": [{"name": "Shoe Store", "pluralName": "Shoe Stores", "id": "4bf58dd8d48988d107951735", "icon": {"prefix": "https://ss3.4sqi.net/img/categories_v2/shops/apparel_shoestore_", "suffix": ".png"}, "primary": true, "shortName": "Shoes"}], "hasPerk": false, "contact": {}, "beenHere": {"lastCheckinExpiredAt": 0}, "verified": false, "stats": {"checkinsCount": 6, "usersCount": 6, "tipCount": 0}, "name": "Brand Shoes | کفش برند", "id": "53416ab6498ed8f545f25c45", "allowMenuUrlEdit": true, "venueChains": [], "location": {"cc": "IR", "lat": 33.634803771972656, "lng": 46.38762664794922, "labeledLatLngs": [{"label": "display", "lng": 46.38762664794922, "lat": 33.634803771972656}], "state": "ایلام", "country": "ایران", "city": "Īlām", "formattedAddress": ["Īlām, ایلام", "ایران"]}}, {"referralId": "v-1505910106", "specials": {"items": [], "count": 0}, "categories": [{"name": "Other Nightlife", "pluralName": "Other Nightlife", "id": "4bf58dd8d48988d11a941735", "icon": {"prefix": "https://ss3.4sqi.net/img/categories_v2/nightlife/default_", "suffix": ".png"}, "primary": true, "shortName": "Nightlife"}], "hasPerk": false, "contact": {}, "beenHere": {"lastCheckinExpiredAt": 0}, "verified": false, "stats": {"checkinsCount": 9, "usersCount": 8, "tipCount": 0}, "name": "بستنی نعمت | Nemat Ice Cream", "id": "57338732498e6df2e9a0baef", "allowMenuUrlEdit": true, "venueChains": [], "location": {"cc": "IR", "address": "بلوار تعمیرکاری", "lat": 33.63205, "labeledLatLngs": [{"label": "display", "lng": 46.388226, "lat": 33.63205}], "lng": 46.388226, "country": "ایران", "city": "Īlām", "formattedAddress": ["بلوار تعمیرکاری", "Īlām, ایلام", "ایران"], "state": "ایلام"}}, {"referralId": "v-1505910106", "specials": {"items": [], "count": 0}, "categories": [{"name": "Hospital", "pluralName": "Hospitals", "id": "4bf58dd8d48988d196941735", "icon": {"prefix": "https://ss3.4sqi.net/img/categories_v2/building/medical_", "suffix": ".png"}, "primary": true, "shortName": "Hospital"}], "hasPerk": false, "contact": {}, "beenHere": {"lastCheckinExpiredAt": 0}, "verified": false, "stats": {"checkinsCount": 17, "usersCount": 6, "tipCount": 0}, "name": "Imam Hospital | بیمارستان امام خمینی", "id": "53889673498e7a14c99097a1", "venueChains": [], "venueRatingBlacklisted": true, "location": {"cc": "IR", "lat": 33.63220043824651, "lng": 46.3902860247375, "labeledLatLngs": [{"label": "display", "lng": 46.3902860247375, "lat": 33.63220043824651}], "state": "ایلام", "country": "ایران", "city": "Īlām", "formattedAddress": ["Īlām, ایلام", "ایران"]}}, {"referralId": "v-1505910106", "specials": {"items": [], "count": 0}, "categories": [{"name": "Hotel", "pluralName": "Hotels", "id": "4bf58dd8d48988d1fa931735", "icon": {"prefix": "https://ss3.4sqi.net/img/categories_v2/travel/hotel_", "suffix": ".png"}, "primary": true, "shortName": "Hotel"}], "hasPerk": false, "contact": {}, "beenHere": {"lastCheckinExpiredAt": 0}, "verified": false, "stats": {"checkinsCount": 23, "usersCount": 18, "tipCount": 0}, "name": "Dalahoo Hotel | هتل دالاهو", "id": "542a351f498e259fb76de608", "allowMenuUrlEdit": true, "venueChains": [], "location": {"cc": "IR", "address": "Ferdowsi St", "lat": 33.6356276000367, "labeledLatLngs": [{"label": "display", "lng": 46.382137669353774, "lat": 33.6356276000367}], "lng": 46.382137669353774, "country": "ایران", "city": "Īlām", "formattedAddress": ["Ferdowsi St", "Īlām, ایلام", "ایران"], "state": "ایلام"}}, {"referralId": "v-1505910107", "specials": {"items": [], "count": 0}, "categories": [{"name": "Mini Golf", "pluralName": "Mini Golf Courses", "id": "52e81612bcbc57f1066b79eb", "icon": {"prefix": "https://ss3.4sqi.net/img/categories_v2/parks_outdoors/golfcourse_", "suffix": ".png"}, "primary": true, "shortName": "Mini Golf"}], "hasPerk": false, "contact": {}, "beenHere": {"lastCheckinExpiredAt": 0}, "verified": false, "stats": {"checkinsCount": 1, "usersCount": 1, "tipCount": 0}, "name": "takhti varzeshgah", "id": "573f1ac5498e03d46896cd23", "allowMenuUrlEdit": true, "venueChains": [], "location": {"cc": "IR", "address": "کشوری", "lat": 33.634903, "labeledLatLngs": [{"label": "display", "lng": 46.40673, "lat": 33.634903}], "lng": 46.40673, "country": "ایران", "city": "Īlām", "formattedAddress": ["کشوری", "Īlām, ایلام", "ایران"], "state": "ایلام"}}, {"referralId": "v-1505910107", "specials": {"items": [], "count": 0}, "categories": [{"name": "Emergency Room", "pluralName": "Emergency Rooms", "id": "4bf58dd8d48988d194941735", "icon": {"prefix": "https://ss3.4sqi.net/img/categories_v2/building/medical_ems_", "suffix": ".png"}, "primary": true, "shortName": "Emergency Room"}], "hasPerk": false, "contact": {}, "beenHere": {"lastCheckinExpiredAt": 0}, "verified": false, "stats": {"checkinsCount": 1, "usersCount": 1, "tipCount": 0}, "name": "درمانگاه ناجا", "id": "58086abd38faec4dacf86787", "venueChains": [], "venueRatingBlacklisted": true, "location": {"cc": "IR", "lat": 33.634416, "lng": 46.409693, "labeledLatLngs": [{"label": "display", "lng": 46.409693, "lat": 33.634416}], "country": "ایران", "formattedAddress": ["ایران"]}}, {"referralId": "v-1505910107", "specials": {"items": [], "count": 0}, "categories": [{"name": "Field", "pluralName": "Fields", "id": "4bf58dd8d48988d15f941735", "icon": {"prefix": "https://ss3.4sqi.net/img/categories_v2/parks_outdoors/field_", "suffix": ".png"}, "primary": true, "shortName": "Field"}], "hasPerk": false, "contact": {}, "beenHere": {"lastCheckinExpiredAt": 0}, "verified": false, "stats": {"checkinsCount": 10, "usersCount": 9, "tipCount": 0}, "name": "Madar square | میدان مادر", "id": "55b3e7a5498e570056c80494", "venueChains": [], "venueRatingBlacklisted": true, "location": {"cc": "IR", "address": "Ilam", "lat": 33.63191083303864, "labeledLatLngs": [{"label": "display", "lng": 46.403566325973785, "lat": 33.63191083303864}], "lng": 46.403566325973785, "country": "ایران", "city": "Īlām", "formattedAddress": ["Ilam", "Īlām, ایلام", "ایران"], "state": "ایلام"}}, {"referralId": "v-1505910107", "specials": {"items": [], "count": 0}, "categories": [{"name": "Hospital", "pluralName": "Hospitals", "id": "4bf58dd8d48988d196941735", "icon": {"prefix": "https://ss3.4sqi.net/img/categories_v2/building/medical_", "suffix": ".png"}, "primary": true, "shortName": "Hospital"}], "hasPerk": false, "contact": {}, "beenHere": {"lastCheckinExpiredAt": 0}, "verified": false, "stats": {"checkinsCount": 3, "usersCount": 3, "tipCount": 0}, "name": "بيمارستان مصطفي خميني", "id": "568b79a6498ee5f5246dd2d0", "venueChains": [], "venueRatingBlacklisted": true, "location": {"cc": "IR", "lat": 33.634312, "lng": 46.398795, "labeledLatLngs": [{"label": "display", "lng": 46.398795, "lat": 33.634312}], "country": "ایران", "formattedAddress": ["ایران"]}}, {"referralId": "v-1505910107", "specials": {"items": [], "count": 0}, "categories": [{"name": "Hotel", "pluralName": "Hotels", "id": "4bf58dd8d48988d1fa931735", "icon": {"prefix": "https://ss3.4sqi.net/img/categories_v2/travel/hotel_", "suffix": ".png"}, "primary": true, "shortName": "Hotel"}], "hasPerk": false, "contact": {}, "beenHere": {"lastCheckinExpiredAt": 0}, "verified": false, "stats": {"checkinsCount": 11, "usersCount": 10, "tipCount": 0}, "name": "هتل خلاش ايلام", "id": "582af6ad26d44f0d2242aa3d", "allowMenuUrlEdit": true, "venueChains": [], "location": {"lng": 46.409664, "address": "ايلام", "lat": 33.636365, "labeledLatLngs": [{"label": "display", "lng": 46.409664, "lat": 33.636365}], "cc": "IR", "country": "ایران", "state": "ایلام", "formattedAddress": ["ايلام (خيابان كشوري)", "ايلام, ایلام", "ایران"], "crossStreet": "خيابان كشوري"}}, {"referralId": "v-1505910107", "specials": {"items": [], "count": 0}, "categories": [{"name": "Mountain", "pluralName": "Mountains", "id": "4eb1d4d54b900d56c88a45fc", "icon": {"prefix": "https://ss3.4sqi.net/img/categories_v2/parks_outdoors/mountain_", "suffix": ".png"}, "primary": true, "shortName": "Mountain"}], "hasPerk": false, "contact": {}, "beenHere": {"lastCheckinExpiredAt": 0}, "verified": false, "stats": {"checkinsCount": 2, "usersCount": 2, "tipCount": 0}, "name": "قلاقيران", "id": "57a10849498e52e9c91ee2c4", "venueChains": [], "location": {"cc": "IR", "lat": 33.636411, "lng": 46.40977, "labeledLatLngs": [{"label": "display", "lng": 46.40977, "lat": 33.636411}], "country": "ایران", "formattedAddress": ["ایران"]}}, {"referralId": "v-1505910107", "specials": {"items": [], "count": 0}, "categories": [{"name": "Sporting Goods Shop", "pluralName": "Sporting Goods Shops", "id": "4bf58dd8d48988d1f2941735", "icon": {"prefix": "https://ss3.4sqi.net/img/categories_v2/shops/sports_outdoors_", "suffix": ".png"}, "primary": true, "shortName": "Sporting Goods"}], "hasPerk": false, "contact": {}, "beenHere": {"lastCheckinExpiredAt": 0}, "verified": false, "stats": {"checkinsCount": 19, "usersCount": 2, "tipCount": 0}, "name": "باشگاه بیلیارد بردیا | Bardia Billiard", "id": "55aa9456498e4ade92c1fc4c", "allowMenuUrlEdit": true, "venueChains": [], "location": {"cc": "IR", "address": "کشوری", "lat": 33.63626923099484, "labeledLatLngs": [{"label": "display", "lng": 46.408064245091694, "lat": 33.63626923099484}], "lng": 46.408064245091694, "country": "ایران", "city": "Īlām", "formattedAddress": ["کشوری", "Īlām, ایلام", "ایران"], "state": "ایلام"}}, {"referralId": "v-1505910107", "specials": {"items": [], "count": 0}, "categories": [{"name": "Intersection", "pluralName": "Intersections", "id": "52f2ab2ebcbc57f1066b8b4c", "icon": {"prefix": "https://ss3.4sqi.net/img/categories_v2/travel/default_", "suffix": ".png"}, "primary": true, "shortName": "Intersection"}], "hasPerk": false, "contact": {}, "beenHere": {"lastCheckinExpiredAt": 0}, "verified": false, "stats": {"checkinsCount": 30, "usersCount": 14, "tipCount": 0}, "name": "Saadi Crossroad | چهارراه سعدی", "id": "5385f351498e42e068d750a1", "venueChains": [], "location": {"cc": "IR", "address": "Saadi Xrd.", "lat": 33.63433800244103, "labeledLatLngs": [{"label": "display", "lng": 46.4051187417576, "lat": 33.63433800244103}], "lng": 46.4051187417576, "country": "ایران", "city": "Īlām", "formattedAddress": ["Saadi Xrd.", "Īlām, ایلام", "ایران"], "state": "ایلام"}}, {"referralId": "v-1505910107", "specials": {"items": [], "count": 0}, "categories": [{"name": "Fast Food Restaurant", "pluralName": "Fast Food Restaurants", "id": "4bf58dd8d48988d16e941735", "icon": {"prefix": "https://ss3.4sqi.net/img/categories_v2/food/fastfood_", "suffix": ".png"}, "primary": true, "shortName": "Fast Food"}], "hasPerk": false, "contact": {}, "beenHere": {"lastCheckinExpiredAt": 0}, "verified": false, "stats": {"checkinsCount": 3, "usersCount": 3, "tipCount": 0}, "name": "اغذيه دانيال ( عمو حسن )", "id": "57e2c029498e6a031aea0558", "allowMenuUrlEdit": true, "venueChains": [], "location": {"cc": "IR", "lat": 33.6356, "lng": 46.408907, "labeledLatLngs": [{"label": "display", "lng": 46.408907, "lat": 33.6356}], "country": "ایران", "formattedAddress": ["ایران"]}}, {"referralId": "v-1505910107", "specials": {"items": [], "count": 0}, "categories": [{"name": "Shopping Mall", "pluralName": "Shopping Malls", "id": "4bf58dd8d48988d1fd941735", "icon": {"prefix": "https://ss3.4sqi.net/img/categories_v2/shops/mall_", "suffix": ".png"}, "primary": true, "shortName": "Mall"}], "hasPerk": false, "contact": {}, "beenHere": {"lastCheckinExpiredAt": 0}, "verified": false, "stats": {"checkinsCount": 30, "usersCount": 23, "tipCount": 0}, "name": "Aftab Shopping Center | مركز خريد و تفريحی آفتاب", "id": "51d7b88a498e3dda5a30f471", "venueChains": [], "location": {"cc": "IR", "address": "Azadi St", "lat": 33.634578850059626, "labeledLatLngs": [{"label": "display", "lng": 46.40960273082848, "lat": 33.634578850059626}], "lng": 46.40960273082848, "country": "ایران", "city": "Īlām", "formattedAddress": ["Azadi St", "Īlām, ایلام", "ایران"], "state": "ایلام"}}, {"referralId": "v-1505910107", "specials": {"items": [], "count": 0}, "categories": [{"name": "Field", "pluralName": "Fields", "id": "4bf58dd8d48988d15f941735", "icon": {"prefix": "https://ss3.4sqi.net/img/categories_v2/parks_outdoors/field_", "suffix": ".png"}, "primary": true, "shortName": "Field"}], "hasPerk": false, "contact": {}, "beenHere": {"lastCheckinExpiredAt": 0}, "verified": false, "stats": {"checkinsCount": 22, "usersCount": 17, "tipCount": 0}, "name": "Azadi Blvr | بلوار آزادی", "id": "55b3ea5c498e461b435c9d04", "venueChains": [], "venueRatingBlacklisted": true, "location": {"state": "ایلام", "lng": 46.40859603881836, "address": "Ilam", "lat": 33.63194274902344, "labeledLatLngs": [{"label": "display", "lng": 46.40859603881836, "lat": 33.63194274902344}], "cc": "IR", "country": "ایران", "city": "Īlām", "formattedAddress": ["Ilam (Ilam)", "Īlām, ایلام", "ایران"], "crossStreet": "Ilam"}}, {"referralId": "v-1505910107", "specials": {"items": [], "count": 0}, "categories": [{"name": "Café", "pluralName": "Cafés", "id": "4bf58dd8d48988d16d941735", "icon": {"prefix": "https://ss3.4sqi.net/img/categories_v2/food/cafe_", "suffix": ".png"}, "primary": true, "shortName": "Café"}], "hasPerk": false, "contact": {}, "beenHere": {"lastCheckinExpiredAt": 0}, "verified": false, "stats": {"checkinsCount": 12, "usersCount": 7, "tipCount": 0}, "name": "cafe honar | کافه هنر", "id": "57bf021a498ec0807baac446", "allowMenuUrlEdit": true, "venueChains": [], "location": {"cc": "IR", "address": "بلوار آزادی - مجتمع آفتاب", "lat": 33.62957, "labeledLatLngs": [{"label": "display", "lng": 46.408792, "lat": 33.62957}], "lng": 46.408792, "country": "ایران", "city": "Īlām", "formattedAddress": ["بلوار آزادی - مجتمع آفتاب", "Īlām, ایلام", "ایران"], "state": "ایلام"}}, {"referralId": "v-1505910107", "specials": {"items": [], "count": 0}, "categories": [{"name": "Restaurant", "pluralName": "Restaurants", "id": "4bf58dd8d48988d1c4941735", "icon": {"prefix": "https://ss3.4sqi.net/img/categories_v2/food/default_", "suffix": ".png"}, "primary": true, "shortName": "Restaurant"}], "hasPerk": false, "contact": {}, "beenHere": {"lastCheckinExpiredAt": 0}, "verified": false, "stats": {"checkinsCount": 14, "usersCount": 12, "tipCount": 0}, "name": "Khalash restaurant | رستوران خلاش", "id": "57851f4d498e0c74be906dab", "allowMenuUrlEdit": true, "venueChains": [], "location": {"cc": "IR", "address": "ایلام خیابان آیت الله حیدری", "lat": 33.636739, "labeledLatLngs": [{"label": "display", "lng": 46.411753, "lat": 33.636739}], "lng": 46.411753, "country": "ایران", "city": "Īlām", "formattedAddress": ["ایلام خیابان آیت الله حیدری", "Īlām, ایلام", "ایران"], "state": "ایلام"}}, {"referralId": "v-1505910107", "specials": {"items": [], "count": 0}, "categories": [{"name": "Doctor's Office", "pluralName": "Doctor's Offices", "id": "4bf58dd8d48988d177941735", "icon": {"prefix": "https://ss3.4sqi.net/img/categories_v2/building/medical_doctorsoffice_", "suffix": ".png"}, "primary": true, "shortName": "Doctor's Office"}], "hasPerk": false, "contact": {}, "beenHere": {"lastCheckinExpiredAt": 0}, "verified": false, "stats": {"checkinsCount": 2, "usersCount": 1, "tipCount": 0}, "name": "مطب دکتر فلاحی | Doctor Falahi's Office", "id": "57695f2b498e3f4dd8200508", "allowMenuUrlEdit": true, "venueChains": [], "venueRatingBlacklisted": true, "location": {"cc": "IR", "address": "ساختمان پزشکان پشت بیمارستان قائم", "lat": 33.635092, "labeledLatLngs": [{"label": "display", "lng": 46.425196, "lat": 33.635092}], "lng": 46.425196, "country": "ایران", "city": "Īlām", "formattedAddress": ["ساختمان پزشکان پشت بیمارستان قائم", "Īlām, ایلام", "ایران"], "state": "ایلام"}}, {"referralId": "v-1505910107", "specials": {"items": [], "count": 0}, "categories": [{"name": "Carpet Store", "pluralName": "Carpet Stores", "id": "52f2ab2ebcbc57f1066b8b2a", "icon": {"prefix": "https://ss3.4sqi.net/img/categories_v2/shops/default_", "suffix": ".png"}, "primary": true, "shortName": "Carpet Store"}], "hasPerk": false, "contact": {}, "beenHere": {"lastCheckinExpiredAt": 0}, "verified": false, "stats": {"checkinsCount": 1, "usersCount": 1, "tipCount": 0}, "name": "istikbal center of ilam", "id": "567fd2b1498ea93422753f97", "allowMenuUrlEdit": true, "venueChains": [], "location": {"cc": "IR", "lat": 33.636292, "lng": 46.425864, "labeledLatLngs": [{"label": "display", "lng": 46.425864, "lat": 33.636292}], "state": "ایلام", "country": "ایران", "city": "Īlām", "formattedAddress": ["Īlām, ایلام", "ایران"]}}, {"referralId": "v-1505910107", "specials": {"items": [], "count": 0}, "categories": [{"name": "Plaza", "pluralName": "Plazas", "id": "4bf58dd8d48988d164941735", "icon": {"prefix": "https://ss3.4sqi.net/img/categories_v2/parks_outdoors/plaza_", "suffix": ".png"}, "primary": true, "shortName": "Plaza"}], "hasPerk": false, "contact": {}, "beenHere": {"lastCheckinExpiredAt": 0}, "verified": false, "stats": {"checkinsCount": 19, "usersCount": 11, "tipCount": 0}, "name": "Bist-o Do Bahman Square | فلکه ۲۲ بهمن", "id": "5292056c11d2bcc69f875d63", "venueChains": [], "location": {"cc": "IR", "lat": 33.635639969588496, "lng": 46.42502307348207, "labeledLatLngs": [{"label": "display", "lng": 46.42502307348207, "lat": 33.635639969588496}], "state": "ایلام", "country": "ایران", "city": "Īlām", "formattedAddress": ["Īlām, ایلام", "ایران"]}}, {"referralId": "v-1505910107", "specials": {"items": [], "count": 0}, "categories": [{"name": "Building", "pluralName": "Buildings", "id": "4bf58dd8d48988d130941735", "icon": {"prefix": "https://ss3.4sqi.net/img/categories_v2/building/default_", "suffix": ".png"}, "primary": true, "shortName": "Building"}], "hasPerk": false, "contact": {}, "beenHere": {"lastCheckinExpiredAt": 0}, "verified": false, "stats": {"checkinsCount": 2, "usersCount": 2, "tipCount": 0}, "name": "ساختمان پزشکان آسیا", "id": "5643530d498eecf2bb3e3d50", "venueChains": [], "venueRatingBlacklisted": true, "location": {"cc": "IR", "lat": 33.634782, "lng": 46.42518, "labeledLatLngs": [{"label": "display", "lng": 46.42518, "lat": 33.634782}], "country": "ایران", "formattedAddress": ["ایران"]}}, {"referralId": "v-1505910107", "specials": {"items": [], "count": 0}, "categories": [{"name": "Carpet Store", "pluralName": "Carpet Stores", "id": "52f2ab2ebcbc57f1066b8b2a", "icon": {"prefix": "https://ss3.4sqi.net/img/categories_v2/shops/default_", "suffix": ".png"}, "primary": true, "shortName": "Carpet Store"}], "hasPerk": false, "contact": {}, "beenHere": {"lastCheckinExpiredAt": 0}, "verified": false, "stats": {"checkinsCount": 2, "usersCount": 1, "tipCount": 0}, "name": "تالار بانك صادرات شعبه ى وليعصر ايلام", "id": "589975a184c4ed1ae16d5242", "allowMenuUrlEdit": true, "venueChains": [], "location": {"cc": "IR", "lat": 33.634044, "lng": 46.419884, "labeledLatLngs": [{"label": "display", "lng": 46.419884, "lat": 33.634044}], "country": "ایران", "state": "ایلام", "formattedAddress": ["ايلام, ایلام", "ایران"]}}, {"referralId": "v-1505910107", "specials": {"items": [], "count": 0}, "categories": [{"name": "Government Building", "pluralName": "Government Buildings", "id": "4bf58dd8d48988d126941735", "icon": {"prefix": "https://ss3.4sqi.net/img/categories_v2/building/government_", "suffix": ".png"}, "primary": true, "shortName": "Government"}], "hasPerk": false, "contact": {}, "beenHere": {"lastCheckinExpiredAt": 0}, "verified": false, "stats": {"checkinsCount": 4, "usersCount": 3, "tipCount": 0}, "name": "فرمانداری استان ایلام", "id": "5721d1a3498eb4a2672e70d8", "venueChains": [], "venueRatingBlacklisted": true, "location": {"cc": "IR", "lat": 33.63675088478238, "lng": 46.423535717473754, "labeledLatLngs": [{"label": "display", "lng": 46.423535717473754, "lat": 33.63675088478238}], "country": "ایران", "formattedAddress": ["ایران"]}}, {"referralId": "v-1505910107", "specials": {"items": [], "count": 0}, "categories": [{"name": "Restaurant", "pluralName": "Restaurants", "id": "4bf58dd8d48988d1c4941735", "icon": {"prefix": "https://ss3.4sqi.net/img/categories_v2/food/default_", "suffix": ".png"}, "primary": true, "shortName": "Restaurant"}], "hasPerk": false, "contact": {}, "beenHere": {"lastCheckinExpiredAt": 0}, "verified": false, "stats": {"checkinsCount": 12, "usersCount": 9, "tipCount": 0}, "name": "Dalahoo Restaurant | رستوران هتل دالاهو", "id": "52918290498ea4b753da6ba1", "allowMenuUrlEdit": true, "venueChains": [], "location": {"cc": "IR", "address": "Dalahoo Hotel", "lat": 33.63614294666525, "labeledLatLngs": [{"label": "display", "lng": 46.42720961515094, "lat": 33.63614294666525}], "lng": 46.42720961515094, "country": "ایران", "city": "Īlām", "formattedAddress": ["Dalahoo Hotel", "Īlām, ایلام", "ایران"], "state": "ایلام"}}, {"referralId": "v-1505910107", "specials": {"items": [], "count": 0}, "categories": [{"name": "Hospital", "pluralName": "Hospitals", "id": "4bf58dd8d48988d196941735", "icon": {"prefix": "https://ss3.4sqi.net/img/categories_v2/building/medical_", "suffix": ".png"}, "primary": true, "shortName": "Hospital"}], "hasPerk": false, "contact": {}, "beenHere": {"lastCheckinExpiredAt": 0}, "verified": false, "stats": {"checkinsCount": 13, "usersCount": 7, "tipCount": 0}, "name": "Ghaem Hospital | بيمارستان قائم", "id": "51d79e1d498e317106882bb1", "venueChains": [], "venueRatingBlacklisted": true, "location": {"cc": "IR", "address": "Seyyed Alshohada Ave.", "lat": 33.63409, "labeledLatLngs": [{"label": "display", "lng": 46.424679, "lat": 33.63409}], "lng": 46.424679, "country": "ایران", "city": "Īlām", "formattedAddress": ["Seyyed Alshohada Ave.", "Īlām, ایلام", "ایران"], "state": "ایلام"}}, {"referralId": "v-1505910107", "specials": {"items": [], "count": 0}, "categories": [{"name": "Bank", "pluralName": "Banks", "id": "4bf58dd8d48988d10a951735", "icon": {"prefix": "https://ss3.4sqi.net/img/categories_v2/shops/financial_", "suffix": ".png"}, "primary": true, "shortName": "Bank"}], "hasPerk": false, "contact": {}, "beenHere": {"lastCheckinExpiredAt": 0}, "verified": false, "stats": {"checkinsCount": 2, "usersCount": 2, "tipCount": 0}, "name": "بانک ملی شعبه مرکزی", "id": "584e6873126ae87dbdca2b36", "allowMenuUrlEdit": true, "venueChains": [], "location": {"cc": "IR", "address": "خیابان سعدی شرقی جنب فرمانداری کل", "lat": 33.636785, "labeledLatLngs": [{"label": "display", "lng": 46.425758, "lat": 33.636785}], "lng": 46.425758, "country": "ایران", "city": "Īlām", "formattedAddress": ["خیابان سعدی شرقی جنب فرمانداری کل", "Īlām, ایلام", "ایران"], "state": "ایلام"}}, {"referralId": "v-1505910107", "specials": {"items": [], "count": 0}, "categories": [{"name": "Sports Club", "pluralName": "Sports Clubs", "id": "52e81612bcbc57f1066b7a2e", "icon": {"prefix": "https://ss3.4sqi.net/img/categories_v2/shops/sports_outdoors_", "suffix": ".png"}, "primary": true, "shortName": "Sports Club"}], "hasPerk": false, "contact": {}, "beenHere": {"lastCheckinExpiredAt": 0}, "verified": false, "stats": {"checkinsCount": 9, "usersCount": 4, "tipCount": 0}, "name": "sobhan Billiard | باشگاه بیلیارد سبحان", "id": "589d81e11470b07f6580c62b", "allowMenuUrlEdit": true, "venueChains": [], "location": {"cc": "IR", "address": "میدان مادر. ضلع شمالی. جنب فروشگاه تعطیلات", "lat": 33.630104, "labeledLatLngs": [{"label": "display", "lng": 46.4156, "lat": 33.630104}], "lng": 46.4156, "country": "ایران", "city": "Īlām", "formattedAddress": ["میدان مادر. ضلع شمالی. جنب فروشگاه تعطیلات", "Īlām, ایلام", "ایران"], "state": "ایلام"}}, {"referralId": "v-1505910107", "specials": {"items": [], "count": 0}, "categories": [{"name": "Mountain", "pluralName": "Mountains", "id": "4eb1d4d54b900d56c88a45fc", "icon": {"prefix": "https://ss3.4sqi.net/img/categories_v2/parks_outdoors/mountain_", "suffix": ".png"}, "primary": true, "shortName": "Mountain"}], "hasPerk": false, "contact": {}, "beenHere": {"lastCheckinExpiredAt": 0}, "verified": false, "stats": {"checkinsCount": 93, "usersCount": 70, "tipCount": 2}, "name": "بام ايلام", "id": "568414f7498e7e260c0296cf", "venueChains": [], "location": {"cc": "IR", "lat": 33.63729969592878, "lng": 46.42587703315853, "labeledLatLngs": [{"label": "display", "lng": 46.42587703315853, "lat": 33.63729969592878}], "country": "ایران", "formattedAddress": ["ایران"]}}, {"referralId": "v-1505910107", "specials": {"items": [], "count": 0}, "categories": [{"name": "Burger Joint", "pluralName": "Burger Joints", "id": "4bf58dd8d48988d16c941735", "icon": {"prefix": "https://ss3.4sqi.net/img/categories_v2/food/burger_", "suffix": ".png"}, "primary": true, "shortName": "Burgers"}], "hasPerk": false, "contact": {}, "beenHere": {"lastCheckinExpiredAt": 0}, "verified": false, "stats": {"checkinsCount": 14, "usersCount": 6, "tipCount": 0}, "name": "گص عبدالهی", "id": "57dcfd35498ee91bea9840ea", "allowMenuUrlEdit": true, "venueChains": [], "location": {"cc": "IR", "lat": 33.633684, "lng": 46.425657, "labeledLatLngs": [{"label": "display", "lng": 46.425657, "lat": 33.633684}], "country": "ایران", "formattedAddress": ["ایران"]}}, {"referralId": "v-1505910107", "specials": {"items": [], "count": 0}, "categories": [{"name": "City", "pluralName": "Cities", "id": "50aa9e094b90af0d42d5de0d", "icon": {"prefix": "https://ss3.4sqi.net/img/categories_v2/parks_outdoors/neighborhood_", "suffix": ".png"}, "primary": true, "shortName": "City"}], "hasPerk": false, "contact": {}, "beenHere": {"lastCheckinExpiredAt": 0}, "verified": false, "stats": {"checkinsCount": 9, "usersCount": 9, "tipCount": 0}, "name": "ایلام | Ilam", "id": "584d745d6b0cdb128cc15e56", "venueChains": [], "venueRatingBlacklisted": true, "location": {"cc": "IR", "lat": 33.636513, "lng": 46.42794, "labeledLatLngs": [{"label": "display", "lng": 46.42794, "lat": 33.636513}], "country": "ایران", "state": "Ilam Province", "formattedAddress": ["Ilam Province", "ایران"]}}, {"referralId": "v-1505910108", "specials": {"items": [], "count": 0}, "categories": [{"name": "Pizza Place", "pluralName": "Pizza Places", "id": "4bf58dd8d48988d1ca941735", "icon": {"prefix": "https://ss3.4sqi.net/img/categories_v2/food/pizza_", "suffix": ".png"}, "primary": true, "shortName": "Pizza"}], "hasPerk": false, "contact": {}, "beenHere": {"lastCheckinExpiredAt": 0}, "verified": false, "stats": {"checkinsCount": 12, "usersCount": 12, "tipCount": 0}, "name": "Kaakh Pizza | پیتزا کاخ", "id": "53381e5d498edec4cbf9cf02", "allowMenuUrlEdit": true, "venueChains": [], "location": {"cc": "IR", "address": "Imam Ali Blvd", "lat": 33.63360229464234, "labeledLatLngs": [{"label": "display", "lng": 46.43684375196271, "lat": 33.63360229464234}], "lng": 46.43684375196271, "country": "ایران", "city": "Īlām", "formattedAddress": ["Imam Ali Blvd", "Īlām, ایلام", "ایران"], "state": "ایلام"}}, {"referralId": "v-1505910108", "specials": {"items": [], "count": 0}, "categories": [{"name": "Fried Chicken Joint", "pluralName": "Fried Chicken Joints", "id": "4d4ae6fc7a7b7dea34424761", "icon": {"prefix": "https://ss3.4sqi.net/img/categories_v2/food/friedchicken_", "suffix": ".png"}, "primary": true, "shortName": "Fried Chicken"}], "hasPerk": false, "contact": {}, "beenHere": {"lastCheckinExpiredAt": 0}, "verified": false, "stats": {"checkinsCount": 5, "usersCount": 5, "tipCount": 0}, "name": "Farid kentacki | فرید کنتاکی", "id": "564dfdfe498eba6eb1e88382", "allowMenuUrlEdit": true, "venueChains": [], "location": {"cc": "IR", "address": "میدان امام خمینی", "lat": 33.636259734390144, "labeledLatLngs": [{"label": "display", "lng": 46.43312220877133, "lat": 33.636259734390144}], "lng": 46.43312220877133, "country": "ایران", "city": "Īlām", "formattedAddress": ["میدان امام خمینی", "Īlām, ایلام", "ایران"], "state": "ایلام"}}, {"referralId": "v-1505910108", "specials": {"items": [], "count": 0}, "categories": [{"name": "Shopping Plaza", "pluralName": "Shopping Plazas", "id": "5744ccdfe4b0c0459246b4dc", "icon": {"prefix": "https://ss3.4sqi.net/img/categories_v2/shops/mall_", "suffix": ".png"}, "primary": true, "shortName": "Shopping Plaza"}], "hasPerk": false, "contact": {}, "beenHere": {"lastCheckinExpiredAt": 0}, "verified": false, "stats": {"checkinsCount": 1, "usersCount": 1, "tipCount": 0}, "name": "sun complex", "id": "58d7e528d8b0ed65a0821bea", "venueChains": [], "location": {"cc": "IR", "address": "خيابان آزادي", "lat": 33.629649, "labeledLatLngs": [{"label": "display", "lng": 46.40941, "lat": 33.629649}], "lng": 46.40941, "country": "ایران", "formattedAddress": ["خيابان آزادي", "ایران"]}}, {"referralId": "v-1505910108", "specials": {"items": [], "count": 0}, "categories": [{"name": "Fried Chicken Joint", "pluralName": "Fried Chicken Joints", "id": "4d4ae6fc7a7b7dea34424761", "icon": {"prefix": "https://ss3.4sqi.net/img/categories_v2/food/friedchicken_", "suffix": ".png"}, "primary": true, "shortName": "Fried Chicken"}], "hasPerk": false, "contact": {}, "beenHere": {"lastCheckinExpiredAt": 0}, "verified": false, "stats": {"checkinsCount": 19, "usersCount": 9, "tipCount": 0}, "name": "كنتاكي فريد | Farid Kentacki", "id": "56f2cdf2cd10ef59551cb914", "allowMenuUrlEdit": true, "venueChains": [], "location": {"cc": "IR", "lat": 33.635909, "lng": 46.431417, "labeledLatLngs": [{"label": "display", "lng": 46.431417, "lat": 33.635909}], "country": "ایران", "formattedAddress": ["ایران"]}}, {"referralId": "v-1505910109", "specials": {"items": [], "count": 0}, "categories": [{"name": "Sports Club", "pluralName": "Sports Clubs", "id": "52e81612bcbc57f1066b7a2e", "icon": {"prefix": "https://ss3.4sqi.net/img/categories_v2/shops/sports_outdoors_", "suffix": ".png"}, "primary": true, "shortName": "Sports Club"}], "hasPerk": false, "contact": {}, "beenHere": {"lastCheckinExpiredAt": 0}, "verified": false, "stats": {"checkinsCount": 2, "usersCount": 1, "tipCount": 0}, "name": "باشگاه بدنسازی تنومند  |  Tanomad body building", "id": "587f46405a58697f2cca2634", "allowMenuUrlEdit": true, "venueChains": [], "location": {"cc": "IR", "lat": 33.640539, "lng": 46.387117, "labeledLatLngs": [{"label": "display", "lng": 46.387117, "lat": 33.640539}], "state": "ایلام", "country": "ایران", "city": "Īlām", "formattedAddress": ["Īlām, ایلام", "ایران"]}}, {"referralId": "v-1505910109", "specials": {"items": [], "count": 0}, "categories": [{"name": "Pizza Place", "pluralName": "Pizza Places", "id": "4bf58dd8d48988d1ca941735", "icon": {"prefix": "https://ss3.4sqi.net/img/categories_v2/food/pizza_", "suffix": ".png"}, "primary": true, "shortName": "Pizza"}], "hasPerk": false, "contact": {"formattedPhone": "+98 84 1222 3959", "phone": "+988412223959"}, "beenHere": {"lastCheckinExpiredAt": 0}, "verified": false, "stats": {"checkinsCount": 12, "usersCount": 7, "tipCount": 2}, "name": "Sib Pizza | پیتزا سیب", "id": "521defcf11d29e744e287522", "allowMenuUrlEdit": true, "venueChains": [], "location": {"cc": "IR", "address": "Moallem Sq", "lat": 33.63948525271093, "labeledLatLngs": [{"label": "display", "lng": 46.39679442556784, "lat": 33.63948525271093}], "lng": 46.39679442556784, "country": "ایران", "city": "Īlām", "formattedAddress": ["Moallem Sq", "Īlām, ایلام", "ایران"], "state": "ایلام"}}, {"referralId": "v-1505910109", "specials": {"items": [], "count": 0}, "categories": [{"name": "Club House", "pluralName": "Club Houses", "id": "52e81612bcbc57f1066b7a35", "icon": {"prefix": "https://ss3.4sqi.net/img/categories_v2/building/default_", "suffix": ".png"}, "primary": true, "shortName": "Club"}], "hasPerk": false, "contact": {}, "beenHere": {"lastCheckinExpiredAt": 0}, "verified": false, "stats": {"checkinsCount": 4, "usersCount": 3, "tipCount": 0}, "name": "خیابان دانشجو", "id": "573f2d5b498ec3679aca71a4", "venueChains": [], "venueRatingBlacklisted": true, "location": {"cc": "IR", "address": "بلوار دانشجو", "lat": 33.642597, "labeledLatLngs": [{"label": "display", "lng": 46.3928, "lat": 33.642597}], "lng": 46.3928, "country": "ایران", "city": "Īlām", "formattedAddress": ["بلوار دانشجو", "Īlām, ایلام", "ایران"], "state": "ایلام"}}, {"referralId": "v-1505910109", "specials": {"items": [], "count": 0}, "categories": [{"name": "Moving Target", "pluralName": "Moving Targets", "id": "4f2a23984b9023bd5841ed2c", "icon": {"prefix": "https://ss3.4sqi.net/img/categories_v2/travel/movingtarget_", "suffix": ".png"}, "primary": true, "shortName": "Moving Target"}], "hasPerk": false, "contact": {}, "beenHere": {"lastCheckinExpiredAt": 0}, "verified": false, "stats": {"checkinsCount": 2, "usersCount": 1, "tipCount": 0}, "name": "بلوار نماز", "id": "573f2e8a498e85c17890708f", "venueChains": [], "venueRatingBlacklisted": true, "location": {"cc": "IR", "address": "بلوار نماز", "lat": 33.64290655529505, "labeledLatLngs": [{"label": "display", "lng": 46.39175831103049, "lat": 33.64290655529505}], "lng": 46.39175831103049, "country": "ایران", "city": "Īlām", "formattedAddress": ["بلوار نماز", "Īlām, ایلام", "ایران"], "state": "ایلام"}}, {"referralId": "v-1505910109", "specials": {"items": [], "count": 0}, "categories": [{"name": "Breakfast Spot", "pluralName": "Breakfast Spots", "id": "4bf58dd8d48988d143941735", "icon": {"prefix": "https://ss3.4sqi.net/img/categories_v2/food/breakfast_", "suffix": ".png"}, "primary": true, "shortName": "Breakfast"}], "hasPerk": false, "contact": {}, "beenHere": {"lastCheckinExpiredAt": 0}, "verified": false, "stats": {"checkinsCount": 10, "usersCount": 3, "tipCount": 0}, "name": "Tak Donat | تک دونات", "id": "5814b93238fa3f16864e654e", "allowMenuUrlEdit": true, "venueChains": [], "location": {"cc": "IR", "address": "بلوار دانشجو", "lat": 33.638621, "labeledLatLngs": [{"label": "display", "lng": 46.388415, "lat": 33.638621}], "lng": 46.388415, "country": "ایران", "city": "Īlām", "formattedAddress": ["بلوار دانشجو", "Īlām, ایلام", "ایران"], "state": "ایلام"}}, {"referralId": "v-1505910109", "specials": {"items": [], "count": 0}, "categories": [{"name": "Pizza Place", "pluralName": "Pizza Places", "id": "4bf58dd8d48988d1ca941735", "icon": {"prefix": "https://ss3.4sqi.net/img/categories_v2/food/pizza_", "suffix": ".png"}, "primary": true, "shortName": "Pizza"}], "hasPerk": false, "contact": {}, "beenHere": {"lastCheckinExpiredAt": 0}, "verified": false, "stats": {"checkinsCount": 4, "usersCount": 3, "tipCount": 0}, "name": "Veshna Pizza | پیتزا وشنا", "id": "54ccf7ac498eeb3975de3d92", "allowMenuUrlEdit": true, "venueChains": [], "location": {"cc": "IR", "address": "Danesh Blvd.", "lat": 33.636974, "labeledLatLngs": [{"label": "display", "lng": 46.380484, "lat": 33.636974}], "lng": 46.380484, "country": "ایران", "city": "Īlām", "formattedAddress": ["Danesh Blvd.", "Īlām, ایلام", "ایران"], "state": "ایلام"}}, {"referralId": "v-1505910109", "specials": {"items": [], "count": 0}, "categories": [{"name": "Diner", "pluralName": "Diners", "id": "4bf58dd8d48988d147941735", "icon": {"prefix": "https://ss3.4sqi.net/img/categories_v2/food/diner_", "suffix": ".png"}, "primary": true, "shortName": "Diner"}], "hasPerk": false, "contact": {}, "beenHere": {"lastCheckinExpiredAt": 0}, "verified": false, "stats": {"checkinsCount": 2, "usersCount": 2, "tipCount": 1}, "name": "رستوران پدیده", "id": "58d3ebf7102f474889c95b6c", "allowMenuUrlEdit": true, "venueChains": [], "location": {"state": "ایلام", "lng": 46.394646, "address": "میدان دانشجو", "lat": 33.638687, "labeledLatLngs": [{"label": "display", "lng": 46.394646, "lat": 33.638687}], "cc": "IR", "country": "ایران", "city": "Īlām", "formattedAddress": ["میدان دانشجو (خیابان مخابرات)", "Īlām, ایلام", "ایران"], "crossStreet": "خیابان مخابرات"}}, {"referralId": "v-1505910109", "specials": {"items": [], "count": 0}, "categories": [{"name": "Pool Hall", "pluralName": "Pool Halls", "id": "4bf58dd8d48988d1e3931735", "icon": {"prefix": "https://ss3.4sqi.net/img/categories_v2/arts_entertainment/billiards_", "suffix": ".png"}, "primary": true, "shortName": "Billiards"}], "hasPerk": false, "contact": {}, "beenHere": {"lastCheckinExpiredAt": 0}, "verified": false, "stats": {"checkinsCount": 31, "usersCount": 5, "tipCount": 0}, "name": "Aria Pool Hall | باشگاه بیلیارد آریا", "id": "559fe4d9498e3a61cea0412c", "allowMenuUrlEdit": true, "venueChains": [], "location": {"cc": "IR", "address": "چهار راه پیام نور جنب بانک مسکن", "lat": 33.638516, "labeledLatLngs": [{"label": "display", "lng": 46.389102, "lat": 33.638516}], "lng": 46.389102, "country": "ایران", "city": "Īlām", "formattedAddress": ["چهار راه پیام نور جنب بانک مسکن", "Īlām, ایلام", "ایران"], "state": "ایلام"}}, {"referralId": "v-1505910109", "specials": {"items": [], "count": 0}, "categories": [{"name": "Housing Development", "pluralName": "Housing Developments", "id": "4f2a210c4b9023bd5841ed28", "icon": {"prefix": "https://ss3.4sqi.net/img/categories_v2/building/housingdevelopment_", "suffix": ".png"}, "primary": true, "shortName": "Housing Development"}], "hasPerk": false, "contact": {}, "beenHere": {"lastCheckinExpiredAt": 0}, "verified": false, "stats": {"checkinsCount": 7, "usersCount": 3, "tipCount": 0}, "name": "Nezhadi's Vili", "id": "578482c5498ea79befbe8923", "venueChains": [], "venueRatingBlacklisted": true, "location": {"cc": "IR", "lat": 33.63905, "lng": 46.3819, "labeledLatLngs": [{"label": "display", "lng": 46.3819, "lat": 33.63905}], "country": "ایران", "formattedAddress": ["ایران"]}}, {"referralId": "v-1505910109", "specials": {"items": [], "count": 0}, "categories": [{"name": "Bridge", "pluralName": "Bridges", "id": "4bf58dd8d48988d1df941735", "icon": {"prefix": "https://ss3.4sqi.net/img/categories_v2/parks_outdoors/bridge_", "suffix": ".png"}, "primary": true, "shortName": "Bridge"}], "hasPerk": false, "contact": {}, "beenHere": {"lastCheckinExpiredAt": 0}, "verified": false, "stats": {"checkinsCount": 4, "usersCount": 4, "tipCount": 0}, "name": "میدان غلامرضاخان ارکوازی", "id": "573f1f5f498e392820062ca1", "venueChains": [], "venueRatingBlacklisted": true, "location": {"cc": "IR", "address": "میدان غلامرضاخان ارکوازی", "lat": 33.638256, "labeledLatLngs": [{"label": "display", "lng": 46.392635, "lat": 33.638256}], "lng": 46.392635, "country": "ایران", "city": "Īlām", "formattedAddress": ["میدان غلامرضاخان ارکوازی", "Īlām, ایلام", "ایران"], "state": "ایلام"}}, {"referralId": "v-1505910109", "specials": {"items": [], "count": 0}, "categories": [{"name": "Medical Center", "pluralName": "Medical Centers", "id": "4bf58dd8d48988d104941735", "icon": {"prefix": "https://ss3.4sqi.net/img/categories_v2/building/medical_", "suffix": ".png"}, "primary": true, "shortName": "Medical"}], "hasPerk": false, "contact": {}, "beenHere": {"lastCheckinExpiredAt": 0}, "verified": false, "stats": {"checkinsCount": 7, "usersCount": 7, "tipCount": 0}, "name": "درمانگاه خورشید", "id": "5608f333498e5f7c1208ee12", "allowMenuUrlEdit": true, "venueChains": [], "venueRatingBlacklisted": true, "location": {"cc": "IR", "lng": 46.39316499510347, "lat": 33.63783273329113, "labeledLatLngs": [{"label": "display", "lng": 46.39316499510347, "lat": 33.63783273329113}], "state": "ایلام", "country": "ایران", "city": "Īlām", "formattedAddress": ["میدان مخابرات", "Īlām, ایلام", "ایران"], "crossStreet": "میدان مخابرات"}}, {"referralId": "v-1505910109", "specials": {"items": [], "count": 0}, "categories": [{"name": "Pool Hall", "pluralName": "Pool Halls", "id": "4bf58dd8d48988d1e3931735", "icon": {"prefix": "https://ss3.4sqi.net/img/categories_v2/arts_entertainment/billiards_", "suffix": ".png"}, "primary": true, "shortName": "Billiards"}], "hasPerk": false, "contact": {}, "beenHere": {"lastCheckinExpiredAt": 0}, "verified": false, "stats": {"checkinsCount": 20, "usersCount": 7, "tipCount": 0}, "name": "Golha Pool Hall | باشگاه بیلیارد گل ها", "id": "51b08173498e38fa2e177cae", "allowMenuUrlEdit": true, "venueChains": [], "location": {"cc": "IR", "lat": 33.638443704841954, "lng": 46.38783387490445, "labeledLatLngs": [{"label": "display", "lng": 46.38783387490445, "lat": 33.638443704841954}], "state": "ایلام", "country": "ایران", "city": "Īlām", "formattedAddress": ["Īlām, ایلام", "ایران"]}}, {"referralId": "v-1505910109", "specials": {"items": [], "count": 0}, "categories": [{"name": "University", "pluralName": "Universities", "id": "4bf58dd8d48988d1ae941735", "icon": {"prefix": "https://ss3.4sqi.net/img/categories_v2/education/default_", "suffix": ".png"}, "primary": true, "shortName": "University"}], "hasPerk": false, "contact": {}, "beenHere": {"lastCheckinExpiredAt": 0}, "verified": false, "stats": {"checkinsCount": 124, "usersCount": 31, "tipCount": 0}, "name": "دانشگاه آزاد اسلامی ایلام | Azad university of ilam", "id": "562383df498e38425ca95364", "venueChains": [], "venueRatingBlacklisted": true, "location": {"cc": "IR", "address": "بلوار دانشجو", "lat": 33.63823455180599, "labeledLatLngs": [{"label": "display", "lng": 46.381687626888464, "lat": 33.63823455180599}], "lng": 46.381687626888464, "country": "ایران", "city": "Īlām", "formattedAddress": ["بلوار دانشجو", "Īlām, ایلام", "ایران"], "state": "ایلام"}}, {"referralId": "v-1505910109", "specials": {"items": [], "count": 0}, "categories": [{"name": "Fast Food Restaurant", "pluralName": "Fast Food Restaurants", "id": "4bf58dd8d48988d16e941735", "icon": {"prefix": "https://ss3.4sqi.net/img/categories_v2/food/fastfood_", "suffix": ".png"}, "primary": true, "shortName": "Fast Food"}], "hasPerk": false, "contact": {"formattedPhone": "+98 918 747 0070", "phone": "+989187470070"}, "beenHere": {"lastCheckinExpiredAt": 0}, "verified": false, "stats": {"checkinsCount": 7, "usersCount": 3, "tipCount": 0}, "name": "fingerfood | فینگرفود", "id": "56474722498e2673f4d2e672", "allowMenuUrlEdit": true, "venueChains": [], "location": {"cc": "IR", "address": "چهارراه پیام نور", "lat": 33.637700291013154, "labeledLatLngs": [{"label": "display", "lng": 46.38785262893305, "lat": 33.637700291013154}], "lng": 46.38785262893305, "country": "ایران", "city": "Īlām", "formattedAddress": ["چهارراه پیام نور", "Īlām, ایلام", "ایران"], "state": "ایلام"}}, {"referralId": "v-1505910109", "specials": {"items": [], "count": 0}, "categories": [{"name": "University", "pluralName": "Universities", "id": "4bf58dd8d48988d1ae941735", "icon": {"prefix": "https://ss3.4sqi.net/img/categories_v2/education/default_", "suffix": ".png"}, "primary": true, "shortName": "University"}], "hasPerk": false, "contact": {}, "beenHere": {"lastCheckinExpiredAt": 0}, "verified": false, "stats": {"checkinsCount": 6, "usersCount": 4, "tipCount": 0}, "name": "دانشگاه پیام نور | Payam Noor University", "id": "56b85173498e859868e6b910", "venueChains": [], "venueRatingBlacklisted": true, "location": {"cc": "IR", "address": "بلوار دانشجو", "lat": 33.63834731307246, "labeledLatLngs": [{"label": "display", "lng": 46.385424041666475, "lat": 33.63834731307246}], "lng": 46.385424041666475, "country": "ایران", "city": "Īlām", "formattedAddress": ["بلوار دانشجو", "Īlām, ایلام", "ایران"], "state": "ایلام"}}, {"referralId": "v-1505910110", "specials": {"items": [], "count": 0}, "categories": [{"name": "Road", "pluralName": "Roads", "id": "4bf58dd8d48988d1f9931735", "icon": {"prefix": "https://ss3.4sqi.net/img/categories_v2/travel/highway_", "suffix": ".png"}, "primary": true, "shortName": "Road"}], "hasPerk": false, "contact": {}, "beenHere": {"lastCheckinExpiredAt": 0}, "verified": false, "stats": {"checkinsCount": 2, "usersCount": 1, "tipCount": 0}, "name": "بلوار مدرس | Moddares blvd", "id": "57c789dd498e24c10708ad06", "venueChains": [], "venueRatingBlacklisted": true, "location": {"cc": "IR", "lat": 33.644766, "lng": 46.411335, "labeledLatLngs": [{"label": "display", "lng": 46.411335, "lat": 33.644766}], "country": "ایران", "formattedAddress": ["ایران"]}}, {"referralId": "v-1505910110", "specials": {"items": [], "count": 0}, "categories": [{"name": "Restaurant", "pluralName": "Restaurants", "id": "4bf58dd8d48988d1c4941735", "icon": {"prefix": "https://ss3.4sqi.net/img/categories_v2/food/default_", "suffix": ".png"}, "primary": true, "shortName": "Restaurant"}], "hasPerk": false, "contact": {}, "beenHere": {"lastCheckinExpiredAt": 0}, "verified": false, "stats": {"checkinsCount": 4, "usersCount": 4, "tipCount": 0}, "name": "رستوران قبائل", "id": "568b8824498e3bd548261e70", "allowMenuUrlEdit": true, "venueChains": [], "location": {"cc": "IR", "lat": 33.641373, "lng": 46.407686, "labeledLatLngs": [{"label": "display", "lng": 46.407686, "lat": 33.641373}], "state": "ایلام", "country": "ایران", "city": "Īlām", "formattedAddress": ["Īlām, ایلام", "ایران"]}}, {"referralId": "v-1505910110", "specials": {"items": [], "count": 0}, "categories": [{"name": "Pizza Place", "pluralName": "Pizza Places", "id": "4bf58dd8d48988d1ca941735", "icon": {"prefix": "https://ss3.4sqi.net/img/categories_v2/food/pizza_", "suffix": ".png"}, "primary": true, "shortName": "Pizza"}], "hasPerk": false, "contact": {}, "beenHere": {"lastCheckinExpiredAt": 0}, "verified": false, "stats": {"checkinsCount": 7, "usersCount": 4, "tipCount": 0}, "name": "Mosallas Pizza | پیتزا مثلث", "id": "5291beff498e0a1989cc6d1b", "allowMenuUrlEdit": true, "venueChains": [], "location": {"cc": "IR", "lat": 33.63860383704553, "lng": 46.406066161522595, "labeledLatLngs": [{"label": "display", "lng": 46.406066161522595, "lat": 33.63860383704553}], "state": "ایلام", "country": "ایران", "city": "Īlām", "formattedAddress": ["Īlām, ایلام", "ایران"]}}, {"referralId": "v-1505910110", "specials": {"items": [], "count": 0}, "categories": [{"name": "Salon / Barbershop", "pluralName": "Salons / Barbershops", "id": "4bf58dd8d48988d110951735", "icon": {"prefix": "https://ss3.4sqi.net/img/categories_v2/shops/salon_barber_", "suffix": ".png"}, "primary": true, "shortName": "Salon / Barbershop"}], "hasPerk": false, "contact": {}, "beenHere": {"lastCheckinExpiredAt": 0}, "verified": false, "stats": {"checkinsCount": 14, "usersCount": 12, "tipCount": 0}, "name": "Biston Beauty Salon | آرایشگاه زنانه بیستون", "id": "54aa9086498e6b7e2d349a37", "allowMenuUrlEdit": true, "venueChains": [], "location": {"cc": "IR", "address": "Mobarezan St., Sanayeh St.", "lat": 33.637109954416054, "labeledLatLngs": [{"label": "display", "lng": 46.39905005908778, "lat": 33.637109954416054}], "lng": 46.39905005908778, "country": "ایران", "city": "Īlām", "formattedAddress": ["Mobarezan St., Sanayeh St.", "Īlām, ایلام", "ایران"], "state": "ایلام"}}, {"referralId": "v-1505910110", "specials": {"items": [], "count": 0}, "categories": [{"name": "Bank", "pluralName": "Banks", "id": "4bf58dd8d48988d10a951735", "icon": {"prefix": "https://ss3.4sqi.net/img/categories_v2/shops/financial_", "suffix": ".png"}, "primary": true, "shortName": "Bank"}], "hasPerk": false, "contact": {}, "beenHere": {"lastCheckinExpiredAt": 0}, "verified": false, "stats": {"checkinsCount": 2, "usersCount": 2, "tipCount": 0}, "name": "بانک ملی شعبه چهار راه حر | Bank Melli", "id": "57d50f20498e4b7c8609aa76", "allowMenuUrlEdit": true, "venueChains": [], "location": {"cc": "IR", "address": "چهار راه حر", "lat": 33.640363, "labeledLatLngs": [{"label": "display", "lng": 46.405124, "lat": 33.640363}], "lng": 46.405124, "country": "ایران", "city": "Īlām", "formattedAddress": ["چهار راه حر", "Īlām, ایلام", "ایران"], "state": "ایلام"}}, {"referralId": "v-1505910110", "specials": {"items": [], "count": 0}, "categories": [{"name": "Pizza Place", "pluralName": "Pizza Places", "id": "4bf58dd8d48988d1ca941735", "icon": {"prefix": "https://ss3.4sqi.net/img/categories_v2/food/pizza_", "suffix": ".png"}, "primary": true, "shortName": "Pizza"}], "hasPerk": false, "contact": {}, "beenHere": {"lastCheckinExpiredAt": 0}, "verified": false, "stats": {"checkinsCount": 1, "usersCount": 1, "tipCount": 0}, "name": "jo pizza", "id": "58d7e3fb2f91cb026ffa825a", "allowMenuUrlEdit": true, "venueChains": [], "location": {"cc": "IR", "address": "بلوار دانشجو", "lat": 33.641661, "labeledLatLngs": [{"label": "display", "lng": 46.404309, "lat": 33.641661}], "lng": 46.404309, "country": "ایران", "formattedAddress": ["بلوار دانشجو", "ایران"]}}, {"referralId": "v-1505910110", "specials": {"items": [], "count": 0}, "categories": [{"name": "General College & University", "pluralName": "General Colleges & Universities", "id": "4bf58dd8d48988d1a8941735", "icon": {"prefix": "https://ss3.4sqi.net/img/categories_v2/education/other_", "suffix": ".png"}, "primary": true, "shortName": "Education"}], "hasPerk": false, "contact": {}, "beenHere": {"lastCheckinExpiredAt": 0}, "verified": false, "stats": {"checkinsCount": 3, "usersCount": 3, "tipCount": 0}, "name": "اداره‌ی آموزش و پرورش استان ایلام", "id": "560f91cf498e9a97eea08e30", "venueChains": [], "venueRatingBlacklisted": true, "location": {"cc": "IR", "lat": 33.637701450951035, "lng": 46.406825986574184, "labeledLatLngs": [{"label": "display", "lng": 46.406825986574184, "lat": 33.637701450951035}], "country": "ایران", "formattedAddress": ["ایران"]}}, {"referralId": "v-1505910110", "specials": {"items": [], "count": 0}, "categories": [{"name": "Pizza Place", "pluralName": "Pizza Places", "id": "4bf58dd8d48988d1ca941735", "icon": {"prefix": "https://ss3.4sqi.net/img/categories_v2/food/pizza_", "suffix": ".png"}, "primary": true, "shortName": "Pizza"}], "hasPerk": false, "contact": {}, "beenHere": {"lastCheckinExpiredAt": 0}, "verified": false, "stats": {"checkinsCount": 14, "usersCount": 11, "tipCount": 0}, "name": "Anish Pizza | پیتزا آنیش", "id": "51c483af498ec34c40594047", "allowMenuUrlEdit": true, "venueChains": [], "location": {"cc": "IR", "lat": 33.64188490532035, "lng": 46.407384137130684, "labeledLatLngs": [{"label": "display", "lng": 46.407384137130684, "lat": 33.64188490532035}], "state": "ایلام", "country": "ایران", "city": "Īlām", "formattedAddress": ["Īlām, ایلام", "ایران"]}}, {"referralId": "v-1505910110", "specials": {"items": [], "count": 0}, "categories": [{"name": "Office", "pluralName": "Offices", "id": "4bf58dd8d48988d124941735", "icon": {"prefix": "https://ss3.4sqi.net/img/categories_v2/building/default_", "suffix": ".png"}, "primary": true, "shortName": "Office"}], "hasPerk": false, "contact": {}, "beenHere": {"lastCheckinExpiredAt": 0}, "verified": false, "stats": {"checkinsCount": 2, "usersCount": 2, "tipCount": 0}, "name": "ثبت اسناد", "id": "57847fee498e7afa8335da8b", "venueChains": [], "venueRatingBlacklisted": true, "location": {"state": "27", "lng": 46.412598, "address": "ایلام", "lat": 33.643974, "labeledLatLngs": [{"label": "display", "lng": 46.412598, "lat": 33.643974}], "cc": "IR", "country": "ایران", "city": "ایلام", "formattedAddress": ["ایلام (ایلام)", "ایلام, 27 27", "ایران"], "crossStreet": "ایلام", "postalCode": "27"}}, {"referralId": "v-1505910110", "specials": {"items": [], "count": 0}, "categories": [{"name": "Fast Food Restaurant", "pluralName": "Fast Food Restaurants", "id": "4bf58dd8d48988d16e941735", "icon": {"prefix": "https://ss3.4sqi.net/img/categories_v2/food/fastfood_", "suffix": ".png"}, "primary": true, "shortName": "Fast Food"}], "hasPerk": false, "contact": {}, "beenHere": {"lastCheckinExpiredAt": 0}, "verified": false, "stats": {"checkinsCount": 5, "usersCount": 5, "tipCount": 0}, "name": "فست فود برگر تایم | burger time", "id": "554a3186498e749486d26e41", "allowMenuUrlEdit": true, "venueChains": [], "location": {"cc": "IR", "address": "میدان میلاد روبروی فرهنگسرای جوان", "lat": 33.641764, "labeledLatLngs": [{"label": "display", "lng": 46.403628, "lat": 33.641764}], "lng": 46.403628, "country": "ایران", "formattedAddress": ["میدان میلاد روبروی فرهنگسرای جوان", "ایران"]}}, {"referralId": "v-1505910111", "specials": {"items": [], "count": 0}, "categories": [{"name": "Dentist's Office", "pluralName": "Dentist's Offices", "id": "4bf58dd8d48988d178941735", "icon": {"prefix": "https://ss3.4sqi.net/img/categories_v2/building/medical_dentist_", "suffix": ".png"}, "primary": true, "shortName": "Dentist's Office"}], "hasPerk": false, "contact": {}, "beenHere": {"lastCheckinExpiredAt": 0}, "verified": false, "stats": {"checkinsCount": 1, "usersCount": 1, "tipCount": 0}, "name": "مطب دکتر دارابی", "id": "57581c2e498e144a75f9a7fa", "allowMenuUrlEdit": true, "venueChains": [], "venueRatingBlacklisted": true, "location": {"state": "ایلام", "lng": 46.423573, "address": "خیابان جنوبی چهارراه سعدی - کوچه جنب بانک کشاورزی", "lat": 33.63769, "labeledLatLngs": [{"label": "display", "lng": 46.423573, "lat": 33.63769}], "cc": "IR", "country": "ایران", "city": "Īlām", "formattedAddress": ["خیابان جنوبی چهارراه سعدی - کوچه جنب بانک کشاورزی (سعدی جنوبی)", "Īlām, ایلام", "ایران"], "crossStreet": "سعدی جنوبی"}}, {"referralId": "v-1505910111", "specials": {"items": [], "count": 0}, "categories": [{"name": "Fast Food Restaurant", "pluralName": "Fast Food Restaurants", "id": "4bf58dd8d48988d16e941735", "icon": {"prefix": "https://ss3.4sqi.net/img/categories_v2/food/fastfood_", "suffix": ".png"}, "primary": true, "shortName": "Fast Food"}], "hasPerk": false, "contact": {}, "beenHere": {"lastCheckinExpiredAt": 0}, "verified": false, "stats": {"checkinsCount": 5, "usersCount": 3, "tipCount": 0}, "name": "فست فود ۲۰ | fast food 20", "id": "55a931f5498e6f9d6797b258", "allowMenuUrlEdit": true, "venueChains": [], "location": {"cc": "IR", "lat": 33.64042, "lng": 46.423414, "labeledLatLngs": [{"label": "display", "lng": 46.423414, "lat": 33.64042}], "country": "ایران", "formattedAddress": ["ایران"]}}, {"referralId": "v-1505910111", "specials": {"items": [], "count": 0}, "categories": [{"name": "Bank", "pluralName": "Banks", "id": "4bf58dd8d48988d10a951735", "icon": {"prefix": "https://ss3.4sqi.net/img/categories_v2/shops/financial_", "suffix": ".png"}, "primary": true, "shortName": "Bank"}], "hasPerk": false, "contact": {}, "beenHere": {"lastCheckinExpiredAt": 0}, "verified": false, "stats": {"checkinsCount": 2, "usersCount": 2, "tipCount": 0}, "name": "keshavarzi Bank | بانک کشاورزی شعبه مرکزی", "id": "55696284498e7fd14d7ab256", "allowMenuUrlEdit": true, "venueChains": [], "location": {"cc": "IR", "address": "چهار راه سعدی ضلع جنوبی", "lat": 33.637374, "labeledLatLngs": [{"label": "display", "lng": 46.423413, "lat": 33.637374}], "lng": 46.423413, "country": "ایران", "formattedAddress": ["چهار راه سعدی ضلع جنوبی", "ایران"]}}, {"referralId": "v-1505910111", "specials": {"items": [], "count": 0}, "categories": [{"name": "Pizza Place", "pluralName": "Pizza Places", "id": "4bf58dd8d48988d1ca941735", "icon": {"prefix": "https://ss3.4sqi.net/img/categories_v2/food/pizza_", "suffix": ".png"}, "primary": true, "shortName": "Pizza"}], "hasPerk": false, "contact": {}, "beenHere": {"lastCheckinExpiredAt": 0}, "verified": false, "stats": {"checkinsCount": 2, "usersCount": 2, "tipCount": 0}, "name": "پدر خوب", "id": "56841ad5498ea2caaa57d03f", "allowMenuUrlEdit": true, "venueChains": [], "location": {"cc": "IR", "lat": 33.639772, "lng": 46.429103, "labeledLatLngs": [{"label": "display", "lng": 46.429103, "lat": 33.639772}], "country": "ایران", "formattedAddress": ["ایران"]}}, {"referralId": "v-1505910111", "specials": {"items": [], "count": 0}, "categories": [{"name": "Falafel Restaurant", "pluralName": "Falafel Restaurants", "id": "4bf58dd8d48988d10b941735", "icon": {"prefix": "https://ss3.4sqi.net/img/categories_v2/food/falafel_", "suffix": ".png"}, "primary": true, "shortName": "Falafel"}], "hasPerk": false, "contact": {}, "beenHere": {"lastCheckinExpiredAt": 0}, "verified": false, "stats": {"checkinsCount": 1, "usersCount": 1, "tipCount": 0}, "name": "فلافل دوستان", "id": "57e163ba498ea5cb8011c08d", "allowMenuUrlEdit": true, "venueChains": [], "location": {"cc": "IR", "lat": 33.638222, "lng": 46.425768, "labeledLatLngs": [{"label": "display", "lng": 46.425768, "lat": 33.638222}], "country": "ایران", "formattedAddress": ["ایران"]}}, {"referralId": "v-1505910111", "specials": {"items": [], "count": 0}, "categories": [{"name": "Building", "pluralName": "Buildings", "id": "4bf58dd8d48988d130941735", "icon": {"prefix": "https://ss3.4sqi.net/img/categories_v2/building/default_", "suffix": ".png"}, "primary": true, "shortName": "Building"}], "hasPerk": false, "contact": {}, "beenHere": {"lastCheckinExpiredAt": 0}, "verified": false, "stats": {"checkinsCount": 1, "usersCount": 1, "tipCount": 0}, "name": "اداره میراث فرهنگی", "id": "583a958a37da1d46fb1ca7b5", "venueChains": [], "venueRatingBlacklisted": true, "location": {"cc": "IR", "address": "خیابان پاسداران جنب قلعه والی", "lat": 33.640787, "labeledLatLngs": [{"label": "display", "lng": 46.424305, "lat": 33.640787}], "lng": 46.424305, "country": "ایران", "city": "Īlām", "formattedAddress": ["خیابان پاسداران جنب قلعه والی", "Īlām, ایلام", "ایران"], "state": "ایلام"}}, {"referralId": "v-1505910111", "specials": {"items": [], "count": 0}, "categories": [{"name": "Bar", "pluralName": "Bars", "id": "4bf58dd8d48988d116941735", "icon": {"prefix": "https://ss3.4sqi.net/img/categories_v2/nightlife/pub_", "suffix": ".png"}, "primary": true, "shortName": "Bar"}], "hasPerk": false, "contact": {}, "beenHere": {"lastCheckinExpiredAt": 0}, "verified": false, "stats": {"checkinsCount": 3, "usersCount": 2, "tipCount": 0}, "name": "گل یخ", "id": "573f0aff498e149f16435b58", "allowMenuUrlEdit": true, "venueChains": [], "location": {"cc": "IR", "address": "سعدی", "lat": 33.63947, "labeledLatLngs": [{"label": "display", "lng": 46.42471, "lat": 33.63947}], "lng": 46.42471, "country": "ایران", "city": "Īlām", "formattedAddress": ["سعدی", "Īlām, ایلام", "ایران"], "state": "ایلام"}}, {"referralId": "v-1505910111", "specials": {"items": [], "count": 0}, "categories": [{"name": "Winery", "pluralName": "Wineries", "id": "4bf58dd8d48988d14b941735", "icon": {"prefix": "https://ss3.4sqi.net/img/categories_v2/food/winery_", "suffix": ".png"}, "primary": true, "shortName": "Winery"}], "hasPerk": false, "contact": {}, "beenHere": {"lastCheckinExpiredAt": 0}, "verified": false, "stats": {"checkinsCount": 2, "usersCount": 2, "tipCount": 0}, "name": "iraq-arbil", "id": "56f69727498e8164e4dba8c1", "allowMenuUrlEdit": true, "venueChains": [], "location": {"cc": "IR", "lat": 33.64107, "lng": 46.424431, "labeledLatLngs": [{"label": "display", "lng": 46.424431, "lat": 33.64107}], "country": "ایران", "formattedAddress": ["ایران"]}}, {"referralId": "v-1505910111", "specials": {"items": [], "count": 0}, "categories": [{"name": "Cave", "pluralName": "Caves", "id": "56aa371be4b08b9a8d573511", "icon": {"prefix": "https://ss3.4sqi.net/img/categories_v2/parks_outdoors/default_", "suffix": ".png"}, "primary": true, "shortName": "Cave"}], "hasPerk": false, "contact": {}, "beenHere": {"lastCheckinExpiredAt": 0}, "verified": false, "stats": {"checkinsCount": 1, "usersCount": 1, "tipCount": 0}, "name": "شهرستان لالچین", "id": "56fa3c06498e24b587174aef", "venueChains": [], "location": {"cc": "IR", "lat": 33.63848, "lng": 46.42308, "labeledLatLngs": [{"label": "display", "lng": 46.42308, "lat": 33.63848}], "country": "ایران", "formattedAddress": ["ایران"]}}, {"referralId": "v-1505910111", "specials": {"items": [], "count": 0}, "categories": [{"name": "Medical Center", "pluralName": "Medical Centers", "id": "4bf58dd8d48988d104941735", "icon": {"prefix": "https://ss3.4sqi.net/img/categories_v2/building/medical_", "suffix": ".png"}, "primary": true, "shortName": "Medical"}], "hasPerk": false, "contact": {}, "beenHere": {"lastCheckinExpiredAt": 0}, "verified": false, "stats": {"checkinsCount": 6, "usersCount": 3, "tipCount": 0}, "name": "درمانگاه الزهرا", "id": "58359ec20acb6a4bcb01597e", "allowMenuUrlEdit": true, "venueChains": [], "venueRatingBlacklisted": true, "location": {"cc": "IR", "address": "ضلع جنوبی چهار راه سعدی", "lat": 33.637892, "labeledLatLngs": [{"label": "display", "lng": 46.423982, "lat": 33.637892}], "lng": 46.423982, "country": "ایران", "city": "Īlām", "formattedAddress": ["ضلع جنوبی چهار راه سعدی", "Īlām, ایلام", "ایران"], "state": "ایلام"}}, {"referralId": "v-1505910111", "specials": {"items": [], "count": 0}, "categories": [{"name": "Historic Site", "pluralName": "Historic Sites", "id": "4deefb944765f83613cdba6e", "icon": {"prefix": "https://ss3.4sqi.net/img/categories_v2/arts_entertainment/historicsite_", "suffix": ".png"}, "primary": true, "shortName": "Historic Site"}], "hasPerk": false, "contact": {}, "beenHere": {"lastCheckinExpiredAt": 0}, "verified": false, "stats": {"checkinsCount": 26, "usersCount": 24, "tipCount": 2}, "name": "Valli Castle | قلعه والی", "id": "5510ebe7498e207bc09c74f1", "venueChains": [], "location": {"cc": "IR", "address": "Pasdaran St.", "lat": 33.63766502476929, "labeledLatLngs": [{"label": "display", "lng": 46.42410344113138, "lat": 33.63766502476929}], "lng": 46.42410344113138, "country": "ایران", "city": "Īlām", "formattedAddress": ["Pasdaran St.", "Īlām, ایلام", "ایران"], "state": "ایلام"}}, {"referralId": "v-1505910111", "specials": {"items": [], "count": 0}, "categories": [{"name": "Mosque", "pluralName": "Mosques", "id": "4bf58dd8d48988d138941735", "icon": {"prefix": "https://ss3.4sqi.net/img/categories_v2/building/religious_mosque_", "suffix": ".png"}, "primary": true, "shortName": "Mosque"}], "hasPerk": false, "contact": {}, "beenHere": {"lastCheckinExpiredAt": 0}, "verified": false, "stats": {"checkinsCount": 4, "usersCount": 4, "tipCount": 0}, "name": "Ilam Grand Mosque | مسجد جامع ایلام", "id": "52900e4511d264c564758cc6", "venueChains": [], "venueRatingBlacklisted": true, "location": {"cc": "IR", "lat": 33.6375476589688, "lng": 46.425816035548564, "labeledLatLngs": [{"label": "display", "lng": 46.425816035548564, "lat": 33.6375476589688}], "state": "ایلام", "country": "ایران", "city": "Īlām", "formattedAddress": ["Īlām, ایلام", "ایران"]}}, {"referralId": "v-1505910111", "specials": {"items": [], "count": 0}, "categories": [{"name": "Park", "pluralName": "Parks", "id": "4bf58dd8d48988d163941735", "icon": {"prefix": "https://ss3.4sqi.net/img/categories_v2/parks_outdoors/park_", "suffix": ".png"}, "primary": true, "shortName": "Park"}], "hasPerk": false, "contact": {}, "beenHere": {"lastCheckinExpiredAt": 0}, "verified": false, "stats": {"checkinsCount": 24, "usersCount": 18, "tipCount": 3}, "name": "Koodak Park | پارک کودک", "id": "52901b6b498ef0a951447bd9", "venueChains": [], "location": {"cc": "IR", "lat": 33.637647785556084, "lng": 46.428659542781716, "labeledLatLngs": [{"label": "display", "lng": 46.428659542781716, "lat": 33.637647785556084}], "state": "ایلام", "country": "ایران", "city": "Īlām", "formattedAddress": ["Īlām, ایلام", "ایران"]}}, {"referralId": "v-1505910111", "specials": {"items": [], "count": 0}, "categories": [{"name": "Falafel Restaurant", "pluralName": "Falafel Restaurants", "id": "4bf58dd8d48988d10b941735", "icon": {"prefix": "https://ss3.4sqi.net/img/categories_v2/food/falafel_", "suffix": ".png"}, "primary": true, "shortName": "Falafel"}], "hasPerk": false, "contact": {}, "beenHere": {"lastCheckinExpiredAt": 0}, "verified": false, "stats": {"checkinsCount": 1, "usersCount": 1, "tipCount": 0}, "name": "فلافلی عبید | Obeyd Felafel", "id": "58da8c8413c223047475842f", "allowMenuUrlEdit": true, "venueChains": [], "location": {"cc": "IR", "lat": 33.638744, "lng": 46.428642, "labeledLatLngs": [{"label": "display", "lng": 46.428642, "lat": 33.638744}], "state": "Ilam Province", "country": "ایران", "city": "Ilam", "formattedAddress": ["Ilam, Ilam Province", "ایران"]}}, {"referralId": "v-1505910111", "specials": {"items": [], "count": 0}, "categories": [{"name": "Language School", "pluralName": "Language Schools", "id": "52e81612bcbc57f1066b7a48", "icon": {"prefix": "https://ss3.4sqi.net/img/categories_v2/education/default_", "suffix": ".png"}, "primary": true, "shortName": "Language School"}], "hasPerk": false, "contact": {}, "beenHere": {"lastCheckinExpiredAt": 0}, "verified": false, "stats": {"checkinsCount": 8, "usersCount": 4, "tipCount": 0}, "name": "كانون زبان ايران- ايلام", "id": "5895cd73e786b25ad3fd4b00", "venueChains": [], "venueRatingBlacklisted": true, "location": {"cc": "IR", "lat": 33.636983, "lng": 46.414523, "labeledLatLngs": [{"label": "display", "lng": 46.414523, "lat": 33.636983}], "country": "ایران", "formattedAddress": ["ایران"]}}, {"referralId": "v-1505910111", "specials": {"items": [], "count": 0}, "categories": [{"name": "Café", "pluralName": "Cafés", "id": "4bf58dd8d48988d16d941735", "icon": {"prefix": "https://ss3.4sqi.net/img/categories_v2/food/cafe_", "suffix": ".png"}, "primary": true, "shortName": "Café"}], "hasPerk": false, "contact": {}, "beenHere": {"lastCheckinExpiredAt": 0}, "verified": false, "stats": {"checkinsCount": 4, "usersCount": 4, "tipCount": 0}, "name": "کافه قلعه | Ghale Cafe", "id": "56b0a529498ec801ef808f38", "allowMenuUrlEdit": true, "venueChains": [], "location": {"cc": "IR", "address": "ایلام. قلعه والی ، کافه قلعه", "lat": 33.641262, "labeledLatLngs": [{"label": "display", "lng": 46.42379, "lat": 33.641262}], "lng": 46.42379, "country": "ایران", "city": "Īlām", "formattedAddress": ["ایلام. قلعه والی ، کافه قلعه", "Īlām, ایلام", "ایران"], "state": "ایلام"}}, {"referralId": "v-1505910111", "specials": {"items": [], "count": 0}, "categories": [{"name": "Art Gallery", "pluralName": "Art Galleries", "id": "4bf58dd8d48988d1e2931735", "icon": {"prefix": "https://ss3.4sqi.net/img/categories_v2/arts_entertainment/artgallery_", "suffix": ".png"}, "primary": true, "shortName": "Art Gallery"}], "hasPerk": false, "contact": {}, "beenHere": {"lastCheckinExpiredAt": 0}, "verified": false, "stats": {"checkinsCount": 2, "usersCount": 2, "tipCount": 0}, "name": "Zhik Studio | آتلیه عکاسی ژیک", "id": "56891ab7498eef5e27a29818", "allowMenuUrlEdit": true, "venueChains": [], "location": {"cc": "IR", "address": "پارک کودک جنب پدر خوب", "lat": 33.639294, "labeledLatLngs": [{"label": "display", "lng": 46.42234, "lat": 33.639294}], "lng": 46.42234, "country": "ایران", "city": "Īlām", "formattedAddress": ["پارک کودک جنب پدر خوب", "Īlām, ایلام", "ایران"], "state": "ایلام"}}, {"referralId": "v-1505910111", "specials": {"items": [], "count": 0}, "categories": [{"name": "Café", "pluralName": "Cafés", "id": "4bf58dd8d48988d16d941735", "icon": {"prefix": "https://ss3.4sqi.net/img/categories_v2/food/cafe_", "suffix": ".png"}, "primary": true, "shortName": "Café"}], "hasPerk": false, "contact": {}, "beenHere": {"lastCheckinExpiredAt": 0}, "verified": false, "stats": {"checkinsCount": 19, "usersCount": 13, "tipCount": 1}, "name": "Comma Café |  کافه کاما", "id": "5290996611d229911ef9aa9d", "allowMenuUrlEdit": true, "venueChains": [], "location": {"cc": "IR", "address": "Pasdaran Ave.", "lat": 33.639894, "labeledLatLngs": [{"label": "display", "lng": 46.426005, "lat": 33.639894}], "lng": 46.426005, "country": "ایران", "city": "Īlām", "formattedAddress": ["Pasdaran Ave.", "Īlām, ایلام", "ایران"], "state": "ایلام"}}, {"referralId": "v-1505910111", "specials": {"items": [], "count": 0}, "categories": [{"name": "Arts & Crafts Store", "pluralName": "Arts & Crafts Stores", "id": "4bf58dd8d48988d127951735", "icon": {"prefix": "https://ss3.4sqi.net/img/categories_v2/shops/artstore_", "suffix": ".png"}, "primary": true, "shortName": "Arts & Crafts"}], "hasPerk": false, "contact": {}, "beenHere": {"lastCheckinExpiredAt": 0}, "verified": false, "stats": {"checkinsCount": 23, "usersCount": 2, "tipCount": 0}, "name": "آرایشگاه رضا | Reza Hair Cut", "id": "570deac3498ed527025e07a9", "allowMenuUrlEdit": true, "venueChains": [], "location": {"cc": "IR", "address": "Saadi Shomali , Balatar Az Azmayeshgah Markazi", "lat": 33.640644668038576, "labeledLatLngs": [{"label": "display", "lng": 46.42549228026582, "lat": 33.640644668038576}], "lng": 46.42549228026582, "country": "ایران", "city": "Īlām", "formattedAddress": ["Saadi Shomali , Balatar Az Azmayeshgah Markazi", "Īlām, ایلام", "ایران"], "state": "ایلام"}}, {"referralId": "v-1505910111", "specials": {"items": [], "count": 0}, "categories": [{"name": "Laboratory", "pluralName": "Laboratories", "id": "5744ccdfe4b0c0459246b4d6", "icon": {"prefix": "https://ss3.4sqi.net/img/categories_v2/education/lab_", "suffix": ".png"}, "primary": true, "shortName": "Laboratory"}], "hasPerk": false, "contact": {}, "beenHere": {"lastCheckinExpiredAt": 0}, "verified": false, "stats": {"checkinsCount": 1, "usersCount": 1, "tipCount": 0}, "name": "آزمایشگاه مرکزی", "id": "59708e0531ac6c49a72b2c65", "venueChains": [], "venueRatingBlacklisted": true, "location": {"cc": "IR", "lat": 33.64042, "lng": 46.425125, "labeledLatLngs": [{"label": "display", "lng": 46.425125, "lat": 33.64042}], "state": "Ilam Province", "country": "ایران", "city": "Ilam", "formattedAddress": ["Ilam, Ilam Province", "ایران"]}}, {"referralId": "v-1505910111", "specials": {"items": [], "count": 0}, "categories": [{"name": "Pizza Place", "pluralName": "Pizza Places", "id": "4bf58dd8d48988d1ca941735", "icon": {"prefix": "https://ss3.4sqi.net/img/categories_v2/food/pizza_", "suffix": ".png"}, "primary": true, "shortName": "Pizza"}], "hasPerk": false, "contact": {}, "beenHere": {"lastCheckinExpiredAt": 0}, "verified": false, "stats": {"checkinsCount": 11, "usersCount": 9, "tipCount": 0}, "name": "پدر خوب | Pedar Khoob Pizza", "id": "5724b657498e7b86c0953b2c", "allowMenuUrlEdit": true, "venueChains": [], "location": {"cc": "IR", "address": "جنب پارک کودک", "lat": 33.63996666331215, "labeledLatLngs": [{"label": "display", "lng": 46.42954172024649, "lat": 33.63996666331215}], "lng": 46.42954172024649, "country": "ایران", "city": "Īlām", "formattedAddress": ["جنب پارک کودک", "Īlām, ایلام", "ایران"], "state": "ایلام"}}, {"referralId": "v-1505910111", "specials": {"items": [], "count": 0}, "categories": [{"name": "Café", "pluralName": "Cafés", "id": "4bf58dd8d48988d16d941735", "icon": {"prefix": "https://ss3.4sqi.net/img/categories_v2/food/cafe_", "suffix": ".png"}, "primary": true, "shortName": "Café"}], "hasPerk": false, "contact": {}, "beenHere": {"lastCheckinExpiredAt": 0}, "verified": false, "stats": {"checkinsCount": 4, "usersCount": 2, "tipCount": 0}, "name": "Cafe Zhin | ژين كافه", "id": "598ea4fd1bc7044f250f5cc5", "allowMenuUrlEdit": true, "private": true, "venueChains": [], "location": {"cc": "IR", "lat": 33.637954, "lng": 46.428079, "labeledLatLngs": [{"label": "display", "lng": 46.428079, "lat": 33.637954}], "state": "ایلام", "country": "ایران", "city": "Īlām", "formattedAddress": ["Īlām, ایلام", "ایران"]}}, {"referralId": "v-1505910111", "specials": {"items": [], "count": 0}, "categories": [{"name": "Café", "pluralName": "Cafés", "id": "4bf58dd8d48988d16d941735", "icon": {"prefix": "https://ss3.4sqi.net/img/categories_v2/food/cafe_", "suffix": ".png"}, "primary": true, "shortName": "Café"}], "hasPerk": false, "contact": {}, "beenHere": {"lastCheckinExpiredAt": 0}, "verified": false, "stats": {"checkinsCount": 4, "usersCount": 4, "tipCount": 0}, "name": "cafe radio |کافه رادیو", "id": "579a1d84498e8d8c206991e3", "allowMenuUrlEdit": true, "venueChains": [], "location": {"state": "ایلام", "lng": 46.429195, "address": "خیابان پاسداران روبروی پارک کودک", "lat": 33.638667, "labeledLatLngs": [{"label": "display", "lng": 46.429195, "lat": 33.638667}], "cc": "IR", "country": "ایران", "city": "Īlām", "formattedAddress": ["خیابان پاسداران روبروی پارک کودک (پاسداران)", "Īlām, ایلام", "ایران"], "crossStreet": "پاسداران"}}, {"referralId": "v-1505910111", "specials": {"items": [], "count": 0}, "categories": [{"name": "Café", "pluralName": "Cafés", "id": "4bf58dd8d48988d16d941735", "icon": {"prefix": "https://ss3.4sqi.net/img/categories_v2/food/cafe_", "suffix": ".png"}, "primary": true, "shortName": "Café"}], "hasPerk": false, "contact": {}, "beenHere": {"lastCheckinExpiredAt": 0}, "verified": false, "stats": {"checkinsCount": 64, "usersCount": 18, "tipCount": 1}, "name": "Ghalam Café | کافه قلم", "id": "54e9d1a8498e4071f77c2957", "allowMenuUrlEdit": true, "venueChains": [], "location": {"cc": "IR", "address": "Pasdaran Ave.", "lat": 33.64061786730668, "labeledLatLngs": [{"label": "display", "lng": 46.4237374697607, "lat": 33.64061786730668}], "lng": 46.4237374697607, "country": "ایران", "city": "Īlām", "formattedAddress": ["Pasdaran Ave.", "Īlām, ایلام", "ایران"], "state": "ایلام"}}, {"referralId": "v-1505910112", "specials": {"items": [], "count": 0}, "categories": [{"name": "Park", "pluralName": "Parks", "id": "4bf58dd8d48988d163941735", "icon": {"prefix": "https://ss3.4sqi.net/img/categories_v2/parks_outdoors/park_", "suffix": ".png"}, "primary": true, "shortName": "Park"}], "hasPerk": false, "contact": {}, "beenHere": {"lastCheckinExpiredAt": 0}, "verified": false, "stats": {"checkinsCount": 5, "usersCount": 4, "tipCount": 0}, "name": "sarab park | پارک سراب", "id": "55a94a03498ec4f8a5a72a3a", "venueChains": [], "location": {"cc": "IR", "lat": 33.642168797664155, "lng": 46.43657154887651, "labeledLatLngs": [{"label": "display", "lng": 46.43657154887651, "lat": 33.642168797664155}], "state": "ایلام", "country": "ایران", "city": "Īlām", "formattedAddress": ["Īlām, ایلام", "ایران"]}}, {"referralId": "v-1505910112", "specials": {"items": [], "count": 0}, "categories": [{"name": "Market", "pluralName": "Markets", "id": "50be8ee891d4fa8dcc7199a7", "icon": {"prefix": "https://ss3.4sqi.net/img/categories_v2/shops/market_", "suffix": ".png"}, "primary": true, "shortName": "Market"}], "hasPerk": false, "contact": {}, "beenHere": {"lastCheckinExpiredAt": 0}, "verified": false, "stats": {"checkinsCount": 3, "usersCount": 3, "tipCount": 0}, "name": "عسل طبیعی تیرطاف", "id": "559fdeb7498eadf4a0dec6a1", "allowMenuUrlEdit": true, "venueChains": [], "location": {"cc": "IR", "lat": 33.639787, "lng": 46.433884, "labeledLatLngs": [{"label": "display", "lng": 46.433884, "lat": 33.639787}], "country": "ایران", "formattedAddress": ["ایران"]}}, {"referralId": "v-1505910112", "specials": {"items": [], "count": 0}, "categories": [{"name": "Building", "pluralName": "Buildings", "id": "4bf58dd8d48988d130941735", "icon": {"prefix": "https://ss3.4sqi.net/img/categories_v2/building/default_", "suffix": ".png"}, "primary": true, "shortName": "Building"}], "hasPerk": false, "contact": {}, "beenHere": {"lastCheckinExpiredAt": 0}, "verified": false, "stats": {"checkinsCount": 3, "usersCount": 1, "tipCount": 0}, "name": "مرکز فوریت ۱۱۵", "id": "583941b792789f3da6c771f3", "venueChains": [], "venueRatingBlacklisted": true, "location": {"cc": "IR", "address": "میدان شهدا بالاتر از دادگاه انقلاب", "lat": 33.643446, "labeledLatLngs": [{"label": "display", "lng": 46.436661, "lat": 33.643446}], "lng": 46.436661, "country": "ایران", "city": "Īlām", "formattedAddress": ["میدان شهدا بالاتر از دادگاه انقلاب", "Īlām, ایلام", "ایران"], "state": "ایلام"}}, {"referralId": "v-1505910112", "specials": {"items": [], "count": 0}, "categories": [{"name": "Medical Center", "pluralName": "Medical Centers", "id": "4bf58dd8d48988d104941735", "icon": {"prefix": "https://ss3.4sqi.net/img/categories_v2/building/medical_", "suffix": ".png"}, "primary": true, "shortName": "Medical"}], "hasPerk": false, "contact": {}, "beenHere": {"lastCheckinExpiredAt": 0}, "verified": false, "stats": {"checkinsCount": 1, "usersCount": 1, "tipCount": 0}, "name": "درمانگاه شهدا | Shohada Medical Center", "id": "582ab57098015f5ff284efb9", "allowMenuUrlEdit": true, "venueChains": [], "venueRatingBlacklisted": true, "location": {"cc": "IR", "address": "میدان شهدا", "lat": 33.641065, "labeledLatLngs": [{"label": "display", "lng": 46.434756, "lat": 33.641065}], "lng": 46.434756, "country": "ایران", "city": "Īlām", "formattedAddress": ["میدان شهدا", "Īlām, ایلام", "ایران"], "state": "ایلام"}}, {"referralId": "v-1505910112", "specials": {"items": [], "count": 0}, "categories": [{"name": "Taxi", "pluralName": "Taxis", "id": "4bf58dd8d48988d130951735", "icon": {"prefix": "https://ss3.4sqi.net/img/categories_v2/travel/taxi_", "suffix": ".png"}, "primary": true, "shortName": "Taxi"}], "hasPerk": false, "contact": {}, "beenHere": {"lastCheckinExpiredAt": 0}, "verified": false, "stats": {"checkinsCount": 5, "usersCount": 4, "tipCount": 0}, "name": "میدان شهدا", "id": "54e04f37498e5fe3d02d3c1a", "venueChains": [], "venueRatingBlacklisted": true, "location": {"cc": "IR", "lat": 33.64071273803711, "lng": 46.433692932128906, "labeledLatLngs": [{"label": "display", "lng": 46.433692932128906, "lat": 33.64071273803711}], "country": "ایران", "formattedAddress": ["ایران"]}}, {"referralId": "v-1505910114", "specials": {"items": [], "count": 0}, "categories": [{"name": "Park", "pluralName": "Parks", "id": "4bf58dd8d48988d163941735", "icon": {"prefix": "https://ss3.4sqi.net/img/categories_v2/parks_outdoors/park_", "suffix": ".png"}, "primary": true, "shortName": "Park"}], "hasPerk": false, "contact": {}, "beenHere": {"lastCheckinExpiredAt": 0}, "verified": false, "stats": {"checkinsCount": 2, "usersCount": 2, "tipCount": 0}, "name": "پارک کوثر", "id": "578bcf2d498e14ebe73209e8", "venueChains": [], "location": {"state": "841", "lng": 46.411644, "address": "ایلام", "lat": 33.64635, "labeledLatLngs": [{"label": "display", "lng": 46.411644, "lat": 33.64635}], "cc": "IR", "country": "ایران", "city": "ایلام", "formattedAddress": ["ایلام (بام)", "ایلام, 841 841", "ایران"], "crossStreet": "بام", "postalCode": "841"}}, {"referralId": "v-1505910115", "specials": {"items": [], "count": 0}, "categories": [{"name": "Capitol Building", "pluralName": "Capitol Buildings", "id": "4bf58dd8d48988d12a941735", "icon": {"prefix": "https://ss3.4sqi.net/img/categories_v2/building/government_capitolbuilding_", "suffix": ".png"}, "primary": true, "shortName": "Capitol Building"}], "hasPerk": false, "contact": {}, "beenHere": {"lastCheckinExpiredAt": 0}, "verified": false, "stats": {"checkinsCount": 22, "usersCount": 9, "tipCount": 0}, "name": "Governorship of Ilam | استانداری ایلام", "id": "54420bf1498ed957d2fa2f52", "venueChains": [], "venueRatingBlacklisted": true, "location": {"cc": "IR", "lat": 33.64640639502618, "lng": 46.42604125786794, "labeledLatLngs": [{"label": "display", "lng": 46.42604125786794, "lat": 33.64640639502618}], "state": "ایلام", "country": "ایران", "city": "Īlām", "formattedAddress": ["Īlām, ایلام", "ایران"]}}]