[{"referralId": "v-1505909691", "specials": {"items": [], "count": 0}, "categories": [{"name": "Park", "pluralName": "Parks", "id": "4bf58dd8d48988d163941735", "icon": {"prefix": "https://ss3.4sqi.net/img/categories_v2/parks_outdoors/park_", "suffix": ".png"}, "primary": true, "shortName": "Park"}], "hasPerk": false, "contact": {}, "beenHere": {"lastCheckinExpiredAt": 0}, "verified": false, "stats": {"checkinsCount": 33, "usersCount": 24, "tipCount": 1}, "name": "Simorgh Park | پارک سیمرغ", "id": "504d3992e4b05485429a475e", "venueChains": [], "location": {"cc": "IR", "lat": 35.555115870596914, "lng": 53.34391339406933, "labeledLatLngs": [{"label": "display", "lng": 53.34391339406933, "lat": 35.555115870596914}], "state": "سمنان", "country": "ایران", "city": "سمنان", "formattedAddress": ["سمنان, سمنان", "ایران"]}}, {"referralId": "v-1505909691", "specials": {"items": [], "count": 0}, "categories": [{"name": "Persian Restaurant", "pluralName": "Persian Restaurants", "id": "52e81612bcbc57f1066b79f7", "icon": {"prefix": "https://ss3.4sqi.net/img/categories_v2/food/middleeastern_", "suffix": ".png"}, "primary": true, "shortName": "Persian"}], "hasPerk": false, "contact": {}, "beenHere": {"lastCheckinExpiredAt": 0}, "verified": false, "stats": {"checkinsCount": 1, "usersCount": 1, "tipCount": 0}, "name": "مستر دیزی / Mr. Dizi", "id": "5934482f6a8d865d653b660e", "allowMenuUrlEdit": true, "venueChains": [], "location": {"cc": "IR", "address": "میدان قومِس، جنب سوئیت های شهرداری", "lat": 35.557743, "labeledLatLngs": [{"label": "display", "lng": 53.348003, "lat": 35.557743}], "lng": 53.348003, "country": "ایران", "city": "سمنان", "formattedAddress": ["میدان قومِس، جنب سوئیت های شهرداری", "سمنان, سمنان", "ایران"], "state": "سمنان"}}, {"referralId": "v-1505909691", "specials": {"items": [], "count": 0}, "categories": [{"name": "Cemetery", "pluralName": "Cemeteries", "id": "4bf58dd8d48988d15c941735", "icon": {"prefix": "https://ss3.4sqi.net/img/categories_v2/parks_outdoors/cemetery_", "suffix": ".png"}, "primary": true, "shortName": "Cemetery"}], "hasPerk": false, "contact": {}, "beenHere": {"lastCheckinExpiredAt": 0}, "verified": false, "stats": {"checkinsCount": 10, "usersCount": 7, "tipCount": 0}, "name": "Vadi Al-Salam | وادی السلام", "id": "530f3cd5498e96754bdc7e17", "venueChains": [], "venueRatingBlacklisted": true, "location": {"cc": "IR", "lat": 35.54707480613784, "lng": 53.346568943050634, "labeledLatLngs": [{"label": "display", "lng": 53.346568943050634, "lat": 35.54707480613784}], "state": "سمنان", "country": "ایران", "city": "سمنان", "formattedAddress": ["سمنان, سمنان", "ایران"]}}, {"referralId": "v-1505909691", "specials": {"items": [], "count": 0}, "categories": [{"name": "Motel", "pluralName": "Motels", "id": "4bf58dd8d48988d1fb931735", "icon": {"prefix": "https://ss3.4sqi.net/img/categories_v2/travel/hotel_", "suffix": ".png"}, "primary": true, "shortName": "Motel"}], "hasPerk": false, "contact": {}, "beenHere": {"lastCheckinExpiredAt": 0}, "verified": false, "stats": {"checkinsCount": 3, "usersCount": 2, "tipCount": 0}, "name": "Motel Simorgh/ متل سیمرغ", "id": "591a5156a4236228bd4adb52", "allowMenuUrlEdit": true, "venueChains": [], "location": {"cc": "IR", "address": "ورودی سمنان، قبل از فلکه قُمِس", "lat": 35.55206, "labeledLatLngs": [{"label": "display", "lng": 53.338455, "lat": 35.55206}], "lng": 53.338455, "country": "ایران", "city": "سمنان", "formattedAddress": ["ورودی سمنان، قبل از فلکه قُمِس", "سمنان, سمنان", "ایران"], "state": "سمنان"}}, {"referralId": "v-1505909693", "specials": {"items": [], "count": 0}, "categories": [{"name": "Pool", "pluralName": "Pools", "id": "4bf58dd8d48988d15e941735", "icon": {"prefix": "https://ss3.4sqi.net/img/categories_v2/parks_outdoors/pool_", "suffix": ".png"}, "primary": true, "shortName": "Pool"}], "hasPerk": false, "contact": {}, "beenHere": {"lastCheckinExpiredAt": 0}, "verified": false, "stats": {"checkinsCount": 4, "usersCount": 2, "tipCount": 0}, "name": "Haft-e Tir Pool | استخر هفت تیر", "id": "53f89ced498e7dfcd2d5ca42", "venueChains": [], "location": {"cc": "IR", "address": "Sharif Vaghefi St", "lat": 35.55739974975586, "labeledLatLngs": [{"label": "display", "lng": 53.40930938720703, "lat": 35.55739974975586}], "lng": 53.40930938720703, "country": "ایران", "city": "سمنان", "formattedAddress": ["Sharif Vaghefi St", "سمنان, سمنان", "ایران"], "state": "سمنان"}}, {"referralId": "v-1505909693", "specials": {"items": [], "count": 0}, "categories": [{"name": "Park", "pluralName": "Parks", "id": "4bf58dd8d48988d163941735", "icon": {"prefix": "https://ss3.4sqi.net/img/categories_v2/parks_outdoors/park_", "suffix": ".png"}, "primary": true, "shortName": "Park"}], "hasPerk": false, "contact": {}, "beenHere": {"lastCheckinExpiredAt": 0}, "verified": false, "stats": {"checkinsCount": 5, "usersCount": 5, "tipCount": 0}, "name": "پارک ۸ شهریور", "id": "582d91f8d21e03488935367b", "venueChains": [], "location": {"cc": "IR", "lat": 35.55522, "lng": 53.400547, "labeledLatLngs": [{"label": "display", "lng": 53.400547, "lat": 35.55522}], "state": "سمنان", "country": "ایران", "city": "سمنان", "formattedAddress": ["سمنان, سمنان", "ایران"]}}, {"referralId": "v-1505909693", "specials": {"items": [], "count": 0}, "categories": [{"name": "Warehouse", "pluralName": "Warehouses", "id": "52e81612bcbc57f1066b7a36", "icon": {"prefix": "https://ss3.4sqi.net/img/categories_v2/building/default_", "suffix": ".png"}, "primary": true, "shortName": "Warehouse"}], "hasPerk": false, "contact": {}, "beenHere": {"lastCheckinExpiredAt": 0}, "verified": false, "stats": {"checkinsCount": 1, "usersCount": 1, "tipCount": 0}, "name": "خانه تربيت بدني استان سمنان", "id": "58cc066c2bc5e20a90e97e2e", "venueChains": [], "venueRatingBlacklisted": true, "location": {"lng": 53.408579, "address": "Semnan", "lat": 35.557221, "labeledLatLngs": [{"label": "display", "lng": 53.408579, "lat": 35.557221}], "cc": "IR", "country": "ایران", "city": "Semnan", "formattedAddress": ["Semnan", "Semnan, 1 1", "ایران"], "state": "1", "postalCode": "1"}}, {"referralId": "v-1505909693", "specials": {"items": [], "count": 0}, "categories": [{"name": "General College & University", "pluralName": "General Colleges & Universities", "id": "4bf58dd8d48988d1a8941735", "icon": {"prefix": "https://ss3.4sqi.net/img/categories_v2/education/other_", "suffix": ".png"}, "primary": true, "shortName": "Education"}], "hasPerk": false, "contact": {}, "beenHere": {"lastCheckinExpiredAt": 0}, "verified": false, "stats": {"checkinsCount": 1, "usersCount": 1, "tipCount": 0}, "name": "Farhangian University Of Semna", "id": "59ae10e8da70807ab592c641", "venueChains": [], "venueRatingBlacklisted": true, "location": {"cc": "IR", "lat": 35.557846, "lng": 53.408478, "labeledLatLngs": [{"label": "display", "lng": 53.408478, "lat": 35.557846}], "state": "سمنان", "country": "ایران", "city": "سمنان", "formattedAddress": ["سمنان, سمنان", "ایران"]}}, {"referralId": "v-1505909693", "specials": {"items": [], "count": 0}, "categories": [{"name": "Train Station", "pluralName": "Train Stations", "id": "4bf58dd8d48988d129951735", "icon": {"prefix": "https://ss3.4sqi.net/img/categories_v2/travel/trainstation_", "suffix": ".png"}, "primary": true, "shortName": "Train Station"}], "hasPerk": false, "contact": {}, "beenHere": {"lastCheckinExpiredAt": 0}, "verified": false, "stats": {"checkinsCount": 406, "usersCount": 235, "tipCount": 2}, "name": "Semnan Railway Station | ایستگاه راه‌آهن سمنان", "id": "50c20e0ee4b0e64f1d3e3907", "venueChains": [], "location": {"cc": "IR", "address": "Motahari Blvd.", "lat": 35.55294323500335, "labeledLatLngs": [{"label": "display", "lng": 53.40457194882078, "lat": 35.55294323500335}], "lng": 53.40457194882078, "country": "ایران", "city": "سمنان", "formattedAddress": ["Motahari Blvd.", "سمنان, سمنان", "ایران"], "state": "سمنان"}}, {"referralId": "v-1505909694", "specials": {"items": [], "count": 0}, "categories": [{"name": "Nature Preserve", "pluralName": "Nature Preserves", "id": "52e81612bcbc57f1066b7a13", "icon": {"prefix": "https://ss3.4sqi.net/img/categories_v2/parks_outdoors/naturepreserve_", "suffix": ".png"}, "primary": true, "shortName": "Preserve"}], "hasPerk": false, "contact": {}, "beenHere": {"lastCheckinExpiredAt": 0}, "verified": false, "stats": {"checkinsCount": 5, "usersCount": 5, "tipCount": 0}, "name": "مجتمع تفريحي سيمرغ", "id": "56ebb512498e745f7804233e", "venueChains": [], "location": {"cc": "IR", "lat": 35.55964934304511, "lng": 53.34442974341948, "labeledLatLngs": [{"label": "display", "lng": 53.34442974341948, "lat": 35.55964934304511}], "country": "ایران", "formattedAddress": ["ایران"]}}, {"referralId": "v-1505909694", "specials": {"items": [], "count": 0}, "categories": [{"name": "Fried Chicken Joint", "pluralName": "Fried Chicken Joints", "id": "4d4ae6fc7a7b7dea34424761", "icon": {"prefix": "https://ss3.4sqi.net/img/categories_v2/food/friedchicken_", "suffix": ".png"}, "primary": true, "shortName": "Fried Chicken"}], "hasPerk": false, "contact": {}, "beenHere": {"lastCheckinExpiredAt": 0}, "verified": false, "stats": {"checkinsCount": 62, "usersCount": 53, "tipCount": 4}, "name": "Akbar Joojeh | اکبر جوجه", "id": "54098a2c498ea7138faa782c", "allowMenuUrlEdit": true, "venueChains": [], "location": {"cc": "IR", "address": "Shahrak-e Gharb", "lat": 35.56016275804593, "labeledLatLngs": [{"label": "display", "lng": 53.34766491142843, "lat": 35.56016275804593}], "lng": 53.34766491142843, "country": "ایران", "city": "سمنان", "formattedAddress": ["Shahrak-e Gharb", "سمنان, سمنان", "ایران"], "state": "سمنان"}}, {"referralId": "v-1505909694", "specials": {"items": [], "count": 0}, "categories": [{"name": "Comfort Food Restaurant", "pluralName": "Comfort Food Restaurants", "id": "52e81612bcbc57f1066b7a00", "icon": {"prefix": "https://ss3.4sqi.net/img/categories_v2/food/default_", "suffix": ".png"}, "primary": true, "shortName": "Comfort Food"}], "hasPerk": false, "contact": {}, "beenHere": {"lastCheckinExpiredAt": 0}, "verified": false, "stats": {"checkinsCount": 2, "usersCount": 2, "tipCount": 0}, "name": "رستوران های زنجیره ای اکبر جوجه شعبه سمنان", "id": "599c49699deb7d2c67fc5b7e", "allowMenuUrlEdit": true, "venueChains": [], "location": {"cc": "IR", "lat": 35.560286, "lng": 53.347675, "labeledLatLngs": [{"label": "display", "lng": 53.347675, "lat": 35.560286}], "country": "ایران", "formattedAddress": ["ایران"]}}, {"referralId": "v-1505909694", "specials": {"items": [], "count": 0}, "categories": [{"name": "Cultural Center", "pluralName": "Cultural Centers", "id": "52e81612bcbc57f1066b7a32", "icon": {"prefix": "https://ss3.4sqi.net/img/categories_v2/building/default_", "suffix": ".png"}, "primary": true, "shortName": "Cultural Center"}], "hasPerk": false, "contact": {}, "beenHere": {"lastCheckinExpiredAt": 0}, "verified": false, "stats": {"checkinsCount": 4, "usersCount": 3, "tipCount": 0}, "name": "سازمان میراث فرهنگی سمنان", "id": "561391a1498ea3258ced38f7", "venueChains": [], "venueRatingBlacklisted": true, "location": {"cc": "IR", "lat": 35.55912399291992, "lng": 53.34798049926758, "labeledLatLngs": [{"label": "display", "lng": 53.34798049926758, "lat": 35.55912399291992}], "country": "ایران", "formattedAddress": ["ایران"]}}, {"referralId": "v-1505909694", "specials": {"items": [], "count": 0}, "categories": [{"name": "City", "pluralName": "Cities", "id": "50aa9e094b90af0d42d5de0d", "icon": {"prefix": "https://ss3.4sqi.net/img/categories_v2/parks_outdoors/neighborhood_", "suffix": ".png"}, "primary": true, "shortName": "City"}], "hasPerk": false, "contact": {}, "beenHere": {"lastCheckinExpiredAt": 0}, "verified": false, "stats": {"checkinsCount": 1, "usersCount": 1, "tipCount": 0}, "name": "سمنان/semnan", "id": "591c765dff1902302ff92e2c", "venueChains": [], "venueRatingBlacklisted": true, "location": {"cc": "IR", "lat": 35.563192, "lng": 53.34693, "labeledLatLngs": [{"label": "display", "lng": 53.34693, "lat": 35.563192}], "country": "ایران", "state": "سمنان", "formattedAddress": ["سمنان", "ایران"]}}, {"referralId": "v-1505909695", "specials": {"items": [], "count": 0}, "categories": [{"name": "Fast Food Restaurant", "pluralName": "Fast Food Restaurants", "id": "4bf58dd8d48988d16e941735", "icon": {"prefix": "https://ss3.4sqi.net/img/categories_v2/food/fastfood_", "suffix": ".png"}, "primary": true, "shortName": "Fast Food"}], "hasPerk": false, "contact": {}, "beenHere": {"lastCheckinExpiredAt": 0}, "verified": false, "stats": {"checkinsCount": 3, "usersCount": 3, "tipCount": 0}, "name": "setare shahr fast food", "id": "56dab0e5cd10e273fb6e9e64", "allowMenuUrlEdit": true, "venueChains": [], "location": {"cc": "IR", "lat": 35.572137, "lng": 53.380323, "labeledLatLngs": [{"label": "display", "lng": 53.380323, "lat": 35.572137}], "state": "سمنان", "country": "ایران", "city": "سمنان", "formattedAddress": ["سمنان, سمنان", "ایران"]}}, {"referralId": "v-1505909695", "specials": {"items": [], "count": 0}, "categories": [{"name": "Medical Lab", "pluralName": "Medical Labs", "id": "4f4531b14b9074f6e4fb0103", "icon": {"prefix": "https://ss3.4sqi.net/img/categories_v2/education/lab_", "suffix": ".png"}, "primary": true, "shortName": "Medical Lab"}], "hasPerk": false, "contact": {}, "beenHere": {"lastCheckinExpiredAt": 0}, "verified": false, "stats": {"checkinsCount": 3, "usersCount": 1, "tipCount": 0}, "name": "آزمايشگاه بيمارستان اميرالمومنين | Amir Al-Momenin Hospital Laboratory", "id": "57d3a9e9498e4bb2948f9435", "venueChains": [], "venueRatingBlacklisted": true, "location": {"cc": "IR", "lat": 35.573595, "lng": 53.36725, "labeledLatLngs": [{"label": "display", "lng": 53.36725, "lat": 35.573595}], "country": "ایران", "formattedAddress": ["ایران"]}}, {"referralId": "v-1505909695", "specials": {"items": [], "count": 0}, "categories": [{"name": "Factory", "pluralName": "Factories", "id": "4eb1bea83b7b6f98df247e06", "icon": {"prefix": "https://ss3.4sqi.net/img/categories_v2/building/factory_", "suffix": ".png"}, "primary": true, "shortName": "Factory"}], "hasPerk": false, "contact": {}, "beenHere": {"lastCheckinExpiredAt": 0}, "verified": false, "stats": {"checkinsCount": 4, "usersCount": 3, "tipCount": 0}, "name": "Koohsar-e Qhoms Food Industry | صنایع غذایی کوهسار قومس", "id": "53bb8169498e18ec3a03b4f3", "venueChains": [], "venueRatingBlacklisted": true, "location": {"cc": "IR", "address": "سمنان - شهرك صنعتي", "lat": 35.57688475585311, "labeledLatLngs": [{"label": "display", "lng": 53.382681128063346, "lat": 35.57688475585311}], "lng": 53.382681128063346, "country": "ایران", "formattedAddress": ["سمنان - شهرك صنعتي", "ایران"]}}, {"referralId": "v-1505909695", "specials": {"items": [], "count": 0}, "categories": [{"name": "Building", "pluralName": "Buildings", "id": "4bf58dd8d48988d130941735", "icon": {"prefix": "https://ss3.4sqi.net/img/categories_v2/building/default_", "suffix": ".png"}, "primary": true, "shortName": "Building"}], "hasPerk": false, "contact": {}, "beenHere": {"lastCheckinExpiredAt": 0}, "verified": false, "stats": {"checkinsCount": 7, "usersCount": 1, "tipCount": 0}, "name": "مدیریت شعب بانک کشاورزی استان سمنان", "id": "56a34b80498e31124214e5d7", "venueChains": [], "venueRatingBlacklisted": true, "location": {"cc": "IR", "lat": 35.56957717858119, "lng": 53.37023067903454, "labeledLatLngs": [{"label": "display", "lng": 53.37023067903454, "lat": 35.56957717858119}], "country": "ایران", "formattedAddress": ["ایران"]}}, {"referralId": "v-1505909695", "specials": {"items": [], "count": 0}, "categories": [{"name": "Veterinarian", "pluralName": "Veterinarians", "id": "4d954af4a243a5684765b473", "icon": {"prefix": "https://ss3.4sqi.net/img/categories_v2/building/medical_veterinarian_", "suffix": ".png"}, "primary": true, "shortName": "Veterinarians"}], "hasPerk": false, "contact": {}, "beenHere": {"lastCheckinExpiredAt": 0}, "verified": false, "stats": {"checkinsCount": 5, "usersCount": 2, "tipCount": 0}, "name": "كلينيك دامپزشكي دانشگاه سمنان", "id": "56b6d3c3498e78bd30fc668b", "allowMenuUrlEdit": true, "venueChains": [], "venueRatingBlacklisted": true, "location": {"cc": "IR", "lat": 35.572017, "lng": 53.36382, "labeledLatLngs": [{"label": "display", "lng": 53.36382, "lat": 35.572017}], "country": "ایران", "formattedAddress": ["ایران"]}}, {"referralId": "v-1505909695", "specials": {"items": [], "count": 0}, "categories": [{"name": "Nature Preserve", "pluralName": "Nature Preserves", "id": "52e81612bcbc57f1066b7a13", "icon": {"prefix": "https://ss3.4sqi.net/img/categories_v2/parks_outdoors/naturepreserve_", "suffix": ".png"}, "primary": true, "shortName": "Preserve"}], "hasPerk": false, "contact": {}, "beenHere": {"lastCheckinExpiredAt": 0}, "verified": false, "stats": {"checkinsCount": 2, "usersCount": 2, "tipCount": 0}, "name": "Baghe Amir", "id": "56f962b6cd10da173b9a7d97", "venueChains": [], "location": {"cc": "IR", "lat": 35.57434787256823, "lng": 53.36914492098285, "labeledLatLngs": [{"label": "display", "lng": 53.36914492098285, "lat": 35.57434787256823}], "state": "سمنان", "country": "ایران", "city": "سمنان", "formattedAddress": ["سمنان, سمنان", "ایران"]}}, {"referralId": "v-1505909695", "specials": {"items": [], "count": 0}, "categories": [{"name": "Library", "pluralName": "Libraries", "id": "4bf58dd8d48988d12f941735", "icon": {"prefix": "https://ss3.4sqi.net/img/categories_v2/building/library_", "suffix": ".png"}, "primary": true, "shortName": "Library"}], "hasPerk": false, "contact": {}, "beenHere": {"lastCheckinExpiredAt": 0}, "verified": false, "stats": {"checkinsCount": 4, "usersCount": 2, "tipCount": 0}, "name": "كتابخانه بيمارستان اميرالمومنين | Hospital's Library", "id": "57d383b1cd10a53b95880347", "venueChains": [], "venueRatingBlacklisted": true, "location": {"cc": "IR", "lat": 35.571854, "lng": 53.370804, "labeledLatLngs": [{"label": "display", "lng": 53.370804, "lat": 35.571854}], "country": "ایران", "formattedAddress": ["ایران"]}}, {"referralId": "v-1505909695", "specials": {"items": [], "count": 0}, "categories": [{"name": "Kebab Restaurant", "pluralName": "Kebab Restaurants", "id": "5283c7b4e4b094cb91ec88d7", "icon": {"prefix": "https://ss3.4sqi.net/img/categories_v2/food/middleeastern_", "suffix": ".png"}, "primary": true, "shortName": "Kebab"}], "hasPerk": false, "contact": {}, "beenHere": {"lastCheckinExpiredAt": 0}, "verified": false, "stats": {"checkinsCount": 4, "usersCount": 4, "tipCount": 0}, "name": "ValiAsr Kebab | کبابی ولیعصر", "id": "52ea0ed811d2e69ff5245c75", "allowMenuUrlEdit": true, "venueChains": [], "location": {"cc": "IR", "address": "Moallem Blvd", "lat": 35.57363510131836, "labeledLatLngs": [{"label": "display", "lng": 53.375221252441406, "lat": 35.57363510131836}], "lng": 53.375221252441406, "country": "ایران", "city": "سمنان", "formattedAddress": ["Moallem Blvd", "سمنان, سمنان", "ایران"], "state": "سمنان"}}, {"referralId": "v-1505909695", "specials": {"items": [], "count": 0}, "categories": [{"name": "Veterinarian", "pluralName": "Veterinarians", "id": "4d954af4a243a5684765b473", "icon": {"prefix": "https://ss3.4sqi.net/img/categories_v2/building/medical_veterinarian_", "suffix": ".png"}, "primary": true, "shortName": "Veterinarians"}], "hasPerk": false, "contact": {}, "beenHere": {"lastCheckinExpiredAt": 0}, "verified": false, "stats": {"checkinsCount": 2, "usersCount": 2, "tipCount": 0}, "name": "كلينيك دامپزشكي دكتر ثاني", "id": "56e926d6498e7e8b52ec19e5", "allowMenuUrlEdit": true, "venueChains": [], "venueRatingBlacklisted": true, "location": {"cc": "IR", "lat": 35.571451, "lng": 53.382918, "labeledLatLngs": [{"label": "display", "lng": 53.382918, "lat": 35.571451}], "country": "ایران", "formattedAddress": ["ایران"]}}, {"referralId": "v-1505909695", "specials": {"items": [], "count": 0}, "categories": [{"name": "Hospital", "pluralName": "Hospitals", "id": "4bf58dd8d48988d196941735", "icon": {"prefix": "https://ss3.4sqi.net/img/categories_v2/building/medical_", "suffix": ".png"}, "primary": true, "shortName": "Hospital"}], "hasPerk": false, "contact": {}, "beenHere": {"lastCheckinExpiredAt": 0}, "verified": false, "stats": {"checkinsCount": 42, "usersCount": 9, "tipCount": 0}, "name": "Amir Al-Momenin Hospital | بیمارستان امیرالمومنین", "id": "508bc915e4b040090a2a37bb", "venueChains": [], "venueRatingBlacklisted": true, "location": {"cc": "IR", "lat": 35.573303, "lng": 53.366176, "labeledLatLngs": [{"label": "display", "lng": 53.366176, "lat": 35.573303}], "state": "سمنان", "country": "ایران", "city": "سمنان", "formattedAddress": ["سمنان, سمنان", "ایران"]}}, {"referralId": "v-1505909695", "specials": {"items": [], "count": 0}, "categories": [{"name": "Gas Station", "pluralName": "Gas Stations", "id": "4bf58dd8d48988d113951735", "icon": {"prefix": "https://ss3.4sqi.net/img/categories_v2/shops/gas_", "suffix": ".png"}, "primary": true, "shortName": "Gas Station"}], "hasPerk": false, "contact": {}, "beenHere": {"lastCheckinExpiredAt": 0}, "verified": false, "stats": {"checkinsCount": 2, "usersCount": 2, "tipCount": 0}, "name": "پمپ بنزین جلالی", "id": "590d71f80d2be707b9858f50", "allowMenuUrlEdit": true, "venueChains": [], "location": {"cc": "IR", "address": "Semnan Province", "lat": 35.571342, "labeledLatLngs": [{"label": "display", "lng": 53.374733, "lat": 35.571342}], "lng": 53.374733, "country": "ایران", "city": "سمنان", "formattedAddress": ["Semnan Province", "سمنان, سمنان", "ایران"], "state": "سمنان"}}, {"referralId": "v-1505909695", "specials": {"items": [], "count": 0}, "categories": [{"name": "Palace", "pluralName": "Palaces", "id": "52e81612bcbc57f1066b7a14", "icon": {"prefix": "https://ss3.4sqi.net/img/categories_v2/parks_outdoors/default_", "suffix": ".png"}, "primary": true, "shortName": "Palace"}], "hasPerk": false, "contact": {}, "beenHere": {"lastCheckinExpiredAt": 0}, "verified": false, "stats": {"checkinsCount": 3, "usersCount": 3, "tipCount": 0}, "name": "Garmsar", "id": "56f29669498efdcb62c022af", "venueChains": [], "location": {"cc": "IR", "lat": 35.574612, "lng": 53.368919, "labeledLatLngs": [{"label": "display", "lng": 53.368919, "lat": 35.574612}], "country": "ایران", "city": "City", "formattedAddress": ["City", "ایران"]}}, {"referralId": "v-1505909695", "specials": {"items": [], "count": 0}, "categories": [{"name": "Café", "pluralName": "Cafés", "id": "4bf58dd8d48988d16d941735", "icon": {"prefix": "https://ss3.4sqi.net/img/categories_v2/food/cafe_", "suffix": ".png"}, "primary": true, "shortName": "Café"}], "hasPerk": false, "contact": {}, "beenHere": {"lastCheckinExpiredAt": 0}, "verified": false, "stats": {"checkinsCount": 9, "usersCount": 8, "tipCount": 0}, "name": "كافه نوتلا | Nutella Café", "id": "57dd814b498e958c99bc3539", "allowMenuUrlEdit": true, "venueChains": [], "location": {"cc": "IR", "lat": 35.575771, "lng": 53.38361, "labeledLatLngs": [{"label": "display", "lng": 53.38361, "lat": 35.575771}], "country": "ایران", "formattedAddress": ["ایران"]}}, {"referralId": "v-1505909695", "specials": {"items": [], "count": 0}, "categories": [{"name": "Garden", "pluralName": "Gardens", "id": "4bf58dd8d48988d15a941735", "icon": {"prefix": "https://ss3.4sqi.net/img/categories_v2/parks_outdoors/garden_", "suffix": ".png"}, "primary": true, "shortName": "Garden"}], "hasPerk": false, "contact": {}, "beenHere": {"lastCheckinExpiredAt": 0}, "verified": false, "stats": {"checkinsCount": 5, "usersCount": 5, "tipCount": 0}, "name": "Imam hossein Square", "id": "56daaa71cd107bf5ed75ef3e", "venueChains": [], "location": {"cc": "IR", "lat": 35.571561061984454, "lng": 53.377557322448276, "labeledLatLngs": [{"label": "display", "lng": 53.377557322448276, "lat": 35.571561061984454}], "state": "سمنان", "country": "ایران", "city": "سمنان", "formattedAddress": ["سمنان, سمنان", "ایران"]}}, {"referralId": "v-1505909695", "specials": {"items": [], "count": 0}, "categories": [{"name": "Fast Food Restaurant", "pluralName": "Fast Food Restaurants", "id": "4bf58dd8d48988d16e941735", "icon": {"prefix": "https://ss3.4sqi.net/img/categories_v2/food/fastfood_", "suffix": ".png"}, "primary": true, "shortName": "Fast Food"}], "hasPerk": false, "contact": {}, "beenHere": {"lastCheckinExpiredAt": 0}, "verified": false, "stats": {"checkinsCount": 9, "usersCount": 5, "tipCount": 0}, "name": "توتك | Tootak", "id": "57112e79498eb9387ce6d197", "allowMenuUrlEdit": true, "venueChains": [], "location": {"cc": "IR", "lat": 35.571568, "lng": 53.377469, "labeledLatLngs": [{"label": "display", "lng": 53.377469, "lat": 35.571568}], "country": "ایران", "formattedAddress": ["ایران"]}}, {"referralId": "v-1505909695", "specials": {"items": [], "count": 0}, "categories": [], "hasPerk": false, "contact": {}, "beenHere": {"lastCheckinExpiredAt": 0}, "verified": false, "stats": {"checkinsCount": 24, "usersCount": 8, "tipCount": 0}, "name": "Negin's Home", "id": "51f6ab53498e9b7ead485b2c", "venueChains": [], "location": {"state": "سمنان", "lng": 53.37584946518567, "address": "Semnan", "lat": 35.572104977233835, "labeledLatLngs": [{"label": "display", "lng": 53.37584946518567, "lat": 35.572104977233835}], "cc": "IR", "country": "ایران", "city": "سمنان", "formattedAddress": ["Semnan (17 Shahrivar Blvd)", "سمنان, سمنان", "ایران"], "crossStreet": "17 Shahrivar Blvd"}}, {"referralId": "v-1505909695", "specials": {"items": [], "count": 0}, "categories": [{"name": "Market", "pluralName": "Markets", "id": "50be8ee891d4fa8dcc7199a7", "icon": {"prefix": "https://ss3.4sqi.net/img/categories_v2/shops/market_", "suffix": ".png"}, "primary": true, "shortName": "Market"}], "hasPerk": false, "contact": {}, "beenHere": {"lastCheckinExpiredAt": 0}, "verified": false, "stats": {"checkinsCount": 8, "usersCount": 5, "tipCount": 0}, "name": "Ghoghnoos Hypermarket | هايپرماركت ققنوس", "id": "58208c956401963ccd59a8a1", "allowMenuUrlEdit": true, "venueChains": [], "location": {"cc": "IR", "lat": 35.577419, "lng": 53.36641, "labeledLatLngs": [{"label": "display", "lng": 53.36641, "lat": 35.577419}], "country": "ایران", "formattedAddress": ["ایران"]}}, {"referralId": "v-1505909695", "specials": {"items": [], "count": 0}, "categories": [{"name": "Bank", "pluralName": "Banks", "id": "4bf58dd8d48988d10a951735", "icon": {"prefix": "https://ss3.4sqi.net/img/categories_v2/shops/financial_", "suffix": ".png"}, "primary": true, "shortName": "Bank"}], "hasPerk": false, "contact": {}, "beenHere": {"lastCheckinExpiredAt": 0}, "verified": false, "stats": {"checkinsCount": 1, "usersCount": 1, "tipCount": 0}, "name": "سرپرستی بانک ملی استان سمنان", "id": "5964579fc9a5172166dae743", "allowMenuUrlEdit": true, "venueChains": [], "location": {"cc": "IR", "address": "بلوار هفده شهريور", "lat": 35.572529, "labeledLatLngs": [{"label": "display", "lng": 53.379333, "lat": 35.572529}], "lng": 53.379333, "country": "ایران", "state": "سمنان", "formattedAddress": ["بلوار هفده شهريور", "سمنان", "ایران"]}}, {"referralId": "v-1505909695", "specials": {"items": [], "count": 0}, "categories": [{"name": "Burger Joint", "pluralName": "Burger Joints", "id": "4bf58dd8d48988d16c941735", "icon": {"prefix": "https://ss3.4sqi.net/img/categories_v2/food/burger_", "suffix": ".png"}, "primary": true, "shortName": "Burgers"}], "hasPerk": false, "contact": {}, "beenHere": {"lastCheckinExpiredAt": 0}, "verified": false, "stats": {"checkinsCount": 23, "usersCount": 15, "tipCount": 1}, "name": "شب چره", "id": "56c4cc21cd101de72217c0a6", "allowMenuUrlEdit": true, "venueChains": [], "location": {"cc": "IR", "lat": 35.577369360456075, "lng": 53.380567252178274, "labeledLatLngs": [{"label": "display", "lng": 53.380567252178274, "lat": 35.577369360456075}], "country": "ایران", "formattedAddress": ["ایران"]}}, {"referralId": "v-1505909695", "specials": {"items": [], "count": 0}, "categories": [{"name": "Road", "pluralName": "Roads", "id": "4bf58dd8d48988d1f9931735", "icon": {"prefix": "https://ss3.4sqi.net/img/categories_v2/travel/highway_", "suffix": ".png"}, "primary": true, "shortName": "Road"}], "hasPerk": false, "contact": {}, "beenHere": {"lastCheckinExpiredAt": 0}, "verified": false, "stats": {"checkinsCount": 12, "usersCount": 9, "tipCount": 0}, "name": "17 Shahrivar Boulevard | بلوار هفده شهريور", "id": "569cf853498e231542ad8bb0", "venueChains": [], "venueRatingBlacklisted": true, "location": {"cc": "IR", "lat": 35.572672, "lng": 53.382452, "labeledLatLngs": [{"label": "display", "lng": 53.382452, "lat": 35.572672}], "state": "سمنان", "country": "ایران", "city": "سمنان", "formattedAddress": ["سمنان, سمنان", "ایران"]}}, {"referralId": "v-1505909695", "specials": {"items": [], "count": 0}, "categories": [{"name": "Government Building", "pluralName": "Government Buildings", "id": "4bf58dd8d48988d126941735", "icon": {"prefix": "https://ss3.4sqi.net/img/categories_v2/building/government_", "suffix": ".png"}, "primary": true, "shortName": "Government"}], "hasPerk": false, "contact": {}, "beenHere": {"lastCheckinExpiredAt": 0}, "verified": false, "stats": {"checkinsCount": 4, "usersCount": 3, "tipCount": 0}, "name": "Directorate of Technical Education & Vocational Training | اداره کل آموزش فنی و حرفه‌ای سمنان", "id": "53fc6bd1498e738553d086f2", "venueChains": [], "venueRatingBlacklisted": true, "location": {"cc": "IR", "address": "Hefdah-e Shahrivar Blvd", "lat": 35.571352738334205, "labeledLatLngs": [{"label": "display", "lng": 53.369403182391856, "lat": 35.571352738334205}], "lng": 53.369403182391856, "country": "ایران", "city": "سمنان", "formattedAddress": ["Hefdah-e Shahrivar Blvd", "سمنان, سمنان", "ایران"], "state": "سمنان"}}, {"referralId": "v-1505909695", "specials": {"items": [], "count": 0}, "categories": [{"name": "Coffee Shop", "pluralName": "Coffee Shops", "id": "4bf58dd8d48988d1e0931735", "icon": {"prefix": "https://ss3.4sqi.net/img/categories_v2/food/coffeeshop_", "suffix": ".png"}, "primary": true, "shortName": "Coffee Shop"}], "hasPerk": false, "contact": {}, "beenHere": {"lastCheckinExpiredAt": 0}, "verified": false, "stats": {"checkinsCount": 2, "usersCount": 2, "tipCount": 0}, "name": "آبمیوه بستنی سپهر Icecream&juice Sepehr", "id": "587a3fb67ff1e421e346823d", "allowMenuUrlEdit": true, "venueChains": [], "location": {"cc": "IR", "address": "سمنان", "lat": 35.57706, "labeledLatLngs": [{"label": "display", "lng": 53.379726, "lat": 35.57706}], "lng": 53.379726, "country": "ایران", "city": "سمنان", "formattedAddress": ["سمنان", "سمنان, سمنان", "ایران"], "state": "سمنان"}}, {"referralId": "v-1505909695", "specials": {"items": [], "count": 0}, "categories": [{"name": "College Residence Hall", "pluralName": "College Residence Halls", "id": "4bf58dd8d48988d1a3941735", "icon": {"prefix": "https://ss3.4sqi.net/img/categories_v2/education/residencehall_", "suffix": ".png"}, "primary": true, "shortName": "Residence Hall"}], "hasPerk": false, "contact": {}, "beenHere": {"lastCheckinExpiredAt": 0}, "verified": false, "stats": {"checkinsCount": 8, "usersCount": 5, "tipCount": 0}, "name": "Andisheh Dormitory | خوابگاه انديشه", "id": "544a60c7498e79ed1bd23c49", "venueChains": [], "venueRatingBlacklisted": true, "location": {"cc": "IR", "address": "Hefdah Shahrivar Blvd", "lat": 35.57261294669185, "labeledLatLngs": [{"label": "display", "lng": 53.37705655779267, "lat": 35.57261294669185}], "lng": 53.37705655779267, "country": "ایران", "city": "سمنان", "formattedAddress": ["Hefdah Shahrivar Blvd", "سمنان, سمنان", "ایران"], "state": "سمنان"}}, {"referralId": "v-1505909695", "specials": {"items": [], "count": 0}, "categories": [{"name": "Government Building", "pluralName": "Government Buildings", "id": "4bf58dd8d48988d126941735", "icon": {"prefix": "https://ss3.4sqi.net/img/categories_v2/building/government_", "suffix": ".png"}, "primary": true, "shortName": "Government"}], "hasPerk": false, "contact": {}, "beenHere": {"lastCheckinExpiredAt": 0}, "verified": false, "stats": {"checkinsCount": 9, "usersCount": 5, "tipCount": 0}, "name": "Department of Social Security | اداره تعاون کار و رفاه اجتماعی سمنان", "id": "52944cb511d2f1903208d8d9", "venueChains": [], "venueRatingBlacklisted": true, "location": {"cc": "IR", "lat": 35.570300129858, "lng": 53.37208072056139, "labeledLatLngs": [{"label": "display", "lng": 53.37208072056139, "lat": 35.570300129858}], "state": "سمنان", "country": "ایران", "city": "سمنان", "formattedAddress": ["سمنان, سمنان", "ایران"]}}, {"referralId": "v-1505909695", "specials": {"items": [], "count": 0}, "categories": [{"name": "City", "pluralName": "Cities", "id": "50aa9e094b90af0d42d5de0d", "icon": {"prefix": "https://ss3.4sqi.net/img/categories_v2/parks_outdoors/neighborhood_", "suffix": ".png"}, "primary": true, "shortName": "City"}], "hasPerk": false, "contact": {}, "beenHere": {"lastCheckinExpiredAt": 0}, "verified": false, "stats": {"checkinsCount": 4, "usersCount": 4, "tipCount": 0}, "name": "Semnan/سمنان", "id": "591c771f8134887121216070", "venueChains": [], "venueRatingBlacklisted": true, "location": {"cc": "IR", "lat": 35.572318, "lng": 53.374958, "labeledLatLngs": [{"label": "display", "lng": 53.374958, "lat": 35.572318}], "country": "ایران", "state": "سمنان", "formattedAddress": ["سمنان", "ایران"]}}, {"referralId": "v-1505909695", "specials": {"items": [], "count": 0}, "categories": [{"name": "Water Park", "pluralName": "Water Parks", "id": "4bf58dd8d48988d193941735", "icon": {"prefix": "https://ss3.4sqi.net/img/categories_v2/arts_entertainment/waterpark_", "suffix": ".png"}, "primary": true, "shortName": "Water Park"}], "hasPerk": false, "contact": {}, "beenHere": {"lastCheckinExpiredAt": 0}, "verified": false, "stats": {"checkinsCount": 2, "usersCount": 2, "tipCount": 0}, "name": "semnan water park | پارك آبي گوت كه مال", "id": "59953611a6ec98663a851996", "allowMenuUrlEdit": true, "venueChains": [], "location": {"cc": "IR", "lat": 35.574637, "lng": 53.376389, "labeledLatLngs": [{"label": "display", "lng": 53.376389, "lat": 35.574637}], "country": "ایران", "state": "سمنان", "formattedAddress": ["سمنان", "ایران"]}}, {"referralId": "v-1505909695", "specials": {"items": [], "count": 0}, "categories": [{"name": "Restaurant", "pluralName": "Restaurants", "id": "4bf58dd8d48988d1c4941735", "icon": {"prefix": "https://ss3.4sqi.net/img/categories_v2/food/default_", "suffix": ".png"}, "primary": true, "shortName": "Restaurant"}], "hasPerk": false, "contact": {}, "beenHere": {"lastCheckinExpiredAt": 0}, "verified": false, "stats": {"checkinsCount": 19, "usersCount": 17, "tipCount": 2}, "name": "Bagh-e Shahr Restaurant | رستوران باغ شهر", "id": "5230bc17498e85de7e451154", "allowMenuUrlEdit": true, "venueChains": [], "location": {"cc": "IR", "address": "Hefdah-e Shahrivar Blvd", "lat": 35.573626080797986, "labeledLatLngs": [{"label": "display", "lng": 53.38034585217226, "lat": 35.573626080797986}], "lng": 53.38034585217226, "country": "ایران", "city": "سمنان", "formattedAddress": ["Hefdah-e Shahrivar Blvd", "سمنان, سمنان", "ایران"], "state": "سمنان"}}, {"referralId": "v-1505909695", "specials": {"items": [], "count": 0}, "categories": [{"name": "Hotel", "pluralName": "Hotels", "id": "4bf58dd8d48988d1fa931735", "icon": {"prefix": "https://ss3.4sqi.net/img/categories_v2/travel/hotel_", "suffix": ".png"}, "primary": true, "shortName": "Hotel"}], "hasPerk": false, "contact": {}, "beenHere": {"lastCheckinExpiredAt": 0}, "verified": false, "stats": {"checkinsCount": 46, "usersCount": 31, "tipCount": 3}, "name": "Gootkemall Hotel", "id": "56d9b3dccd104c19d7899c75", "allowMenuUrlEdit": true, "venueChains": [], "location": {"cc": "IR", "lat": 35.575217, "lng": 53.382116, "labeledLatLngs": [{"label": "display", "lng": 53.382116, "lat": 35.575217}], "country": "ایران", "formattedAddress": ["ایران"]}}, {"referralId": "v-1505909695", "specials": {"items": [], "count": 0}, "categories": [{"name": "Fast Food Restaurant", "pluralName": "Fast Food Restaurants", "id": "4bf58dd8d48988d16e941735", "icon": {"prefix": "https://ss3.4sqi.net/img/categories_v2/food/fastfood_", "suffix": ".png"}, "primary": true, "shortName": "Fast Food"}], "hasPerk": false, "contact": {"formattedPhone": "+98 213350000", "phone": "+98213350000"}, "beenHere": {"lastCheckinExpiredAt": 0}, "verified": false, "stats": {"checkinsCount": 88, "usersCount": 51, "tipCount": 12}, "name": "City Star Fast Food | فست فود ستاره شهر", "id": "5320a0c711d2041b58b7b978", "allowMenuUrlEdit": true, "venueChains": [], "location": {"cc": "IR", "address": "Hefdah-e Shahrivar Blvd.", "lat": 35.57198652686506, "labeledLatLngs": [{"label": "display", "lng": 53.37917560587574, "lat": 35.57198652686506}], "lng": 53.37917560587574, "country": "ایران", "city": "سمنان", "formattedAddress": ["Hefdah-e Shahrivar Blvd.", "سمنان, سمنان", "ایران"], "state": "سمنان"}}, {"referralId": "v-1505909695", "specials": {"items": [], "count": 0}, "categories": [{"name": "Bus Station", "pluralName": "Bus Stations", "id": "4bf58dd8d48988d1fe931735", "icon": {"prefix": "https://ss3.4sqi.net/img/categories_v2/travel/busstation_", "suffix": ".png"}, "primary": true, "shortName": "Bus Station"}], "hasPerk": false, "contact": {}, "beenHere": {"lastCheckinExpiredAt": 0}, "verified": false, "stats": {"checkinsCount": 281, "usersCount": 60, "tipCount": 2}, "name": "Semnan West Terminal | ترمینال غرب سمنان", "id": "521c3664498e2b6588ea86fa", "venueChains": [], "location": {"cc": "IR", "lat": 35.571053917869634, "lng": 53.36063860489236, "labeledLatLngs": [{"label": "display", "lng": 53.36063860489236, "lat": 35.571053917869634}], "state": "سمنان", "country": "ایران", "city": "سمنان", "formattedAddress": ["سمنان, سمنان", "ایران"]}}, {"referralId": "v-1505909696", "specials": {"items": [], "count": 0}, "categories": [{"name": "BBQ Joint", "pluralName": "BBQ Joints", "id": "4bf58dd8d48988d1df931735", "icon": {"prefix": "https://ss3.4sqi.net/img/categories_v2/food/bbqalt_", "suffix": ".png"}, "primary": true, "shortName": "BBQ"}], "hasPerk": false, "contact": {}, "beenHere": {"lastCheckinExpiredAt": 0}, "verified": false, "stats": {"checkinsCount": 49, "usersCount": 16, "tipCount": 4}, "name": "Baba Golshan Jigaraki | جيگركى بابا گلشن", "id": "5429ae56498e550c05c86508", "allowMenuUrlEdit": true, "venueChains": [], "location": {"state": "سمنان", "lng": 53.39340957270786, "address": "Mirzay-e Shirazi Blvd", "lat": 35.577287655620104, "labeledLatLngs": [{"label": "display", "lng": 53.39340957270786, "lat": 35.577287655620104}], "cc": "IR", "country": "ایران", "city": "سمنان", "formattedAddress": ["Mirzay-e Shirazi Blvd (Mashahir Sq)", "سمنان, سمنان", "ایران"], "crossStreet": "Mashahir Sq"}}, {"referralId": "v-1505909696", "specials": {"items": [], "count": 0}, "categories": [{"name": "Modern European Restaurant", "pluralName": "Modern European Restaurants", "id": "52e81612bcbc57f1066b79f9", "icon": {"prefix": "https://ss3.4sqi.net/img/categories_v2/food/default_", "suffix": ".png"}, "primary": true, "shortName": "Modern European"}], "hasPerk": false, "contact": {}, "beenHere": {"lastCheckinExpiredAt": 0}, "verified": false, "stats": {"checkinsCount": 2, "usersCount": 1, "tipCount": 0}, "name": "Darchin/دارچین", "id": "5881f060727ba3235ce2d4ce", "allowMenuUrlEdit": true, "venueChains": [], "location": {"cc": "IR", "lat": 35.57751, "lng": 53.395793, "labeledLatLngs": [{"label": "display", "lng": 53.395793, "lat": 35.57751}], "country": "ایران", "formattedAddress": ["ایران"]}}, {"referralId": "v-1505909696", "specials": {"items": [], "count": 0}, "categories": [{"name": "Residential Building (Apartment / Condo)", "pluralName": "Residential Buildings (Apartments / Condos)", "id": "4d954b06a243a5684965b473", "icon": {"prefix": "https://ss3.4sqi.net/img/categories_v2/building/apartment_", "suffix": ".png"}, "primary": true, "shortName": "Residential"}], "hasPerk": false, "contact": {}, "beenHere": {"lastCheckinExpiredAt": 0}, "verified": false, "stats": {"checkinsCount": 3, "usersCount": 2, "tipCount": 0}, "name": "My Pillow", "id": "57840eee498eb537baeaa469", "venueChains": [], "venueRatingBlacklisted": true, "location": {"cc": "IR", "lat": 35.576824, "lng": 53.396206, "labeledLatLngs": [{"label": "display", "lng": 53.396206, "lat": 35.576824}], "country": "ایران", "formattedAddress": ["ایران"]}}, {"referralId": "v-1505909696", "specials": {"items": [], "count": 0}, "categories": [{"name": "University", "pluralName": "Universities", "id": "4bf58dd8d48988d1ae941735", "icon": {"prefix": "https://ss3.4sqi.net/img/categories_v2/education/default_", "suffix": ".png"}, "primary": true, "shortName": "University"}], "hasPerk": false, "contact": {}, "beenHere": {"lastCheckinExpiredAt": 0}, "verified": false, "stats": {"checkinsCount": 6, "usersCount": 2, "tipCount": 0}, "name": "دانشکده گردشگری و کویر شناسی", "id": "58196e80b1488442b4a3b1fd", "venueChains": [], "venueRatingBlacklisted": true, "location": {"cc": "IR", "lat": 35.57599, "lng": 53.38837, "labeledLatLngs": [{"label": "display", "lng": 53.38837, "lat": 35.57599}], "state": "سمنان", "country": "ایران", "city": "سمنان", "formattedAddress": ["سمنان, سمنان", "ایران"]}}, {"referralId": "v-1505909696", "specials": {"items": [], "count": 0}, "categories": [{"name": "Café", "pluralName": "Cafés", "id": "4bf58dd8d48988d16d941735", "icon": {"prefix": "https://ss3.4sqi.net/img/categories_v2/food/cafe_", "suffix": ".png"}, "primary": true, "shortName": "Café"}], "hasPerk": false, "contact": {}, "beenHere": {"lastCheckinExpiredAt": 0}, "verified": false, "stats": {"checkinsCount": 6, "usersCount": 4, "tipCount": 0}, "name": "Tatli Cafe | كافه تاتلى", "id": "5659df04498ea43abd3761a7", "allowMenuUrlEdit": true, "venueChains": [], "location": {"cc": "IR", "lng": 53.39584016111081, "lat": 35.577432942658795, "labeledLatLngs": [{"label": "display", "lng": 53.39584016111081, "lat": 35.577432942658795}], "state": "سمنان", "country": "ایران", "city": "سمنان", "formattedAddress": ["Ghods Blv", "سمنان, سمنان", "ایران"], "crossStreet": "Ghods Blv"}}, {"referralId": "v-1505909696", "specials": {"items": [], "count": 0}, "categories": [{"name": "Coffee Shop", "pluralName": "Coffee Shops", "id": "4bf58dd8d48988d1e0931735", "icon": {"prefix": "https://ss3.4sqi.net/img/categories_v2/food/coffeeshop_", "suffix": ".png"}, "primary": true, "shortName": "Coffee Shop"}], "hasPerk": false, "contact": {}, "beenHere": {"lastCheckinExpiredAt": 0}, "verified": false, "stats": {"checkinsCount": 10, "usersCount": 5, "tipCount": 2}, "name": "Sadaf Coffee Shop | کافی‌شاپ زنجیره‌ای صدف", "id": "52bcc63411d2d3796b0f4e23", "allowMenuUrlEdit": true, "venueChains": [], "location": {"state": "سمنان", "lng": 53.400399684906006, "address": "Mehregan Shopping Mall", "lat": 35.56718628673153, "labeledLatLngs": [{"label": "display", "lng": 53.400399684906006, "lat": 35.56718628673153}], "cc": "IR", "country": "ایران", "city": "سمنان", "formattedAddress": ["Mehregan Shopping Mall (Imam St.)", "سمنان, سمنان", "ایران"], "crossStreet": "Imam St."}}, {"referralId": "v-1505909696", "specials": {"items": [], "count": 0}, "categories": [{"name": "Fast Food Restaurant", "pluralName": "Fast Food Restaurants", "id": "4bf58dd8d48988d16e941735", "icon": {"prefix": "https://ss3.4sqi.net/img/categories_v2/food/fastfood_", "suffix": ".png"}, "primary": true, "shortName": "Fast Food"}], "hasPerk": false, "contact": {}, "beenHere": {"lastCheckinExpiredAt": 0}, "verified": false, "stats": {"checkinsCount": 4, "usersCount": 4, "tipCount": 0}, "name": "NoNo Fast Food | فست فود نونو", "id": "5373a031498eb8ad81c58a31", "allowMenuUrlEdit": true, "venueChains": [], "location": {"state": "سمنان", "lng": 53.39841846360808, "address": "Mashahir Sq.", "lat": 35.57583186001032, "labeledLatLngs": [{"label": "display", "lng": 53.39841846360808, "lat": 35.57583186001032}], "cc": "IR", "country": "ایران", "city": "سمنان", "formattedAddress": ["Mashahir Sq. (North Haft-e Tir St.)", "سمنان, سمنان", "ایران"], "crossStreet": "North Haft-e Tir St."}}, {"referralId": "v-1505909696", "specials": {"items": [], "count": 0}, "categories": [{"name": "Doctor's Office", "pluralName": "Doctor's Offices", "id": "4bf58dd8d48988d177941735", "icon": {"prefix": "https://ss3.4sqi.net/img/categories_v2/building/medical_doctorsoffice_", "suffix": ".png"}, "primary": true, "shortName": "Doctor's Office"}], "hasPerk": false, "contact": {}, "beenHere": {"lastCheckinExpiredAt": 0}, "verified": false, "stats": {"checkinsCount": 9, "usersCount": 4, "tipCount": 1}, "name": "Sadaf Building | ساختمان پزشکان صدف", "id": "507d60cae4b07390829a72b0", "allowMenuUrlEdit": true, "venueChains": [], "venueRatingBlacklisted": true, "location": {"cc": "IR", "lat": 35.574566, "lng": 53.388357, "labeledLatLngs": [{"label": "display", "lng": 53.388357, "lat": 35.574566}], "state": "سمنان", "country": "ایران", "city": "سمنان", "formattedAddress": ["سمنان, سمنان", "ایران"]}}, {"referralId": "v-1505909696", "specials": {"items": [], "count": 0}, "categories": [{"name": "Café", "pluralName": "Cafés", "id": "4bf58dd8d48988d16d941735", "icon": {"prefix": "https://ss3.4sqi.net/img/categories_v2/food/cafe_", "suffix": ".png"}, "primary": true, "shortName": "Café"}], "hasPerk": false, "contact": {}, "beenHere": {"lastCheckinExpiredAt": 0}, "verified": false, "stats": {"checkinsCount": 5, "usersCount": 5, "tipCount": 1}, "name": "cafe radio", "id": "5718e19fcd109d890c6c0a32", "allowMenuUrlEdit": true, "venueChains": [], "location": {"cc": "IR", "lat": 35.576006, "lng": 53.392902, "labeledLatLngs": [{"label": "display", "lng": 53.392902, "lat": 35.576006}], "country": "ایران", "formattedAddress": ["ایران"]}}, {"referralId": "v-1505909696", "specials": {"items": [], "count": 0}, "categories": [{"name": "Kebab Restaurant", "pluralName": "Kebab Restaurants", "id": "5283c7b4e4b094cb91ec88d7", "icon": {"prefix": "https://ss3.4sqi.net/img/categories_v2/food/middleeastern_", "suffix": ".png"}, "primary": true, "shortName": "Kebab"}], "hasPerk": false, "contact": {}, "beenHere": {"lastCheckinExpiredAt": 0}, "verified": false, "stats": {"checkinsCount": 15, "usersCount": 11, "tipCount": 2}, "name": "مجموعه تاریخی، فرهنگی و پذیرایی زندگی", "id": "57c72124498efdeeb4b88df7", "allowMenuUrlEdit": true, "venueChains": [], "location": {"state": "سمنان", "lng": 53.395893, "address": "خیابان کهنه دژ", "lat": 35.569206, "labeledLatLngs": [{"label": "display", "lng": 53.395893, "lat": 35.569206}], "cc": "IR", "country": "ایران", "city": "سمنان", "formattedAddress": ["خیابان کهنه دژ (کهنه دژ سیزدهم)", "سمنان, سمنان", "ایران"], "crossStreet": "کهنه دژ سیزدهم"}}, {"referralId": "v-1505909696", "specials": {"items": [], "count": 0}, "categories": [{"name": "Salon / Barbershop", "pluralName": "Salons / Barbershops", "id": "4bf58dd8d48988d110951735", "icon": {"prefix": "https://ss3.4sqi.net/img/categories_v2/shops/salon_barber_", "suffix": ".png"}, "primary": true, "shortName": "Salon / Barbershop"}], "hasPerk": false, "contact": {}, "beenHere": {"lastCheckinExpiredAt": 0}, "verified": false, "stats": {"checkinsCount": 4, "usersCount": 2, "tipCount": 0}, "name": "آرایشگاه هنرمند", "id": "5808d1b538fac27dc41a997a", "allowMenuUrlEdit": true, "venueChains": [], "location": {"cc": "IR", "lat": 35.57068, "lng": 53.39609, "labeledLatLngs": [{"label": "display", "lng": 53.39609, "lat": 35.57068}], "country": "ایران", "formattedAddress": ["ایران"]}}, {"referralId": "v-1505909696", "specials": {"items": [], "count": 0}, "categories": [{"name": "Café", "pluralName": "Cafés", "id": "4bf58dd8d48988d16d941735", "icon": {"prefix": "https://ss3.4sqi.net/img/categories_v2/food/cafe_", "suffix": ".png"}, "primary": true, "shortName": "Café"}], "hasPerk": false, "contact": {}, "beenHere": {"lastCheckinExpiredAt": 0}, "verified": false, "stats": {"checkinsCount": 6, "usersCount": 6, "tipCount": 0}, "name": "كافه تارا جديده", "id": "568d2990498e619efc9b4399", "allowMenuUrlEdit": true, "venueChains": [], "location": {"cc": "IR", "lat": 35.574473, "lng": 53.38788, "labeledLatLngs": [{"label": "display", "lng": 53.38788, "lat": 35.574473}], "country": "ایران", "formattedAddress": ["ایران"]}}, {"referralId": "v-1505909696", "specials": {"items": [], "count": 0}, "categories": [{"name": "Café", "pluralName": "Cafés", "id": "4bf58dd8d48988d16d941735", "icon": {"prefix": "https://ss3.4sqi.net/img/categories_v2/food/cafe_", "suffix": ".png"}, "primary": true, "shortName": "Café"}], "hasPerk": false, "contact": {}, "beenHere": {"lastCheckinExpiredAt": 0}, "verified": false, "stats": {"checkinsCount": 2, "usersCount": 2, "tipCount": 1}, "name": "امیرشکلات", "id": "58403435c960277a0277f170", "allowMenuUrlEdit": true, "venueChains": [], "location": {"cc": "IR", "lat": 35.576073, "lng": 53.398006, "labeledLatLngs": [{"label": "display", "lng": 53.398006, "lat": 35.576073}], "state": "سمنان", "country": "ایران", "city": "سمنان", "formattedAddress": ["سمنان, سمنان", "ایران"]}}, {"referralId": "v-1505909696", "specials": {"items": [], "count": 0}, "categories": [{"name": "Bus Station", "pluralName": "Bus Stations", "id": "4bf58dd8d48988d1fe931735", "icon": {"prefix": "https://ss3.4sqi.net/img/categories_v2/travel/busstation_", "suffix": ".png"}, "primary": true, "shortName": "Bus Station"}], "hasPerk": false, "contact": {}, "beenHere": {"lastCheckinExpiredAt": 0}, "verified": false, "stats": {"checkinsCount": 1, "usersCount": 1, "tipCount": 0}, "name": "bus station of kondor", "id": "588231e6d60c8b2e0eec6752", "venueChains": [], "location": {"cc": "IR", "lat": 35.577356, "lng": 53.394691, "labeledLatLngs": [{"label": "display", "lng": 53.394691, "lat": 35.577356}], "country": "ایران", "formattedAddress": ["ایران"]}}, {"referralId": "v-1505909696", "specials": {"items": [], "count": 0}, "categories": [{"name": "Optical Shop", "pluralName": "Optical Shops", "id": "4d954afda243a5684865b473", "icon": {"prefix": "https://ss3.4sqi.net/img/categories_v2/building/medical_opticalshop_", "suffix": ".png"}, "primary": true, "shortName": "Optical"}], "hasPerk": false, "contact": {}, "beenHere": {"lastCheckinExpiredAt": 0}, "verified": false, "stats": {"checkinsCount": 1, "usersCount": 1, "tipCount": 0}, "name": "نگاه", "id": "57433818498e565e267a9d92", "allowMenuUrlEdit": true, "venueChains": [], "venueRatingBlacklisted": true, "location": {"cc": "IR", "lat": 35.574192, "lng": 53.388349, "labeledLatLngs": [{"label": "display", "lng": 53.388349, "lat": 35.574192}], "country": "ایران", "formattedAddress": ["ایران"]}}, {"referralId": "v-1505909696", "specials": {"items": [], "count": 0}, "categories": [{"name": "Bookstore", "pluralName": "Bookstores", "id": "4bf58dd8d48988d114951735", "icon": {"prefix": "https://ss3.4sqi.net/img/categories_v2/shops/bookstore_", "suffix": ".png"}, "primary": true, "shortName": "Bookstore"}], "hasPerk": false, "contact": {}, "beenHere": {"lastCheckinExpiredAt": 0}, "verified": false, "stats": {"checkinsCount": 1, "usersCount": 1, "tipCount": 0}, "name": "كتاب فروشي سوشيانس", "id": "58626fdea36ecd3c73858ad2", "allowMenuUrlEdit": true, "venueChains": [], "location": {"cc": "IR", "lat": 35.576173, "lng": 53.395796, "labeledLatLngs": [{"label": "display", "lng": 53.395796, "lat": 35.576173}], "country": "ایران", "formattedAddress": ["ایران"]}}, {"referralId": "v-1505909696", "specials": {"items": [], "count": 0}, "categories": [{"name": "History Museum", "pluralName": "History Museums", "id": "4bf58dd8d48988d190941735", "icon": {"prefix": "https://ss3.4sqi.net/img/categories_v2/arts_entertainment/museum_history_", "suffix": ".png"}, "primary": true, "shortName": "History Museum"}], "hasPerk": false, "contact": {}, "beenHere": {"lastCheckinExpiredAt": 0}, "verified": false, "stats": {"checkinsCount": 5, "usersCount": 5, "tipCount": 2}, "name": "Koomesh Coin Museum | موزه سکه کومش", "id": "55166819498ec7be3d2dae88", "allowMenuUrlEdit": true, "venueChains": [], "location": {"cc": "IR", "address": "Semnan Bazaar", "lat": 35.56681299821317, "labeledLatLngs": [{"label": "display", "lng": 53.40027974732452, "lat": 35.56681299821317}], "lng": 53.40027974732452, "country": "ایران", "city": "سمنان", "formattedAddress": ["Semnan Bazaar", "سمنان, سمنان", "ایران"], "state": "سمنان"}}, {"referralId": "v-1505909696", "specials": {"items": [], "count": 0}, "categories": [{"name": "Salon / Barbershop", "pluralName": "Salons / Barbershops", "id": "4bf58dd8d48988d110951735", "icon": {"prefix": "https://ss3.4sqi.net/img/categories_v2/shops/salon_barber_", "suffix": ".png"}, "primary": true, "shortName": "Salon / Barbershop"}], "hasPerk": false, "contact": {}, "beenHere": {"lastCheckinExpiredAt": 0}, "verified": false, "stats": {"checkinsCount": 5, "usersCount": 1, "tipCount": 0}, "name": "پيرايشگاه پسران خورشيد | Pesarane Khorshid Barbershop", "id": "5565e460498ecd871f4fa6f2", "allowMenuUrlEdit": true, "venueChains": [], "location": {"cc": "IR", "address": "Shora Blvd", "lat": 35.574782, "labeledLatLngs": [{"label": "display", "lng": 53.395312, "lat": 35.574782}], "lng": 53.395312, "country": "ایران", "city": "سمنان", "formattedAddress": ["Shora Blvd", "سمنان, سمنان", "ایران"], "state": "سمنان"}}, {"referralId": "v-1505909696", "specials": {"items": [], "count": 0}, "categories": [{"name": "Miscellaneous Shop", "pluralName": "Miscellaneous Shops", "id": "4bf58dd8d48988d1ff941735", "icon": {"prefix": "https://ss3.4sqi.net/img/categories_v2/shops/default_", "suffix": ".png"}, "primary": true, "shortName": "Shop"}], "hasPerk": false, "contact": {}, "beenHere": {"lastCheckinExpiredAt": 0}, "verified": false, "stats": {"checkinsCount": 3, "usersCount": 2, "tipCount": 1}, "name": "Classic Gallery | گالری کلاسیک", "id": "525981b811d2c946a747dc4e", "allowMenuUrlEdit": true, "venueChains": [], "location": {"cc": "IR", "address": "Yaser St, Mashahir Sq", "lat": 35.57716751098633, "labeledLatLngs": [{"label": "display", "lng": 53.3944091796875, "lat": 35.57716751098633}], "lng": 53.3944091796875, "country": "ایران", "city": "سمنان", "formattedAddress": ["Yaser St, Mashahir Sq", "سمنان, سمنان", "ایران"], "state": "سمنان"}}, {"referralId": "v-1505909696", "specials": {"items": [], "count": 0}, "categories": [{"name": "Falafel Restaurant", "pluralName": "Falafel Restaurants", "id": "4bf58dd8d48988d10b941735", "icon": {"prefix": "https://ss3.4sqi.net/img/categories_v2/food/falafel_", "suffix": ".png"}, "primary": true, "shortName": "Falafel"}], "hasPerk": false, "contact": {}, "beenHere": {"lastCheckinExpiredAt": 0}, "verified": false, "stats": {"checkinsCount": 2, "usersCount": 2, "tipCount": 0}, "name": "Navid Ahvazi | نويد اهوازي", "id": "581e167a19fca35001d6e54e", "allowMenuUrlEdit": true, "venueChains": [], "location": {"cc": "IR", "lat": 35.57186, "lng": 53.392246, "labeledLatLngs": [{"label": "display", "lng": 53.392246, "lat": 35.57186}], "country": "ایران", "formattedAddress": ["ایران"]}}, {"referralId": "v-1505909696", "specials": {"items": [], "count": 0}, "categories": [{"name": "BBQ Joint", "pluralName": "BBQ Joints", "id": "4bf58dd8d48988d1df931735", "icon": {"prefix": "https://ss3.4sqi.net/img/categories_v2/food/bbqalt_", "suffix": ".png"}, "primary": true, "shortName": "BBQ"}], "hasPerk": false, "contact": {}, "beenHere": {"lastCheckinExpiredAt": 0}, "verified": false, "stats": {"checkinsCount": 4, "usersCount": 3, "tipCount": 0}, "name": "جيگركى ارگ | Arg Jigaraki", "id": "57226013498e50261435512a", "allowMenuUrlEdit": true, "venueChains": [], "location": {"cc": "IR", "lng": 53.394172, "lat": 35.575223, "labeledLatLngs": [{"label": "display", "lng": 53.394172, "lat": 35.575223}], "state": "سمنان", "country": "ایران", "city": "سمنان", "formattedAddress": ["Arg Sq.", "سمنان, سمنان", "ایران"], "crossStreet": "Arg Sq."}}, {"referralId": "v-1505909696", "specials": {"items": [], "count": 0}, "categories": [{"name": "Juice Bar", "pluralName": "Juice Bars", "id": "4bf58dd8d48988d112941735", "icon": {"prefix": "https://ss3.4sqi.net/img/categories_v2/food/juicebar_", "suffix": ".png"}, "primary": true, "shortName": "Juice Bar"}], "hasPerk": false, "contact": {}, "beenHere": {"lastCheckinExpiredAt": 0}, "verified": false, "stats": {"checkinsCount": 5, "usersCount": 4, "tipCount": 0}, "name": "amoo rahim", "id": "56842011498e543c9557ac09", "allowMenuUrlEdit": true, "venueChains": [], "location": {"cc": "IR", "lat": 35.574497, "lng": 53.38925, "labeledLatLngs": [{"label": "display", "lng": 53.38925, "lat": 35.574497}], "country": "ایران", "formattedAddress": ["ایران"]}}, {"referralId": "v-1505909696", "specials": {"items": [], "count": 0}, "categories": [{"name": "Drugstore", "pluralName": "Drugstores", "id": "5745c2e4498e11e7bccabdbd", "icon": {"prefix": "https://ss3.4sqi.net/img/categories_v2/shops/pharmacy_", "suffix": ".png"}, "primary": true, "shortName": "Drugstore"}], "hasPerk": false, "contact": {}, "beenHere": {"lastCheckinExpiredAt": 0}, "verified": false, "stats": {"checkinsCount": 2, "usersCount": 2, "tipCount": 0}, "name": "داروخانه حكيم", "id": "583340356b0cdb3ef0ce47c1", "allowMenuUrlEdit": true, "venueChains": [], "location": {"cc": "IR", "lat": 35.574361, "lng": 53.390252, "labeledLatLngs": [{"label": "display", "lng": 53.390252, "lat": 35.574361}], "country": "ایران", "formattedAddress": ["ایران"]}}, {"referralId": "v-1505909696", "specials": {"items": [], "count": 0}, "categories": [{"name": "Government Building", "pluralName": "Government Buildings", "id": "4bf58dd8d48988d126941735", "icon": {"prefix": "https://ss3.4sqi.net/img/categories_v2/building/government_", "suffix": ".png"}, "primary": true, "shortName": "Government"}], "hasPerk": false, "contact": {}, "beenHere": {"lastCheckinExpiredAt": 0}, "verified": false, "stats": {"checkinsCount": 2, "usersCount": 2, "tipCount": 0}, "name": "اداره کل آموزش و پرورش استان سمنان", "id": "57dcee38498e5359fe8cd808", "venueChains": [], "venueRatingBlacklisted": true, "location": {"cc": "IR", "address": "خیابان سعدی", "lat": 35.568431, "labeledLatLngs": [{"label": "display", "lng": 53.394966, "lat": 35.568431}], "lng": 53.394966, "country": "ایران", "city": "سمنان", "formattedAddress": ["خیابان سعدی", "سمنان, سمنان", "ایران"], "state": "سمنان"}}, {"referralId": "v-1505909696", "specials": {"items": [], "count": 0}, "categories": [{"name": "Persian Restaurant", "pluralName": "Persian Restaurants", "id": "52e81612bcbc57f1066b79f7", "icon": {"prefix": "https://ss3.4sqi.net/img/categories_v2/food/middleeastern_", "suffix": ".png"}, "primary": true, "shortName": "Persian"}], "hasPerk": false, "contact": {}, "beenHere": {"lastCheckinExpiredAt": 0}, "verified": false, "stats": {"checkinsCount": 3, "usersCount": 3, "tipCount": 0}, "name": "طباخي صدقي Sedqi Restaurant", "id": "55f23ba0498e75eb68d5f4b4", "allowMenuUrlEdit": true, "venueChains": [], "location": {"cc": "IR", "lat": 35.57042694091797, "lng": 53.40345764160156, "labeledLatLngs": [{"label": "display", "lng": 53.40345764160156, "lat": 35.57042694091797}], "country": "ایران", "formattedAddress": ["ایران"]}}, {"referralId": "v-1505909696", "specials": {"items": [], "count": 0}, "categories": [{"name": "Ice Cream Shop", "pluralName": "Ice Cream Shops", "id": "4bf58dd8d48988d1c9941735", "icon": {"prefix": "https://ss3.4sqi.net/img/categories_v2/food/icecream_", "suffix": ".png"}, "primary": true, "shortName": "Ice Cream"}], "hasPerk": false, "contact": {}, "beenHere": {"lastCheckinExpiredAt": 0}, "verified": false, "stats": {"checkinsCount": 12, "usersCount": 8, "tipCount": 0}, "name": "Baba Rahim Ice Cream Shop | بستنی بابارحیم", "id": "56faa221cd102a25b92dad2a", "allowMenuUrlEdit": true, "venueChains": [], "location": {"cc": "IR", "lat": 35.576127582305595, "lng": 53.39816537477437, "labeledLatLngs": [{"label": "display", "lng": 53.39816537477437, "lat": 35.576127582305595}], "country": "ایران", "formattedAddress": ["ایران"]}}, {"referralId": "v-1505909696", "specials": {"items": [], "count": 0}, "categories": [{"name": "Coffee Shop", "pluralName": "Coffee Shops", "id": "4bf58dd8d48988d1e0931735", "icon": {"prefix": "https://ss3.4sqi.net/img/categories_v2/food/coffeeshop_", "suffix": ".png"}, "primary": true, "shortName": "Coffee Shop"}], "hasPerk": false, "contact": {}, "beenHere": {"lastCheckinExpiredAt": 0}, "verified": false, "stats": {"checkinsCount": 3, "usersCount": 3, "tipCount": 0}, "name": "Ice Cream | بستنى نعمت", "id": "558857e9498e160089238ba3", "allowMenuUrlEdit": true, "venueChains": [], "location": {"cc": "IR", "lat": 35.575598898643946, "lng": 53.39340430036752, "labeledLatLngs": [{"label": "display", "lng": 53.39340430036752, "lat": 35.575598898643946}], "country": "ایران", "formattedAddress": ["ایران"]}}, {"referralId": "v-1505909696", "specials": {"items": [], "count": 0}, "categories": [{"name": "Grocery Store", "pluralName": "Grocery Stores", "id": "4bf58dd8d48988d118951735", "icon": {"prefix": "https://ss3.4sqi.net/img/categories_v2/shops/food_grocery_", "suffix": ".png"}, "primary": true, "shortName": "Grocery Store"}], "hasPerk": false, "contact": {}, "beenHere": {"lastCheckinExpiredAt": 0}, "verified": false, "stats": {"checkinsCount": 2, "usersCount": 1, "tipCount": 0}, "name": "سوپرمارکت شهروز", "id": "5849282f4886992a97e9a2bb", "allowMenuUrlEdit": true, "venueChains": [], "location": {"cc": "IR", "address": "Sa'adi square", "lat": 35.57461, "labeledLatLngs": [{"label": "display", "lng": 53.389652, "lat": 35.57461}], "lng": 53.389652, "country": "ایران", "city": "سمنان", "formattedAddress": ["Sa'adi square", "سمنان, سمنان", "ایران"], "state": "سمنان"}}, {"referralId": "v-1505909696", "specials": {"items": [], "count": 0}, "categories": [{"name": "Medical School", "pluralName": "Medical Schools", "id": "4bf58dd8d48988d1b3941735", "icon": {"prefix": "https://ss3.4sqi.net/img/categories_v2/building/medical_", "suffix": ".png"}, "primary": true, "shortName": "Medical School"}], "hasPerk": false, "contact": {}, "beenHere": {"lastCheckinExpiredAt": 0}, "verified": false, "stats": {"checkinsCount": 5, "usersCount": 2, "tipCount": 0}, "name": "دانشكده دندانپزشكى | Dentistry School of SemUMS", "id": "5670fb7c498e68441a84ed68", "venueChains": [], "venueRatingBlacklisted": true, "location": {"cc": "IR", "lat": 35.572978, "lng": 53.386119, "labeledLatLngs": [{"label": "display", "lng": 53.386119, "lat": 35.572978}], "country": "ایران", "formattedAddress": ["ایران"]}}, {"referralId": "v-1505909696", "specials": {"items": [], "count": 0}, "categories": [{"name": "Cafeteria", "pluralName": "Cafeterias", "id": "4bf58dd8d48988d128941735", "icon": {"prefix": "https://ss3.4sqi.net/img/categories_v2/education/cafeteria_", "suffix": ".png"}, "primary": true, "shortName": "Cafeteria"}], "hasPerk": false, "contact": {}, "beenHere": {"lastCheckinExpiredAt": 0}, "verified": false, "stats": {"checkinsCount": 4, "usersCount": 4, "tipCount": 0}, "name": "Kimeh Cafe | كافه كيمه", "id": "58286e748e003314e0c3bb2a", "allowMenuUrlEdit": true, "venueChains": [], "venueRatingBlacklisted": true, "location": {"cc": "IR", "lat": 35.576242, "lng": 53.396022, "labeledLatLngs": [{"label": "display", "lng": 53.396022, "lat": 35.576242}], "country": "ایران", "formattedAddress": ["ایران"]}}, {"referralId": "v-1505909697", "specials": {"items": [], "count": 0}, "categories": [{"name": "College Arts Building", "pluralName": "College Arts Buildings", "id": "4bf58dd8d48988d199941735", "icon": {"prefix": "https://ss3.4sqi.net/img/categories_v2/arts_entertainment/default_", "suffix": ".png"}, "primary": true, "shortName": "Arts"}], "hasPerk": false, "contact": {}, "beenHere": {"lastCheckinExpiredAt": 0}, "verified": false, "stats": {"checkinsCount": 13, "usersCount": 5, "tipCount": 0}, "name": "Faculty of Arts | دانشکده هنر", "id": "542109b5498e5719fff03620", "venueChains": [], "venueRatingBlacklisted": true, "location": {"cc": "IR", "address": "University of Semnan", "lat": 35.57287220025079, "labeledLatLngs": [{"label": "display", "lng": 53.43446070429774, "lat": 35.57287220025079}], "lng": 53.43446070429774, "country": "ایران", "city": "سمنان", "formattedAddress": ["University of Semnan", "سمنان, سمنان", "ایران"], "state": "سمنان"}}, {"referralId": "v-1505909698", "specials": {"items": [], "count": 0}, "categories": [{"name": "Residential Building (Apartment / Condo)", "pluralName": "Residential Buildings (Apartments / Condos)", "id": "4d954b06a243a5684965b473", "icon": {"prefix": "https://ss3.4sqi.net/img/categories_v2/building/apartment_", "suffix": ".png"}, "primary": true, "shortName": "Residential"}], "hasPerk": false, "contact": {}, "beenHere": {"lastCheckinExpiredAt": 0}, "verified": false, "stats": {"checkinsCount": 3, "usersCount": 3, "tipCount": 0}, "name": "Park Resendtial Complex | مجتمع مسکونی پارک", "id": "555f58d2498e52b9ee041a39", "venueChains": [], "venueRatingBlacklisted": true, "location": {"cc": "IR", "lat": 35.58598729026987, "lng": 53.36850190665486, "labeledLatLngs": [{"label": "display", "lng": 53.36850190665486, "lat": 35.58598729026987}], "country": "ایران", "formattedAddress": ["ایران"]}}, {"referralId": "v-1505909698", "specials": {"items": [], "count": 0}, "categories": [{"name": "Road", "pluralName": "Roads", "id": "4bf58dd8d48988d1f9931735", "icon": {"prefix": "https://ss3.4sqi.net/img/categories_v2/travel/highway_", "suffix": ".png"}, "primary": true, "shortName": "Road"}], "hasPerk": false, "contact": {}, "beenHere": {"lastCheckinExpiredAt": 0}, "verified": false, "stats": {"checkinsCount": 3, "usersCount": 3, "tipCount": 0}, "name": "جاده سمنان - فیروزکوه", "id": "56f54c6b498e03967d53a3a3", "venueChains": [], "venueRatingBlacklisted": true, "location": {"cc": "IR", "lat": 35.581284828553585, "lng": 53.368712730415595, "labeledLatLngs": [{"label": "display", "lng": 53.368712730415595, "lat": 35.581284828553585}], "country": "ایران", "formattedAddress": ["ایران"]}}, {"referralId": "v-1505909698", "specials": {"items": [], "count": 0}, "categories": [{"name": "General College & University", "pluralName": "General Colleges & Universities", "id": "4bf58dd8d48988d1a8941735", "icon": {"prefix": "https://ss3.4sqi.net/img/categories_v2/education/other_", "suffix": ".png"}, "primary": true, "shortName": "Education"}], "hasPerk": false, "contact": {}, "beenHere": {"lastCheckinExpiredAt": 0}, "verified": false, "stats": {"checkinsCount": 7, "usersCount": 1, "tipCount": 0}, "name": "آموزشگاه موسیقی ماهور", "id": "582db6fcc0633a27537b3897", "private": true, "venueChains": [], "venueRatingBlacklisted": true, "location": {"cc": "IR", "address": "golestan", "lat": 35.588978, "labeledLatLngs": [{"label": "display", "lng": 53.373814, "lat": 35.588978}], "lng": 53.373814, "country": "ایران", "formattedAddress": ["golestan", "ایران"]}}, {"referralId": "v-1505909698", "specials": {"items": [], "count": 0}, "categories": [{"name": "River", "pluralName": "Rivers", "id": "4eb1d4dd4b900d56c88a45fd", "icon": {"prefix": "https://ss3.4sqi.net/img/categories_v2/parks_outdoors/river_", "suffix": ".png"}, "primary": true, "shortName": "River"}], "hasPerk": false, "contact": {}, "beenHere": {"lastCheckinExpiredAt": 0}, "verified": false, "stats": {"checkinsCount": 3, "usersCount": 3, "tipCount": 0}, "name": "باغ فردوس", "id": "56414951498eccec4ec6af9e", "venueChains": [], "venueRatingBlacklisted": true, "location": {"cc": "IR", "lat": 35.590378701235906, "lng": 53.37011999423991, "labeledLatLngs": [{"label": "display", "lng": 53.37011999423991, "lat": 35.590378701235906}], "country": "ایران", "formattedAddress": ["ایران"]}}, {"referralId": "v-1505909698", "specials": {"items": [], "count": 0}, "categories": [{"name": "Coffee Shop", "pluralName": "Coffee Shops", "id": "4bf58dd8d48988d1e0931735", "icon": {"prefix": "https://ss3.4sqi.net/img/categories_v2/food/coffeeshop_", "suffix": ".png"}, "primary": true, "shortName": "Coffee Shop"}], "hasPerk": false, "contact": {}, "beenHere": {"lastCheckinExpiredAt": 0}, "verified": false, "stats": {"checkinsCount": 1, "usersCount": 1, "tipCount": 0}, "name": "Donya Coffee Shop | كافى شاپ دنيا", "id": "573d4eb2498e8c0033f43dca", "allowMenuUrlEdit": true, "venueChains": [], "location": {"cc": "IR", "lat": 35.592866, "lng": 53.370416, "labeledLatLngs": [{"label": "display", "lng": 53.370416, "lat": 35.592866}], "state": "سمنان", "country": "ایران", "city": "سمنان", "formattedAddress": ["سمنان, سمنان", "ایران"]}}, {"referralId": "v-1505909698", "specials": {"items": [], "count": 0}, "categories": [{"name": "Bathing Area", "pluralName": "Bathing Areas", "id": "52e81612bcbc57f1066b7a28", "icon": {"prefix": "https://ss3.4sqi.net/img/categories_v2/parks_outdoors/default_", "suffix": ".png"}, "primary": true, "shortName": "Bathing Area"}], "hasPerk": false, "contact": {}, "beenHere": {"lastCheckinExpiredAt": 0}, "verified": false, "stats": {"checkinsCount": 1, "usersCount": 1, "tipCount": 0}, "name": "baghe khale", "id": "572b8b97498e53c1a5dafded", "venueChains": [], "location": {"cc": "IR", "lat": 35.578125, "lng": 53.366611, "labeledLatLngs": [{"label": "display", "lng": 53.366611, "lat": 35.578125}], "state": "سمنان", "country": "ایران", "city": "سمنان", "formattedAddress": ["سمنان, سمنان", "ایران"]}}, {"referralId": "v-1505909698", "specials": {"items": [], "count": 0}, "categories": [{"name": "Gym", "pluralName": "Gyms", "id": "4bf58dd8d48988d176941735", "icon": {"prefix": "https://ss3.4sqi.net/img/categories_v2/building/gym_", "suffix": ".png"}, "primary": true, "shortName": "Gym"}], "hasPerk": false, "contact": {}, "beenHere": {"lastCheckinExpiredAt": 0}, "verified": false, "stats": {"checkinsCount": 5, "usersCount": 5, "tipCount": 0}, "name": "Hejab Gym | باشگاه ورزشی حجاب", "id": "54e9f1fd498ea96fc785abdf", "allowMenuUrlEdit": true, "venueChains": [], "location": {"cc": "IR", "address": "Velayat Blvd.", "lat": 35.579191, "labeledLatLngs": [{"label": "display", "lng": 53.372353, "lat": 35.579191}], "lng": 53.372353, "country": "ایران", "city": "سمنان", "formattedAddress": ["Velayat Blvd.", "سمنان, سمنان", "ایران"], "state": "سمنان"}}, {"referralId": "v-1505909698", "specials": {"items": [], "count": 0}, "categories": [{"name": "Residential Building (Apartment / Condo)", "pluralName": "Residential Buildings (Apartments / Condos)", "id": "4d954b06a243a5684965b473", "icon": {"prefix": "https://ss3.4sqi.net/img/categories_v2/building/apartment_", "suffix": ".png"}, "primary": true, "shortName": "Residential"}], "hasPerk": false, "contact": {}, "beenHere": {"lastCheckinExpiredAt": 0}, "verified": false, "stats": {"checkinsCount": 5, "usersCount": 3, "tipCount": 0}, "name": "Park-e Shaghayegh Complex | مجتمع مسکونی پارک شقایق", "id": "541601a9498e587dba0bcc0a", "venueChains": [], "venueRatingBlacklisted": true, "location": {"cc": "IR", "lat": 35.59027120288065, "lng": 53.37005147516339, "labeledLatLngs": [{"label": "display", "lng": 53.37005147516339, "lat": 35.59027120288065}], "state": "سمنان", "country": "ایران", "city": "سمنان", "formattedAddress": ["سمنان, سمنان", "ایران"]}}, {"referralId": "v-1505909698", "specials": {"items": [], "count": 0}, "categories": [{"name": "College Residence Hall", "pluralName": "College Residence Halls", "id": "4bf58dd8d48988d1a3941735", "icon": {"prefix": "https://ss3.4sqi.net/img/categories_v2/education/residencehall_", "suffix": ".png"}, "primary": true, "shortName": "Residence Hall"}], "hasPerk": false, "contact": {}, "beenHere": {"lastCheckinExpiredAt": 0}, "verified": false, "stats": {"checkinsCount": 2, "usersCount": 2, "tipCount": 0}, "name": "خوابگاه مریم", "id": "5704f769498e0bf50cb07d4d", "venueChains": [], "venueRatingBlacklisted": true, "location": {"cc": "IR", "lat": 35.578704, "lng": 53.380432, "labeledLatLngs": [{"label": "display", "lng": 53.380432, "lat": 35.578704}], "country": "ایران", "formattedAddress": ["ایران"]}}, {"referralId": "v-1505909698", "specials": {"items": [], "count": 0}, "categories": [{"name": "Middle Eastern Restaurant", "pluralName": "Middle Eastern Restaurants", "id": "4bf58dd8d48988d115941735", "icon": {"prefix": "https://ss3.4sqi.net/img/categories_v2/food/middleeastern_", "suffix": ".png"}, "primary": true, "shortName": "Middle Eastern"}], "hasPerk": false, "contact": {}, "beenHere": {"lastCheckinExpiredAt": 0}, "verified": false, "stats": {"checkinsCount": 11, "usersCount": 6, "tipCount": 1}, "name": "Osheh Restaurant | رستوران اوشه", "id": "50a284b2e4b09db6add30226", "allowMenuUrlEdit": true, "venueChains": [], "location": {"state": "سمنان", "lng": 53.368111884264074, "address": "Golestan Shopping Center", "lat": 35.58667933494354, "labeledLatLngs": [{"label": "display", "lng": 53.368111884264074, "lat": 35.58667933494354}], "cc": "IR", "country": "ایران", "city": "سمنان", "formattedAddress": ["Golestan Shopping Center (Baharestan Blvd)", "سمنان, سمنان", "ایران"], "crossStreet": "Baharestan Blvd"}}, {"referralId": "v-1505909698", "specials": {"items": [], "count": 0}, "categories": [{"name": "BBQ Joint", "pluralName": "BBQ Joints", "id": "4bf58dd8d48988d1df931735", "icon": {"prefix": "https://ss3.4sqi.net/img/categories_v2/food/bbqalt_", "suffix": ".png"}, "primary": true, "shortName": "BBQ"}], "hasPerk": false, "contact": {}, "beenHere": {"lastCheckinExpiredAt": 0}, "verified": false, "stats": {"checkinsCount": 11, "usersCount": 6, "tipCount": 1}, "name": "Dada Hossein Jigaraki | جگرکی دادا حسین", "id": "51fe9822498ef86630ca2e08", "allowMenuUrlEdit": true, "venueChains": [], "location": {"cc": "IR", "address": "Varzesh Blvd", "lat": 35.58821927889035, "labeledLatLngs": [{"label": "display", "lng": 53.376065580771744, "lat": 35.58821927889035}], "lng": 53.376065580771744, "country": "ایران", "city": "سمنان", "formattedAddress": ["Varzesh Blvd", "سمنان, سمنان", "ایران"], "state": "سمنان"}}, {"referralId": "v-1505909698", "specials": {"items": [], "count": 0}, "categories": [{"name": "Burger Joint", "pluralName": "Burger Joints", "id": "4bf58dd8d48988d16c941735", "icon": {"prefix": "https://ss3.4sqi.net/img/categories_v2/food/burger_", "suffix": ".png"}, "primary": true, "shortName": "Burgers"}], "hasPerk": false, "contact": {}, "beenHere": {"lastCheckinExpiredAt": 0}, "verified": false, "stats": {"checkinsCount": 8, "usersCount": 4, "tipCount": 0}, "name": "گريل مزه | Grill Maze", "id": "57d7cebe498ea406d90c867b", "allowMenuUrlEdit": true, "venueChains": [], "location": {"cc": "IR", "lat": 35.58696, "lng": 53.378797, "labeledLatLngs": [{"label": "display", "lng": 53.378797, "lat": 35.58696}], "state": "سمنان", "country": "ایران", "city": "سمنان", "formattedAddress": ["سمنان, سمنان", "ایران"]}}, {"referralId": "v-1505909698", "specials": {"items": [], "count": 0}, "categories": [{"name": "Residential Building (Apartment / Condo)", "pluralName": "Residential Buildings (Apartments / Condos)", "id": "4d954b06a243a5684965b473", "icon": {"prefix": "https://ss3.4sqi.net/img/categories_v2/building/apartment_", "suffix": ".png"}, "primary": true, "shortName": "Residential"}], "hasPerk": false, "contact": {}, "beenHere": {"lastCheckinExpiredAt": 0}, "verified": false, "stats": {"checkinsCount": 2, "usersCount": 2, "tipCount": 0}, "name": "مجتمع مسكوني نيلوفر", "id": "58943784cf11d448aae99237", "venueChains": [], "venueRatingBlacklisted": true, "location": {"cc": "IR", "address": "شقايق", "lat": 35.588115, "labeledLatLngs": [{"label": "display", "lng": 53.375929, "lat": 35.588115}], "lng": 53.375929, "country": "ایران", "city": "سمنان", "formattedAddress": ["شقايق", "سمنان, سمنان", "ایران"], "state": "سمنان"}}, {"referralId": "v-1505909698", "specials": {"items": [], "count": 0}, "categories": [{"name": "Building", "pluralName": "Buildings", "id": "4bf58dd8d48988d130941735", "icon": {"prefix": "https://ss3.4sqi.net/img/categories_v2/building/default_", "suffix": ".png"}, "primary": true, "shortName": "Building"}], "hasPerk": false, "contact": {}, "beenHere": {"lastCheckinExpiredAt": 0}, "verified": false, "stats": {"checkinsCount": 4, "usersCount": 3, "tipCount": 0}, "name": "خانه معلم سمنان", "id": "57a0b3e2498e84b6fe1ac3c9", "venueChains": [], "venueRatingBlacklisted": true, "location": {"cc": "IR", "lat": 35.579275, "lng": 53.381736, "labeledLatLngs": [{"label": "display", "lng": 53.381736, "lat": 35.579275}], "country": "ایران", "formattedAddress": ["ایران"]}}, {"referralId": "v-1505909698", "specials": {"items": [], "count": 0}, "categories": [{"name": "Kitchen Supply Store", "pluralName": "Kitchen Supply Stores", "id": "58daa1558bbb0b01f18ec1b4", "icon": {"prefix": "https://ss3.4sqi.net/img/categories_v2/shops/food_butcher_", "suffix": ".png"}, "primary": true, "shortName": "Kitchen Supply"}], "hasPerk": false, "contact": {}, "beenHere": {"lastCheckinExpiredAt": 0}, "verified": false, "stats": {"checkinsCount": 1, "usersCount": 1, "tipCount": 0}, "name": "خانه و کاشانه", "id": "59060d9566611669713ccaea", "allowMenuUrlEdit": true, "private": true, "venueChains": [], "location": {"cc": "IR", "address": "Semnan Province", "lat": 35.58137, "labeledLatLngs": [{"label": "display", "lng": 53.37261, "lat": 35.58137}], "lng": 53.37261, "country": "ایران", "city": "سمنان", "formattedAddress": ["Semnan Province", "سمنان, سمنان", "ایران"], "state": "سمنان"}}, {"referralId": "v-1505909698", "specials": {"items": [], "count": 0}, "categories": [{"name": "Dentist's Office", "pluralName": "Dentist's Offices", "id": "4bf58dd8d48988d178941735", "icon": {"prefix": "https://ss3.4sqi.net/img/categories_v2/building/medical_dentist_", "suffix": ".png"}, "primary": true, "shortName": "Dentist's Office"}], "hasPerk": false, "contact": {}, "beenHere": {"lastCheckinExpiredAt": 0}, "verified": false, "stats": {"checkinsCount": 2, "usersCount": 2, "tipCount": 0}, "name": "Dr. Mirmohammadkhani's Office | مطب دکتر میرمحمدخانی", "id": "54a92d17498e6b7e2d1b9da8", "allowMenuUrlEdit": true, "venueChains": [], "venueRatingBlacklisted": true, "location": {"cc": "IR", "address": "Golestan Blvd.", "lat": 35.58685263324596, "labeledLatLngs": [{"label": "display", "lng": 53.37186988730833, "lat": 35.58685263324596}], "lng": 53.37186988730833, "country": "ایران", "city": "سمنان", "formattedAddress": ["Golestan Blvd.", "سمنان, سمنان", "ایران"], "state": "سمنان"}}, {"referralId": "v-1505909698", "specials": {"items": [], "count": 0}, "categories": [{"name": "Pool Hall", "pluralName": "Pool Halls", "id": "4bf58dd8d48988d1e3931735", "icon": {"prefix": "https://ss3.4sqi.net/img/categories_v2/arts_entertainment/billiards_", "suffix": ".png"}, "primary": true, "shortName": "Billiards"}], "hasPerk": false, "contact": {}, "beenHere": {"lastCheckinExpiredAt": 0}, "verified": false, "stats": {"checkinsCount": 20, "usersCount": 6, "tipCount": 0}, "name": "Billiard Shaar | بيليارد شار", "id": "558c19f0498e19427e0e0e55", "allowMenuUrlEdit": true, "venueChains": [], "location": {"cc": "IR", "lat": 35.58769167601652, "lng": 53.366762633303416, "labeledLatLngs": [{"label": "display", "lng": 53.366762633303416, "lat": 35.58769167601652}], "country": "ایران", "formattedAddress": ["ایران"]}}, {"referralId": "v-1505909698", "specials": {"items": [], "count": 0}, "categories": [{"name": "Park", "pluralName": "Parks", "id": "4bf58dd8d48988d163941735", "icon": {"prefix": "https://ss3.4sqi.net/img/categories_v2/parks_outdoors/park_", "suffix": ".png"}, "primary": true, "shortName": "Park"}], "hasPerk": false, "contact": {}, "beenHere": {"lastCheckinExpiredAt": 0}, "verified": false, "stats": {"checkinsCount": 90, "usersCount": 23, "tipCount": 0}, "name": "Shaghayegh Park | پارک شقایق", "id": "5252e10911d25d7a042173e9", "venueChains": [], "location": {"cc": "IR", "address": "Shaghayegh St", "lat": 35.58606510459708, "labeledLatLngs": [{"label": "display", "lng": 53.36843338906056, "lat": 35.58606510459708}], "lng": 53.36843338906056, "country": "ایران", "city": "سمنان", "formattedAddress": ["Shaghayegh St", "سمنان, سمنان", "ایران"], "state": "سمنان"}}, {"referralId": "v-1505909698", "specials": {"items": [], "count": 0}, "categories": [{"name": "Middle Eastern Restaurant", "pluralName": "Middle Eastern Restaurants", "id": "4bf58dd8d48988d115941735", "icon": {"prefix": "https://ss3.4sqi.net/img/categories_v2/food/middleeastern_", "suffix": ".png"}, "primary": true, "shortName": "Middle Eastern"}], "hasPerk": false, "contact": {}, "beenHere": {"lastCheckinExpiredAt": 0}, "verified": false, "stats": {"checkinsCount": 69, "usersCount": 34, "tipCount": 10}, "name": "Irangardi Restaurant | رستوران ایرانگردی و جهانگردی", "id": "5129e03be4b0447bad56fa5b", "allowMenuUrlEdit": true, "venueChains": [], "location": {"cc": "IR", "lat": 35.59303073551534, "lng": 53.37850087758787, "labeledLatLngs": [{"label": "display", "lng": 53.37850087758787, "lat": 35.59303073551534}], "state": "سمنان", "country": "ایران", "city": "سمنان", "formattedAddress": ["سمنان, سمنان", "ایران"]}}, {"referralId": "v-1505909698", "specials": {"items": [], "count": 0}, "categories": [{"name": "Fast Food Restaurant", "pluralName": "Fast Food Restaurants", "id": "4bf58dd8d48988d16e941735", "icon": {"prefix": "https://ss3.4sqi.net/img/categories_v2/food/fastfood_", "suffix": ".png"}, "primary": true, "shortName": "Fast Food"}], "hasPerk": false, "contact": {}, "beenHere": {"lastCheckinExpiredAt": 0}, "verified": false, "stats": {"checkinsCount": 27, "usersCount": 18, "tipCount": 3}, "name": "فست فود ققنوس | Ghoghnoos Fast Food", "id": "567e7271498e4fc4ef290f68", "allowMenuUrlEdit": true, "venueChains": [], "location": {"cc": "IR", "lat": 35.58136341189474, "lng": 53.3723864298337, "labeledLatLngs": [{"label": "display", "lng": 53.3723864298337, "lat": 35.58136341189474}], "country": "ایران", "formattedAddress": ["ایران"]}}, {"referralId": "v-1505909698", "specials": {"items": [], "count": 0}, "categories": [{"name": "Mosque", "pluralName": "Mosques", "id": "4bf58dd8d48988d138941735", "icon": {"prefix": "https://ss3.4sqi.net/img/categories_v2/building/religious_mosque_", "suffix": ".png"}, "primary": true, "shortName": "Mosque"}], "hasPerk": false, "contact": {}, "beenHere": {"lastCheckinExpiredAt": 0}, "verified": false, "stats": {"checkinsCount": 3, "usersCount": 3, "tipCount": 0}, "name": "مسجد امیرالمؤمنین", "id": "566a3526498e603298a44f82", "venueChains": [], "venueRatingBlacklisted": true, "location": {"cc": "IR", "lat": 35.57786954685002, "lng": 53.37056800513311, "labeledLatLngs": [{"label": "display", "lng": 53.37056800513311, "lat": 35.57786954685002}], "country": "ایران", "formattedAddress": ["ایران"]}}, {"referralId": "v-1505909698", "specials": {"items": [], "count": 0}, "categories": [{"name": "Gift Shop", "pluralName": "Gift Shops", "id": "4bf58dd8d48988d128951735", "icon": {"prefix": "https://ss3.4sqi.net/img/categories_v2/shops/giftshop_", "suffix": ".png"}, "primary": true, "shortName": "Gift Shop"}], "hasPerk": false, "contact": {}, "beenHere": {"lastCheckinExpiredAt": 0}, "verified": false, "stats": {"checkinsCount": 11, "usersCount": 5, "tipCount": 0}, "name": "Exir Gallery | گالري اكسير", "id": "565dcfad498eb1ca612518e7", "allowMenuUrlEdit": true, "venueChains": [], "location": {"cc": "IR", "lat": 35.59036107159078, "lng": 53.37023594974314, "labeledLatLngs": [{"label": "display", "lng": 53.37023594974314, "lat": 35.59036107159078}], "state": "سمنان", "country": "ایران", "city": "سمنان", "formattedAddress": ["سمنان, سمنان", "ایران"]}}, {"referralId": "v-1505909698", "specials": {"items": [], "count": 0}, "categories": [{"name": "Library", "pluralName": "Libraries", "id": "4bf58dd8d48988d12f941735", "icon": {"prefix": "https://ss3.4sqi.net/img/categories_v2/building/library_", "suffix": ".png"}, "primary": true, "shortName": "Library"}], "hasPerk": false, "contact": {}, "beenHere": {"lastCheckinExpiredAt": 0}, "verified": false, "stats": {"checkinsCount": 7, "usersCount": 3, "tipCount": 0}, "name": "Kosar Library | كتابخانه كوثر", "id": "580489ff38fac0051552764d", "venueChains": [], "venueRatingBlacklisted": true, "location": {"cc": "IR", "lat": 35.583969, "lng": 53.364466, "labeledLatLngs": [{"label": "display", "lng": 53.364466, "lat": 35.583969}], "country": "ایران", "formattedAddress": ["ایران"]}}, {"referralId": "v-1505909698", "specials": {"items": [], "count": 0}, "categories": [{"name": "Park", "pluralName": "Parks", "id": "4bf58dd8d48988d163941735", "icon": {"prefix": "https://ss3.4sqi.net/img/categories_v2/parks_outdoors/park_", "suffix": ".png"}, "primary": true, "shortName": "Park"}], "hasPerk": false, "contact": {}, "beenHere": {"lastCheckinExpiredAt": 0}, "verified": false, "stats": {"checkinsCount": 2, "usersCount": 1, "tipCount": 0}, "name": "پارک آبشار", "id": "594421da58002c27e6d25fbb", "venueChains": [], "location": {"cc": "IR", "address": "بلوار ملعم، ۵۰۰ متر مانده به میدان نماز", "lat": 35.57994, "labeledLatLngs": [{"label": "display", "lng": 53.381653, "lat": 35.57994}], "lng": 53.381653, "country": "ایران", "city": "سمنان", "formattedAddress": ["بلوار ملعم، ۵۰۰ متر مانده به میدان نماز", "سمنان, سمنان", "ایران"], "state": "سمنان"}}, {"referralId": "v-1505909698", "specials": {"items": [], "count": 0}, "categories": [{"name": "University", "pluralName": "Universities", "id": "4bf58dd8d48988d1ae941735", "icon": {"prefix": "https://ss3.4sqi.net/img/categories_v2/education/default_", "suffix": ".png"}, "primary": true, "shortName": "University"}], "hasPerk": false, "contact": {}, "beenHere": {"lastCheckinExpiredAt": 0}, "verified": false, "stats": {"checkinsCount": 17, "usersCount": 10, "tipCount": 0}, "name": "ستاد مرکزی دانشگاه علوم پزشکی سمنان", "id": "552b7f30498e0306f1aaf9af", "venueChains": [], "venueRatingBlacklisted": true, "location": {"cc": "IR", "lat": 35.59111516983062, "lng": 53.38335589402983, "labeledLatLngs": [{"label": "display", "lng": 53.38335589402983, "lat": 35.59111516983062}], "country": "ایران", "formattedAddress": ["ایران"]}}, {"referralId": "v-1505909698", "specials": {"items": [], "count": 0}, "categories": [{"name": "Garden", "pluralName": "Gardens", "id": "4bf58dd8d48988d15a941735", "icon": {"prefix": "https://ss3.4sqi.net/img/categories_v2/parks_outdoors/garden_", "suffix": ".png"}, "primary": true, "shortName": "Garden"}], "hasPerk": false, "contact": {}, "beenHere": {"lastCheckinExpiredAt": 0}, "verified": false, "stats": {"checkinsCount": 27, "usersCount": 15, "tipCount": 0}, "name": "Imam Ali Square | میدان امام علی", "id": "555d11f0498e157739367f7c", "venueChains": [], "location": {"cc": "IR", "lat": 35.580213791395416, "lng": 53.37563862131293, "labeledLatLngs": [{"label": "display", "lng": 53.37563862131293, "lat": 35.580213791395416}], "country": "ایران", "formattedAddress": ["ایران"]}}, {"referralId": "v-1505909698", "specials": {"items": [], "count": 0}, "categories": [{"name": "Hotel", "pluralName": "Hotels", "id": "4bf58dd8d48988d1fa931735", "icon": {"prefix": "https://ss3.4sqi.net/img/categories_v2/travel/hotel_", "suffix": ".png"}, "primary": true, "shortName": "Hotel"}], "hasPerk": false, "contact": {}, "beenHere": {"lastCheckinExpiredAt": 0}, "verified": false, "stats": {"checkinsCount": 103, "usersCount": 71, "tipCount": 7}, "name": "Semnan Tourism Hotel | مهمانسرای ایرانگردی و جهانگردی سمنان", "id": "5224c17711d25c4826bfa0d7", "allowMenuUrlEdit": true, "venueChains": [], "location": {"cc": "IR", "address": "Basij Blvd", "lat": 35.59301102302845, "labeledLatLngs": [{"label": "display", "lng": 53.37843772756446, "lat": 35.59301102302845}], "lng": 53.37843772756446, "country": "ایران", "city": "سمنان", "formattedAddress": ["Basij Blvd", "سمنان, سمنان", "ایران"], "state": "سمنان"}}, {"referralId": "v-1505909698", "specials": {"items": [], "count": 0}, "categories": [{"name": "Hotel", "pluralName": "Hotels", "id": "4bf58dd8d48988d1fa931735", "icon": {"prefix": "https://ss3.4sqi.net/img/categories_v2/travel/hotel_", "suffix": ".png"}, "primary": true, "shortName": "Hotel"}], "hasPerk": false, "contact": {}, "beenHere": {"lastCheckinExpiredAt": 0}, "verified": false, "stats": {"checkinsCount": 11, "usersCount": 11, "tipCount": 0}, "name": "هتل جهانگردی سمنان", "id": "5866b17f076be150f698c2e8", "allowMenuUrlEdit": true, "venueChains": [], "location": {"state": "سمنان", "lng": 53.378616, "address": "semnan", "lat": 35.59257, "labeledLatLngs": [{"label": "display", "lng": 53.378616, "lat": 35.59257}], "cc": "IR", "country": "ایران", "city": "سمنان", "formattedAddress": ["semnan (semnan)", "سمنان, سمنان", "ایران"], "crossStreet": "semnan"}}, {"referralId": "v-1505909698", "specials": {"items": [], "count": 0}, "categories": [{"name": "Fountain", "pluralName": "Fountains", "id": "56aa371be4b08b9a8d573547", "icon": {"prefix": "https://ss3.4sqi.net/img/categories_v2/parks_outdoors/plaza_", "suffix": ".png"}, "primary": true, "shortName": "Fountain"}], "hasPerk": false, "contact": {}, "beenHere": {"lastCheckinExpiredAt": 0}, "verified": false, "stats": {"checkinsCount": 10, "usersCount": 7, "tipCount": 0}, "name": "ميدان كوثر", "id": "5708ed9a498ef64620da9043", "venueChains": [], "location": {"cc": "IR", "address": "سمنان ايران", "lat": 35.579402732996776, "labeledLatLngs": [{"label": "display", "lng": 53.38171116264078, "lat": 35.579402732996776}], "lng": 53.38171116264078, "country": "ایران", "city": "سمنان", "formattedAddress": ["سمنان ايران", "سمنان, سمنان", "ایران"], "state": "سمنان"}}, {"referralId": "v-1505909698", "specials": {"items": [], "count": 0}, "categories": [{"name": "Shopping Mall", "pluralName": "Shopping Malls", "id": "4bf58dd8d48988d1fd941735", "icon": {"prefix": "https://ss3.4sqi.net/img/categories_v2/shops/mall_", "suffix": ".png"}, "primary": true, "shortName": "Mall"}], "hasPerk": false, "contact": {}, "beenHere": {"lastCheckinExpiredAt": 0}, "verified": false, "stats": {"checkinsCount": 93, "usersCount": 53, "tipCount": 1}, "name": "Ghoghnoos Shopping Center | مجتمع تجاری ققنوس", "id": "55746cc4498ef85b1e282b7c", "venueChains": [], "location": {"cc": "IR", "address": "Imam Ali Sq", "lat": 35.581202265808344, "labeledLatLngs": [{"label": "display", "lng": 53.37290297592544, "lat": 35.581202265808344}], "lng": 53.37290297592544, "country": "ایران", "city": "سمنان", "formattedAddress": ["Imam Ali Sq", "سمنان, سمنان", "ایران"], "state": "سمنان"}}, {"referralId": "v-1505909699", "specials": {"items": [], "count": 0}, "categories": [{"name": "Road", "pluralName": "Roads", "id": "4bf58dd8d48988d1f9931735", "icon": {"prefix": "https://ss3.4sqi.net/img/categories_v2/travel/highway_", "suffix": ".png"}, "primary": true, "shortName": "Road"}], "hasPerk": false, "contact": {}, "beenHere": {"lastCheckinExpiredAt": 0}, "verified": false, "stats": {"checkinsCount": 2, "usersCount": 1, "tipCount": 0}, "name": "bagh family alley", "id": "588255b83cccc6572fee932d", "venueChains": [], "venueRatingBlacklisted": true, "location": {"cc": "IR", "lat": 35.580709, "lng": 53.396113, "labeledLatLngs": [{"label": "display", "lng": 53.396113, "lat": 35.580709}], "country": "ایران", "formattedAddress": ["ایران"]}}, {"referralId": "v-1505909699", "specials": {"items": [], "count": 0}, "categories": [{"name": "Gym", "pluralName": "Gyms", "id": "4bf58dd8d48988d176941735", "icon": {"prefix": "https://ss3.4sqi.net/img/categories_v2/building/gym_", "suffix": ".png"}, "primary": true, "shortName": "Gym"}], "hasPerk": false, "contact": {}, "beenHere": {"lastCheckinExpiredAt": 0}, "verified": false, "stats": {"checkinsCount": 3, "usersCount": 2, "tipCount": 0}, "name": "Pilates House | خانه پيلاتس", "id": "527910ad11d273ebeea302c7", "allowMenuUrlEdit": true, "venueChains": [], "location": {"cc": "IR", "lat": 35.579089, "lng": 53.390565, "labeledLatLngs": [{"label": "display", "lng": 53.390565, "lat": 35.579089}], "state": "سمنان", "country": "ایران", "city": "سمنان", "formattedAddress": ["سمنان, سمنان", "ایران"]}}, {"referralId": "v-1505909699", "specials": {"items": [], "count": 0}, "categories": [{"name": "Trade School", "pluralName": "Trade Schools", "id": "4bf58dd8d48988d1ad941735", "icon": {"prefix": "https://ss3.4sqi.net/img/categories_v2/education/tradeschool_", "suffix": ".png"}, "primary": true, "shortName": "Trade School"}], "hasPerk": false, "contact": {}, "beenHere": {"lastCheckinExpiredAt": 0}, "verified": false, "stats": {"checkinsCount": 20, "usersCount": 3, "tipCount": 0}, "name": "Safir For Teens", "id": "570cfce3498e5b652a74dc75", "venueChains": [], "venueRatingBlacklisted": true, "location": {"cc": "IR", "lat": 35.59180334058654, "lng": 53.38647149387217, "labeledLatLngs": [{"label": "display", "lng": 53.38647149387217, "lat": 35.59180334058654}], "state": "سمنان", "country": "ایران", "city": "سمنان", "formattedAddress": ["سمنان, سمنان", "ایران"]}}, {"referralId": "v-1505909699", "specials": {"items": [], "count": 0}, "categories": [{"name": "Sandwich Place", "pluralName": "Sandwich Places", "id": "4bf58dd8d48988d1c5941735", "icon": {"prefix": "https://ss3.4sqi.net/img/categories_v2/food/deli_", "suffix": ".png"}, "primary": true, "shortName": "Sandwiches"}], "hasPerk": false, "contact": {}, "beenHere": {"lastCheckinExpiredAt": 0}, "verified": false, "stats": {"checkinsCount": 3, "usersCount": 3, "tipCount": 0}, "name": "Torombolo | ترومبلو", "id": "50271d26e4b0f66ff8ba0667", "allowMenuUrlEdit": true, "venueChains": [], "location": {"cc": "IR", "address": "Aalem St", "lat": 35.58473410000001, "labeledLatLngs": [{"label": "display", "lng": 53.391063, "lat": 35.58473410000001}], "lng": 53.391063, "country": "ایران", "city": "سمنان", "formattedAddress": ["Aalem St", "سمنان, سمنان", "ایران"], "state": "سمنان"}}, {"referralId": "v-1505909699", "specials": {"items": [], "count": 0}, "categories": [{"name": "Food Service", "pluralName": "Food Services", "id": "56aa371be4b08b9a8d573550", "icon": {"prefix": "https://ss3.4sqi.net/img/categories_v2/shops/foodanddrink_", "suffix": ".png"}, "primary": true, "shortName": "Food Service"}], "hasPerk": false, "contact": {}, "beenHere": {"lastCheckinExpiredAt": 0}, "verified": false, "stats": {"checkinsCount": 3, "usersCount": 2, "tipCount": 0}, "name": "کله پزی سودا", "id": "589010e5a36ecd053934fb53", "allowMenuUrlEdit": true, "venueChains": [], "location": {"cc": "IR", "lat": 35.5793, "lng": 53.395164, "labeledLatLngs": [{"label": "display", "lng": 53.395164, "lat": 35.5793}], "state": "سمنان", "country": "ایران", "city": "سمنان", "formattedAddress": ["سمنان, سمنان", "ایران"]}}, {"referralId": "v-1505909699", "specials": {"items": [], "count": 0}, "categories": [{"name": "Fast Food Restaurant", "pluralName": "Fast Food Restaurants", "id": "4bf58dd8d48988d16e941735", "icon": {"prefix": "https://ss3.4sqi.net/img/categories_v2/food/fastfood_", "suffix": ".png"}, "primary": true, "shortName": "Fast Food"}], "hasPerk": false, "contact": {}, "beenHere": {"lastCheckinExpiredAt": 0}, "verified": false, "stats": {"checkinsCount": 4, "usersCount": 4, "tipCount": 0}, "name": "جزیره سیب زمینی", "id": "57209aba498e748a49364487", "allowMenuUrlEdit": true, "venueChains": [], "location": {"cc": "IR", "address": "بلوار میرزای شیرازی", "lat": 35.578777, "labeledLatLngs": [{"label": "display", "lng": 53.39335, "lat": 35.578777}], "lng": 53.39335, "country": "ایران", "city": "سمنان", "formattedAddress": ["بلوار میرزای شیرازی", "سمنان, سمنان", "ایران"], "state": "سمنان"}}, {"referralId": "v-1505909699", "specials": {"items": [], "count": 0}, "categories": [{"name": "Fast Food Restaurant", "pluralName": "Fast Food Restaurants", "id": "4bf58dd8d48988d16e941735", "icon": {"prefix": "https://ss3.4sqi.net/img/categories_v2/food/fastfood_", "suffix": ".png"}, "primary": true, "shortName": "Fast Food"}], "hasPerk": false, "contact": {}, "beenHere": {"lastCheckinExpiredAt": 0}, "verified": false, "stats": {"checkinsCount": 5, "usersCount": 4, "tipCount": 0}, "name": "ژورک", "id": "56c38aa1cd10e3e8d6193c2e", "allowMenuUrlEdit": true, "venueChains": [], "location": {"cc": "IR", "lat": 35.581307058247184, "lng": 53.39582434357784, "labeledLatLngs": [{"label": "display", "lng": 53.39582434357784, "lat": 35.581307058247184}], "country": "ایران", "formattedAddress": ["ایران"]}}, {"referralId": "v-1505909699", "specials": {"items": [], "count": 0}, "categories": [{"name": "Road", "pluralName": "Roads", "id": "4bf58dd8d48988d1f9931735", "icon": {"prefix": "https://ss3.4sqi.net/img/categories_v2/travel/highway_", "suffix": ".png"}, "primary": true, "shortName": "Road"}], "hasPerk": false, "contact": {}, "beenHere": {"lastCheckinExpiredAt": 0}, "verified": false, "stats": {"checkinsCount": 7, "usersCount": 1, "tipCount": 0}, "name": "Nehzat Blvd. | بلوار نهضت", "id": "571f7d3e498e2e6dddd4effa", "venueChains": [], "venueRatingBlacklisted": true, "location": {"cc": "IR", "lat": 35.593351488348816, "lng": 53.39427424154294, "labeledLatLngs": [{"label": "display", "lng": 53.39427424154294, "lat": 35.593351488348816}], "state": "سمنان", "country": "ایران", "city": "سمنان", "formattedAddress": ["سمنان, سمنان", "ایران"]}}, {"referralId": "v-1505909699", "specials": {"items": [], "count": 0}, "categories": [{"name": "Restaurant", "pluralName": "Restaurants", "id": "4bf58dd8d48988d1c4941735", "icon": {"prefix": "https://ss3.4sqi.net/img/categories_v2/food/default_", "suffix": ".png"}, "primary": true, "shortName": "Restaurant"}], "hasPerk": false, "contact": {}, "beenHere": {"lastCheckinExpiredAt": 0}, "verified": false, "stats": {"checkinsCount": 1, "usersCount": 1, "tipCount": 0}, "name": "کبابی بناب", "id": "5856d6082bc5e2798b50a291", "allowMenuUrlEdit": true, "venueChains": [], "location": {"cc": "IR", "lat": 35.595078, "lng": 53.402878, "labeledLatLngs": [{"label": "display", "lng": 53.402878, "lat": 35.595078}], "state": "سمنان", "country": "ایران", "city": "سمنان", "formattedAddress": ["سمنان, سمنان", "ایران"]}}, {"referralId": "v-1505909699", "specials": {"items": [], "count": 0}, "categories": [{"name": "Road", "pluralName": "Roads", "id": "4bf58dd8d48988d1f9931735", "icon": {"prefix": "https://ss3.4sqi.net/img/categories_v2/travel/highway_", "suffix": ".png"}, "primary": true, "shortName": "Road"}], "hasPerk": false, "contact": {}, "beenHere": {"lastCheckinExpiredAt": 0}, "verified": false, "stats": {"checkinsCount": 1, "usersCount": 1, "tipCount": 0}, "name": "Kargar Blvrd.|بلوار كارگر", "id": "5635a53c498e20709bbc1159", "venueChains": [], "venueRatingBlacklisted": true, "location": {"cc": "IR", "lat": 35.586709, "lng": 53.406009, "labeledLatLngs": [{"label": "display", "lng": 53.406009, "lat": 35.586709}], "state": "سمنان", "country": "ایران", "city": "سمنان", "formattedAddress": ["سمنان, سمنان", "ایران"]}}, {"referralId": "v-1505909699", "specials": {"items": [], "count": 0}, "categories": [{"name": "Bank", "pluralName": "Banks", "id": "4bf58dd8d48988d10a951735", "icon": {"prefix": "https://ss3.4sqi.net/img/categories_v2/shops/financial_", "suffix": ".png"}, "primary": true, "shortName": "Bank"}], "hasPerk": false, "contact": {}, "beenHere": {"lastCheckinExpiredAt": 0}, "verified": false, "stats": {"checkinsCount": 4, "usersCount": 4, "tipCount": 0}, "name": "Mellat Bank | بانك ملت شعبه امام رضا", "id": "57454add498e8b9ffc629f84", "allowMenuUrlEdit": true, "venueChains": [], "location": {"cc": "IR", "lat": 35.583753, "lng": 53.402271, "labeledLatLngs": [{"label": "display", "lng": 53.402271, "lat": 35.583753}], "country": "ایران", "formattedAddress": ["ایران"]}}, {"referralId": "v-1505909699", "specials": {"items": [], "count": 0}, "categories": [{"name": "Residential Building (Apartment / Condo)", "pluralName": "Residential Buildings (Apartments / Condos)", "id": "4d954b06a243a5684965b473", "icon": {"prefix": "https://ss3.4sqi.net/img/categories_v2/building/apartment_", "suffix": ".png"}, "primary": true, "shortName": "Residential"}], "hasPerk": false, "contact": {}, "beenHere": {"lastCheckinExpiredAt": 0}, "verified": false, "stats": {"checkinsCount": 1, "usersCount": 1, "tipCount": 0}, "name": "خونه خاله🙄❤", "id": "58766c7902b60e777f505fc4", "private": true, "venueChains": [], "venueRatingBlacklisted": true, "location": {"state": "سمنان", "lng": 53.391537, "address": "10gharbi", "lat": 35.58655, "labeledLatLngs": [{"label": "display", "lng": 53.391537, "lat": 35.58655}], "cc": "IR", "country": "ایران", "city": "سمنان", "formattedAddress": ["10gharbi (taavon)", "سمنان, سمنان", "ایران"], "crossStreet": "taavon"}}, {"referralId": "v-1505909699", "specials": {"items": [], "count": 0}, "categories": [{"name": "Garden", "pluralName": "Gardens", "id": "4bf58dd8d48988d15a941735", "icon": {"prefix": "https://ss3.4sqi.net/img/categories_v2/parks_outdoors/garden_", "suffix": ".png"},